     2.11           OBSERVATION DATA    M (MIXED)           RINEX VERSION / TYPE
teqc  2019Feb25     NGS Web             20220704 07:18:43UTCPGM / RUN BY / DATE
Linux 2.4.21-27.ELsmp|Opteron|gcc|Linux 64|=+               COMMENT
teqc  2019Feb25     CORS-ADM Account    20210530 21:20:21UTCCOMMENT
teqc  2019Feb25     NOAA/NOS/NGS/CORS   20210429 11:20:44UTCCOMMENT
teqc  2020Oct7      UNAVCO Archive Ops  20210429 00:48:36UTCCOMMENT
  0.0080      (antenna height)                              COMMENT
 +37.41651209 (latitude)                                    COMMENT
-122.20424721 (longitude)                                   COMMENT
0064.231      (elevation)                                   COMMENT
BIT 2 OF LLI FLAGS DATA COLLECTED UNDER A/S CONDITION       COMMENT
SLAC (COGO code)                                            COMMENT
RINEX file created by UNAVCO GPS Archive.                   COMMENT
For more information contact archive-gps@unavco.org         COMMENT
Monument ID: 18858                                          COMMENT
UNAVCO 4-char name:   SLAC                                  COMMENT
4-char name from Log or data file: SLAC                     COMMENT
Monument location: 37.416517 -122.204262 63.6962            COMMENT
Visit ID: 126772                                            COMMENT
doi:10.7283/T5KS6PW7                                        COMMENT
End of DB comments                                          COMMENT
input file: slac202104280000a.tgd                           COMMENT
 SNR is mapped to RINEX snr flag value [0-9]                COMMENT
  L1 & L2: min(max(int(snr_dBHz/6), 0), 9)                  COMMENT
teqc.e edited: all SBAS satellites excluded                 COMMENT
teqc.e edited: all QZSS satellites excluded                 COMMENT
Forced Modulo Decimation to 30 seconds                      COMMENT
SLAC                                                        MARKER NAME
49523S001                                                   MARKER NUMBER
Blume, Freddy       UNAVCO                                  OBSERVER / AGENCY
5302K56635          TRIMBLE NETR9       5.42                REC # / TYPE / VERS
0220369855          TRM59800.80     NONE                    ANT # / TYPE
 -2703115.2660 -4291768.3440  3854247.9550                  APPROX POSITION XYZ
        0.0000        0.0000        0.0000                  ANTENNA: DELTA H/E/N
     1     1                                                WAVELENGTH FACT L1/2
    20    L1    L2    C1    P2    P1    S1    S2    C2    L5# / TYPES OF OBSERV
          C5    S5    L6    C6    S6    L7    C7    S7    L8# / TYPES OF OBSERV
          C8    S8                                          # / TYPES OF OBSERV
    30.0000                                                 INTERVAL
teqc.w windowed: start @ 2021 Apr 28 19:00:00.000           COMMENT
teqc.w windowed:  end  @ 2021 Apr 28 21:00:00.000           COMMENT
  2021     4    28    19     0    0.0000000     GPS         TIME OF FIRST OBS
    18                                                      LEAP SECONDS
                                                            END OF HEADER
 21  4 28 19  0  0.0000000  0 25G15G19G01G17G02G12R15G30G13G28R19R18
                                G06G14R09R08G24R07R16E07E30E13E21E27
                                E15
 122610995.213 7  95540973.904 6  23332073.875    23332083.105
        42.200          37.800    23332082.176


 105562626.468 8  82256563.65447  20087880.078    20087884.836
        52.100          46.700


 126106956.825 5  98265263.438 5  23997373.680    23997385.781
        35.200          35.000    23997383.805    94170889.157 7  23997384.797
        42.200

 109602580.084 8  85404637.103 8  20856676.719    20856683.887
        49.800          48.000    20856683.199


 130100184.800 6 101376823.41643  24757245.625    24757254.855
        39.400          20.100


 130726581.892 5 101864763.38014  24876415.758    24876424.727
        34.200          29.900    24876424.309


 126597192.758 5  98464487.559 4  23690939.523    23690942.566    23690937.469
        31.100          28.800


 122562103.328 7  95502864.017 6  23322776.570    23322787.234
        43.700          40.200    23322787.203    91523592.242 7  23322787.500
        46.700

 118668175.293 7  92468744.69844  22581807.156    22581815.184
        45.000          28.500


 114076402.733 8  88890719.24945  21708016.938    21708023.063
        48.700          35.500


 104392234.102 6  81194114.747 6  19515060.938    19515063.672    19515058.461
        40.800          40.900    19515063.863


 109158022.187 8  84900827.659 7  20449014.805    20449019.223    20449014.457
        48.700          43.400    20449018.184


 120420486.847 6  93834152.342 6  22915242.211    22915253.797
        41.300          40.800    22915253.750    89924419.109 8  22915254.633
        48.600

 115623073.204 7  90095917.056 7  22002342.031    22002350.035
        45.000          45.000    22002349.746    86341947.779 8  22002354.125
        51.500

 108828293.432 8  84644239.424 7  20380044.656    20380046.926    20380043.766
        49.900          43.000    20380046.234


 127254883.461 5                  23763968.992                    23763967.957
        32.300


 116885458.679 7  91079517.072 7  22242537.742    22242548.254
        44.700          44.500    22242547.949    87284538.670 8  22242548.570
        50.800

 126488013.436 6  98379569.822 5  23629036.172    23629042.102    23629035.859
        39.400          34.700    23629040.574


 106626738.984 7  82931934.149 6  19960751.719    19960754.523    19960751.184
        46.000          40.500    19960753.754


 148306079.650 6                  28221722.273
        38.500                                   110748041.190 6  28221731.355
        37.000                                                   113637116.528 6
  28221732.609          39.500   112192577.961 6  28221731.727          41.700
 128295772.209 8                  24413877.055
        48.100                                    95805298.749 8  24413882.945
        48.700                                                    98304568.392 7
  24413882.137          47.800    97054924.170 8  24413882.016          50.600
 138490138.933 6                  26353786.563
        40.000                                   103418000.943 7  26353795.277
        44.000                                                   106115851.021 7
  26353793.066          43.500   104766926.588 7  26353794.547          46.900
 139892915.850 7                  26620734.320
        42.600                                   104465518.044 7  26620740.488
        43.600                                                   107190704.583 7
  26620740.332          44.500   105828109.427 7  26620740.297          47.200
 124314497.240 8                  23656261.148
        52.000                                    92832282.401 8  23656266.277
        51.400                                                    95253991.221 8
  23656265.281          50.900    94043134.914 9  23656265.570          54.000
 125923871.783 8                  23962510.719
        50.300                                    94034101.275 8  23962516.750
        50.400                                                    96487153.227 8
  23962515.637          49.500    95260628.359 8  23962516.211          52.800
 21  4 28 19  0 30.0000000  0 24G15G19G01G17G02G12G30G13G28R19R18G06
                                G14R09R08G24R07R16E07E30E13E21E27E15
 122665814.306 7  95583690.054 6  23342507.008    23342515.199
        43.000          38.900    23342514.539


 105548914.264 8  82245878.82647  20085270.422    20085275.531
        52.100          46.500


 126180522.833 5  98322587.546 5  24011372.609    24011384.922
        35.700          35.700    24011384.352    94225824.769 7  24011383.496
        42.700

 109650045.467 8  85441623.123 7  20865709.586    20865716.332
        50.300          46.900    20865716.074


 129995719.436 6 101295422.04543  24737366.008    24737376.152
        38.900          21.100


 130641880.508 5 101798762.36815  24860296.156
        31.200          30.800    24860305.707


 122661909.866 7  95580635.271 6  23341768.742    23341779.543
        42.300          39.900    23341779.965    91598122.968 7  23341780.680
        47.000

 118752714.069 7  92534619.01244  22597895.086    22597902.086
        45.000          28.200


 114116079.045 8  88921635.83245  21715566.992    21715573.523
        48.500          35.500


 104347144.134 6  81159044.787 6  19506630.258    19506634.684    19506629.578
        39.800          41.700    19506634.453


 109232014.828 8  84958377.482 7  20462875.984    20462880.449    20462875.469
        48.100          44.100    20462880.020


 120323223.077 6  93758362.436 6  22896734.055    22896745.262
        41.400          41.300    22896745.148    89851787.159 8  22896745.863
        48.700

 115680471.762 7  90140643.184 7  22013264.891    22013272.992
        46.500          45.400    22013272.422    86384810.314 8  22013276.555
        51.400

 108761712.437 8  84592454.223 7  20367575.602    20367578.492    20367574.996
        50.100          43.900    20367578.000


 127266547.362 5                  23766151.734                    23766147.172
        30.100


 116806648.643 7  91018106.670 7  22227540.844    22227551.258
        44.700          44.500    22227550.613    87225687.039 8  22227551.199
        51.200

 126569817.402 6  98443195.074 5  23644319.086    23644324.117    23644317.539
        40.100          35.600    23644324.730


 106652689.248 7  82952117.675 7  19965609.641    19965612.422    19965609.105
        45.700          42.000    19965612.957


 148386746.331 6                  28237072.727
        38.500                                   110808279.092 6  28237083.777
        40.900                                                   113698925.927 6
  28237080.379          36.700   112253601.619 7  28237082.793          42.300
 128339283.257 8                  24422156.805
        48.500                                    95837790.753 8  24422163.035
        48.700                                                    98337908.015 7
  24422160.926          46.800    97087839.993 8  24422161.988          50.300
 138396460.778 6                  26335959.531
        39.100                                   103348046.534 7  26335967.789
        43.800                                                   106044071.716 7
  26335967.809          43.600   104696059.735 7  26335968.289          46.600
 139834308.252 7                  26609582.719
        43.000                                   104421752.674 7  26609587.680
        43.500                                                   107145797.491 7
  26609587.344          44.600   105783773.180 7  26609587.574          47.100
 124299413.132 8                  23653390.906
        52.400                                    92821018.292 8  23653395.891
        51.700                                                    95242433.267 8
  23653394.855          51.000    94031723.883 9  23653395.145          54.000
 125884588.587 8                  23955035.430
        50.300                                    94004766.429 8  23955041.516
        50.700                                                    96457053.119 8
  23955040.434          49.400    95230910.883 8  23955040.793          52.900
 21  4 28 19  1  0.0000000  0 24G15G19G01G17G02G12R15G30G13G28R19R18
                                G06G14R09G24R07R16E07E30E13E21E27E15
 122721009.052 7  95626698.925 6  23353009.805    23353018.238
        42.300          38.900    23353017.563


 105535741.883 8  82235614.64547  20082763.648    20082768.863
        51.500          46.700


 126254561.297 5  98380279.865 5  24025461.836    24025474.598
        35.800          35.700    24025473.793    94281113.191 6  24025470.977
        41.500

 109697864.628 8  85478884.790 7  20874809.039    20874816.160
        50.200          47.400    20874816.078


 129891236.261 6 101214006.75143  24717484.789    24717493.875
        39.100          21.700


 130557203.316 5 101732780.21415  24844187.367
        30.800          30.900    24844192.133


 126779501.10114  98606293.68213  23725057.453    23725059.672    23725054.848
        29.700          22.100


 122761947.209 6  95658586.383 6  23360805.500    23360816.723
        41.400          39.400    23360815.984    91672826.078 7  23360816.828
        46.800

 118837540.324 7  92600717.34544  22614035.734    22614043.883
        44.800          28.500


 114155861.695 8  88952635.27745  21723137.602    21723144.258
        49.300          35.900


 104302845.784 6  81124590.540 7  19498350.539    19498353.742    19498348.773
        40.200          42.300    19498353.945


 109306648.071 8  85016425.529 7  20476857.773    20476861.734    20476857.098
        48.900          43.700    20476861.785


 120226168.714 7  93682735.718 6  22878264.406    22878276.352
        42.200          41.200    22878276.559    89779311.558 8  22878277.098
        48.300

 115738021.652 7  90185487.233 7  22024216.883    22024224.418
        46.100          45.500    22024224.398    86427785.851 8  22024227.727
        51.300

 108695359.250 8  84540846.199 7  20355149.141    20355152.582    20355149.262
        49.600          43.900    20355152.551


 116728167.714 7  90956952.704 7  22212606.617    22212616.652
        44.300          44.900    22212616.305    87167081.172 8  22212616.758
        51.000

 126651962.991 6  98507086.013 5  23659664.883    23659669.633    23659664.043
        41.100          34.500    23659668.602


 106679057.925 7  82972626.625 6  19970545.547    19970548.141    19970545.047
        45.500          40.800    19970548.203


 148467298.406 6                  28252402.133
        39.600                                   110868431.438 6  28252411.711
        39.700                                                   113760647.431 6
  28252409.703          37.900   112314538.534 7  28252411.180          42.300
 128382905.355 8                  24430458.906
        49.000                                    95870365.662 8  24430463.848
        48.400                                                    98371332.714 7
  24430462.371          47.800    97120839.792 8  24430463.168          50.900
 138302874.993 6                  26318151.344
        40.500                                   103278161.094 7  26318159.504
        43.600                                                   105972363.191 7
  26318157.906          43.500   104625262.745 7  26318159.352          46.600
 139775697.937 7                  26598429.047
        43.900                                   104377985.246 7  26598434.242
        43.500                                                   107100888.313 7
  26598434.012          44.100   105739434.877 7  26598434.340          46.900
 124284441.087 8                  23650541.586
        51.500                                    92809837.878 8  23650546.828
        51.500                                                    95230961.189 8
  23650545.906          50.900    94020397.640 9  23650546.035          54.000
 125845712.424 8                  23947637.117
        50.500                                    93975735.555 8  23947643.602
        50.600                                                    96427264.911 8
  23947642.430          49.800    95201501.336 8  23947642.820          52.900
 21  4 28 19  1 30.0000000  0 24G15G19G01G17G02R15G30G13G28R19R18G06
                                G14R09R20G24R07R16E07E30E13E21E27E15
 122776575.506 7  95669997.448 6  23363583.109    23363592.172
        42.700          39.000    23363591.777


 105523107.708 8  82225769.84047  20080359.820    20080364.758
        51.900          46.600


 126329068.606 6  98438337.489 6  24039640.508    24039652.688
        36.900          36.000    24039652.344    94336751.705 6  24039649.391
        41.100

 109746034.227 8  85516419.523 8  20883975.047    20883982.613
        50.100          48.100    20883981.922


 129786736.818 6 101132578.84143  24697597.469    24697608.047
        37.800          19.900


 126870963.22414                  23742170.594                    23742170.086
        25.200


 122862212.451 6  95736715.062 6  23379884.609    23379895.789
        40.900          37.900    23379895.219    91747699.363 7  23379896.574
        46.800

 118922649.777 7  92667036.33744  22630232.516    22630239.820
        44.900          28.900


 114195749.560 8  88983716.72045  21730728.188    21730734.703
        48.300          35.000


 104259339.459 6  81090752.310 6  19490217.023    19490220.688    19490215.363
        39.900          41.500    19490220.910


 109381916.743 7  85074967.814 7  20490957.914    20490962.004    20490957.449
        47.700          43.600    20490961.133


 120129325.725 7  93607273.702 6  22859837.063    22859848.063
        42.200          41.600    22859847.926    89706993.802 8  22859848.441
        48.600

 115795721.545 7  90230448.151 7  22035196.180    22035203.906
        46.200          44.700    22035203.211    86470873.395 8  22035207.578
        51.200

 108629235.225 8  84489416.405 7  20342767.070    20342769.633    20342766.547
        49.300          43.800    20342769.133


 123057665.93015  95711619.24315  23012427.039    23012434.445    23012426.652
        33.800          34.400    23012434.445


 116650017.044 7  90896056.112 7  22197734.273    22197745.148
        43.800          45.000    22197745.266    87108721.917 8  22197745.336
        51.200

 126734445.223 6  98571238.724 5  23675074.977    23675078.863    23675072.164
        39.200          34.500    23675078.715


 106705844.872 7  82993460.908 6  19975560.133    19975563.066    19975559.719
        46.200          40.200    19975561.688


 148547732.897 6                  28267707.641
        37.800                                   110928495.894 6  28267717.766
        39.500                                                   113822278.943 6
  28267717.281          39.400   112375386.522 7  28267718.242          43.200
 128426637.630 8                  24438779.977
        48.000                                    95903022.830 7  24438785.508
        47.900                                                    98404841.838 7
  24438784.840          47.700    97153922.938 8  24438785.121          50.300
 138209382.327 6                  26300360.727
        40.500                                   103208345.207 7  26300368.586
        44.200                                                   105900725.983 7
  26300367.207          43.200   104554536.196 7  26300368.223          47.100
 139717083.768 7                  26587275.609
        44.100                                   104334214.931 7  26587280.445
        43.500                                                   107055976.147 7
  26587279.977          44.700   105695093.652 7  26587280.387          47.300
 124269580.459 8                  23647713.523
        51.700                                    92798740.657 8  23647718.848
        51.400                                                    95219574.469 8
  23647717.930          50.900    94009155.670 9  23647718.137          54.000
 125807243.096 8                  23940316.742
        50.500                                    93947008.475 8  23940323.281
        50.700                                                    96397788.421 8
  23940322.266          49.700    95172399.549 8  23940322.313          52.900
 21  4 28 19  2  0.0000000  0 23G15G19G01G17G02G30G13G28R19R18G06G14
                                R09R20G24R07R16E07E30E13E21E27E15
 122832511.545 7  95713583.927 6  23374228.211    23374237.051
        43.800          39.800    23374237.184


 105511011.747 8  82216344.41947  20078058.242    20078062.934
        52.200          46.600


 126404042.493 6  98496758.636 5  24053907.531    24053918.777
        37.700          35.000    24053918.449    94392738.667 6  24053916.895
        40.600

 109794552.550 8  85554225.993 7  20893207.797    20893215.285
        49.600          47.700    20893214.586


 129682223.890 6 101051140.46143  24677710.852    24677719.227
        38.300          19.900


 122962703.994 6  95815020.057 6  23399008.211    23399020.055
        41.800          39.700    23399020.059    91822741.661 7  23399019.063
        46.300

 119008039.472 7  92733573.70744  22646481.070    22646489.141
        45.300          29.100


 114235742.956 8  89014880.38445  21738337.977    21738344.992
        48.100          35.700


 104216627.198 6  81057531.669 6  19482231.695    19482236.230    19482231.043
        39.600          41.400    19482236.172


 109457817.484 8  85134001.699 7  20505177.648    20505181.105    20505176.453
        48.100          44.500    20505180.371


 120032697.513 6  93531979.031 7  22841447.266    22841459.996
        40.900          42.100    22841460.160    89634836.443 8  22841461.336
        48.800

 115853571.536 7  90275526.055 7  22046204.617    22046212.094
        45.900          44.600    22046212.027    86514073.026 8  22046216.184
        51.200

 108563342.537 8  84438166.553 7  20330427.367    20330429.871    20330426.855
        49.100          43.600    20330430.082


 122922690.494 5  95606638.523 6  22987184.625    22987194.070    22987185.719
        32.900          36.500    22987193.879


 116572199.350 7  90835418.974 7  22182926.586    22182936.973
        44.900          44.700    22182936.711    87050611.322 8  22182937.168
        51.300

 126817259.790 6  98635649.996 5  23690541.609    23690549.016    23690541.996
        38.900          34.500    23690548.156


 106733051.371 7  83014621.505 6  19980653.805    19980656.469    19980653.434
        45.700          41.700    19980656.133


 148628048.441 6                  28282992.258
        38.500                                   110988471.606 6  28283002.531
        40.300                                                   113883819.204 6
  28283000.465          38.600   112436144.507 7  28283001.609          43.000
 128470480.703 7                  24447123.266
        47.700                                    95935762.763 7  24447128.227
        47.400                                                    98438435.837 7
  24447127.707          47.700    97187089.906 8  24447128.148          50.400
 138115984.926 6                  26282588.195
        40.900                                   103138600.443 7  26282595.586
        44.000                                                   105829161.795 7
  26282595.113          44.100   104483881.725 7  26282595.211          47.400
 139658466.261 7                  26576120.703
        44.900                                   104290442.153 7  26576125.969
        43.600                                                   107011061.457 7
  26576125.398          44.100   105650749.912 7  26576125.801          47.000
 124254832.080 8                  23644907.180
        52.100                                    92787727.257 8  23644912.266
        51.400                                                    95208273.762 8
  23644911.371          51.000    93997998.617 9  23644911.605          54.000
 125769181.843 8                  23933073.961
        50.400                                    93918586.130 8  23933080.246
        50.900                                                    96368624.633 8
  23933079.543          49.800    95143606.481 8  23933079.527          53.000
 21  4 28 19  2 30.0000000  0 23G15G19G01G17G02G30G13G28R19R18G06G14
                                R09R20G24R07R16E07E30E13E21E27E15
 122888814.056 7  95757455.952 6  23384941.938    23384951.152
        43.000          39.900    23384950.527


 105499453.152 8  82207337.72047  20075858.727    20075863.645
        52.100          46.600


 126479480.514 6  98555541.487 5  24068263.773    24068275.051
        37.400          35.800    24068274.660    94449072.204 6  24068272.758
        41.000

 109843417.359 8  85592302.470 7  20902506.336    20902513.988
        50.200          47.600    20902513.750


 129577700.292 6 100969693.71443  24657818.953    24657828.535
        39.000          20.600


 123063420.098 7  95893500.062 6  23418174.711    23418184.582
        42.200          39.100    23418185.563    91897951.636 7  23418185.031
        45.900

 119093706.464 7  92800327.16144  22662782.500    22662791.371
        44.100          28.900


 114275841.819 7  89046126.25045  21745968.492    21745975.438
        47.900          35.000


 104174710.754 6  81024929.997 6  19474397.680    19474400.488    19474395.512
        40.100          41.500    19474400.363


 109534346.415 8  85193524.187 7  20519513.953    20519517.727    20519513.250
        48.300          44.600    20519517.090


 119936287.322 6  93456854.231 6  22823101.555    22823113.832
        41.700          41.600    22823113.863    89562841.854 8  22823114.371
        48.400

 115911571.475 7  90320720.778 7  22057242.117    22057249.676
        45.900          44.800    22057249.461    86557384.647 8  22057253.313
        51.000

 108497683.928 8  84387098.749 7  20318131.461    20318134.422    20318130.957
        49.100          44.600    20318134.328


 122787889.887 5  95501793.771 6  22961977.477    22961985.098    22961977.609
        33.500          36.300    22961985.605


 116494716.994 7  90775043.113 7  22168182.484    22168192.172
        43.600          43.900    22168191.816    86992751.128 8  22168192.504
        51.400

 126900402.167 6  98700316.200 5  23706077.031    23706080.844    23706074.215
        39.700          35.700    23706082.074


 106760678.095 7  83036108.939 6  19985825.047    19985828.016    19985824.805
        45.600          41.000    19985827.742


 148708243.242 6                  28298251.742
        38.500                                   111048357.171 6  28298262.457
        38.700                                                   113945266.996 6
  28298262.355          39.800   112496811.191 7  28298262.320          42.200
 128514434.881 7                  24455487.320
        47.300                                    95968585.670 7  24455492.207
        47.300                                                    98472114.978 7
  24455491.535          47.100    97220340.931 8  24455492.301          49.700
 138022684.638 6                  26264832.438
        41.000                                   103068928.229 7  26264840.621
        43.600                                                   105757672.019 7
  26264840.844          43.900   104413300.723 7  26264840.699          46.800
 139599845.521 7                  26564965.391
        43.800                                   104246666.944 7  26564971.047
        44.400                                                   106966144.296 7
  26564970.367          44.300   105606403.727 7  26564970.676          47.700
 124240196.432 8                  23642122.250
        51.500                                    92776798.049 8  23642127.320
        51.400                                                    95197059.443 8
  23642126.508          51.100    93986926.849 9  23642126.543          54.000
 125731529.621 8                  23925909.000
        50.400                                    93890469.226 8  23925915.078
        50.400                                                    96339774.238 8
  23925914.090          50.000    95115122.834 8  23925914.555          53.000
 21  4 28 19  3  0.0000000  0 25G15G19G01G17G02G12G30G13G28R19R18G06
                                G14R09R08R20G24R07R16E07E30E13E21E27
                                E15
 122945480.225 6  95801611.353 6  23395724.648    23395734.309
        41.700          38.700    23395733.680


 105488431.259 8  82198749.22847  20073761.094    20073766.207
        52.000          46.300


 126555379.832 6  98614683.788 5  24082704.977    24082718.207
        36.000          35.200    24082718.023    94505750.221 6  24082716.980
        40.800

 109892626.334 8  85630647.100 7  20911870.500    20911878.098
        49.900          47.200    20911877.625


 129473168.067 6 100888240.26343  24637926.727    24637936.309
        37.700          19.600


 130218716.65115 101469035.50015  24779776.453
        30.100          33.100    24779785.172


 123164358.643 6  95972153.331 6  23437382.180    23437393.949
        41.400          38.700    23437393.078    91973327.698 7  23437391.816
        45.100

 119179647.310 7  92867294.00444  22679137.398    22679145.293
        44.500          29.100


 114316046.073 8  89077454.22345  21753619.500    21753626.023
        48.400          35.100


 104133590.721 6  80992947.745 6  19466710.750    19466713.391    19466708.383
        40.600          40.900    19466713.594


 109611499.537 8  85253532.144 7  20533967.367    20533971.164    20533966.668
        48.000          43.100    20533970.727


 119840097.884 7  93381901.496 7  22804798.070    22804809.820
        42.400          42.000    22804810.141    89491012.137 8  22804810.578
        48.600

 115969720.883 7  90366031.978 7  22068307.063    22068314.730
        45.900          44.300    22068314.543    86600807.891 8  22068318.773
        50.800

 108432261.319 8  84336214.483 7  20305880.250    20305882.566    20305879.926
        48.700          42.400    20305882.688


 127334972.25315                  23778931.758
        32.200


 122653267.514 5  95397087.666 5  22936801.680    22936809.652    22936801.012
        32.600          35.300    22936810.008


 116417571.986 7  90714930.136 7  22153502.008    22153511.969
        44.900          43.800    22153511.727    86935142.855 8  22153512.023
        50.900

 126983868.195 6  98765234.164 5  23721667.734    23721672.910    23721666.773
        39.600          34.300    23721673.055


 106788725.602 7  83057923.637 6  19991075.672    19991078.598    19991075.195
        45.000          40.400    19991079.590


 148788315.302 6                  28313490.250
        39.300                                   111108151.002 6  28313500.465
        40.000                                                   114006620.711 6
  28313499.777          38.300   112557384.966 7  28313499.590          42.700
 128558500.156 7                  24463872.438
        46.900                                    96001491.548 7  24463877.738
        47.000                                                    98505879.274 7
  24463877.121          46.300    97253676.015 8  24463877.684          49.300
 137929483.095 6                  26247099.234
        41.600                                   102999329.698 7  26247105.715
        44.000                                                   105686257.888 7
  26247105.332          44.000   104342794.389 7  26247105.113          47.000
 139541221.423 7                  26553809.352
        44.100                                   104202889.234 7  26553815.508
        44.200                                                   106921224.552 7
  26553814.461          44.200   105562055.005 7  26553814.941          47.100
 124225673.717 8                  23639358.742
        51.800                                    92765953.161 8  23639363.770
        51.200                                                    95185931.644 8
  23639363.105          50.900    93975940.512 8  23639362.957          53.900
 125694287.036 8                  23918821.938
        50.500                                    93862658.220 8  23918828.211
        50.500                                                    96311237.725 8
  23918827.387          49.800    95086949.079 8  23918827.512          53.000
 21  4 28 19  3 30.0000000  0 25G15G19G01G17G02G12G30G13G28R19R18G06
                                G14R09R08R20G24R07R16E07E30E13E21E27
                                E15
 123002508.665 6  95846049.080 6  23406577.313    23406586.520
        41.700          39.600    23406586.168


 105477946.928 8  82190579.62647  20071765.805    20071770.758
        52.400          46.800


 126631739.160 6  98674184.499 5  24097238.094    24097249.250
        36.300          35.700    24097247.609    94562771.755 6  24097245.914
        40.300

 109942178.589 8  85669259.238 7  20921299.875    20921307.332
        50.200          47.100    20921306.980


 129368631.184 6 100806783.22143  24618034.539    24618044.168
        39.500          21.100


 130134159.41714 101403146.791 5  24763681.422
        28.000          32.600    24763694.918


 123265518.985 6  96050979.510 6  23456631.969    23456643.500
        41.400          38.500    23456643.590    92048869.403 7  23456641.914
        44.900

 119265860.063 7  92934472.71144  22695542.688    22695551.121
        44.000          28.700


 114356356.861 8  89108865.21845  21761289.992    21761297.375
        48.400          35.700


 104093269.774 6  80961587.021 6  19459171.352    19459175.797    19459170.852
        40.900          41.700    19459175.441


 109689274.240 8  85314023.564 7  20548536.391    20548540.410    20548535.926
        48.600          43.100    20548539.715


 119744133.628 7  93307124.187 7  22786536.008    22786547.832
        42.000          42.000    22786547.824    89419350.579 8  22786548.465
        48.500

 116028020.860 7  90411460.515 7  22079400.805    22079408.711
        45.700          45.100    22079408.711    86644343.553 8  22079412.891
        51.000

 108367078.381 8  84285516.661 7  20293673.406    20293676.063    20293672.742
        49.000          42.600    20293676.395


 127350657.41815                  23781862.961                    23781861.031
        31.700


 122518828.479 5  95292524.043 5  22911662.266    22911668.348    22911660.652
        33.000          35.300    22911668.199


 116340767.945 7  90655082.852 7  22138885.969    22138896.637
        44.100          45.100    22138896.805    86877789.213 8  22138897.125
        51.200

 127067654.458 6  98830401.191 6  23737320.352    23737325.488    23737319.406
        39.900          36.000    23737324.813


 106817196.080 7  83080067.350 6  19996405.609    19996408.531    19996405.180
        45.500          40.500    19996408.793


 148868264.133 6                  28328702.680
        37.900                                   111167852.829 6  28328713.066
        38.300                                                   114067879.980 6
  28328713.980          40.200   112617865.512 7  28328713.617          42.400
 128602678.125 7                  24472279.078
        47.000                                    96034481.560 8  24472285.102
        48.000                                                    98539729.920 7
  24472284.457          47.600    97287096.343 8  24472284.547          50.600
 137836383.284 7                  26229383.500
        42.200                                   102929807.155 7  26229389.043
        44.000                                                   105614921.704 7
  26229387.871          44.200   104272365.028 7  26229388.730          47.500
 139482595.318 7                  26542653.297
        44.000                                   104159110.026 7  26542659.285
        45.100                                                   106876303.286 7
  26542658.527          44.300   105517704.755 8  26542658.797          48.000
 124211265.696 8                  23636616.844
        52.500                                    92755193.919 8  23636621.840
        51.300                                                    95174891.735 8
  23636621.184          51.300    93965040.932 9  23636621.203          54.100
 125657456.225 8                  23911812.766
        49.900                                    93835154.706 8  23911819.414
        50.600                                                    96283016.729 8
  23911818.465          50.000    95059086.819 8  23911818.840          53.100
 21  4 28 19  4  0.0000000  0 25G15G19G01G17G02G12G30G13G28R19R18G06
                                G14R09R08R20G24R07R16E07E30E13E21E27
                                E15
 123059896.370 6  95890766.726 6  23417497.211    23417506.625
        40.600          40.200    23417506.145


 105467999.287 8  82182828.22047  20069872.563    20069877.605
        52.200          47.700


 126708555.822 5  98734041.616 5  24111854.656    24111867.309
        35.800          35.600    24111866.000    94620134.819 6  24111864.238
        40.800

 109992071.776 8  85708137.029 7  20930794.328    20930801.770
        50.800          47.100    20930801.461


 129264092.252 6 100725324.54243  24598141.047    24598151.016
        40.000          21.800


 130049627.056 4 101337277.431 5  24747598.375
        29.400          31.900    24747608.039


 123366899.114 6  96129976.934 6  23475924.258    23475935.996
        41.600          39.500    23475936.340    92124575.261 7  23475934.246
        44.600

 119352341.312 7  93001860.64245  22712000.227    22712008.008
        45.300          31.200


 114396773.960 8  89140359.05046  21768981.555    21768988.340
        48.900          36.200


 104053748.922 6  80930848.581 7  19451784.250    19451788.039    19451782.613
        41.300          43.300    19451787.496


 109767666.706 8  85374995.447 7  20563222.719    20563226.000    20563221.410
        48.800          44.300    20563225.734


 119648397.568 6  93232524.676 7  22768318.906    22768329.645
        41.900          42.100    22768329.906    89347859.399 8  22768331.141
        48.400

 116086471.094 7  90457006.126 7  22090524.000    22090531.863
        45.200          45.200    22090531.641    86687991.413 8  22090535.453
        51.000

 108302137.236 8  84235006.897 7  20281512.359    20281514.758    20281511.625
        49.000          45.000    20281514.676


 127367032.331 4                  23784922.922                    23784918.250
        29.600


 122384576.086 5  95188105.766 6  22886553.953    22886561.863    22886554.141
        32.200          36.200    22886563.000


 116264307.115 7  90595502.975 7  22124336.406    22124346.723
        44.500          44.800    22124345.898    86820691.859 8  22124347.219
        51.200

 127151756.540 6  98895813.927 5  23753031.984    23753035.211    23753030.566
        40.100          34.400    23753033.953


 106846090.360 7  83102540.655 6  20001815.227    20001817.184    20001814.211
        46.300          41.600    20001817.148


 148948087.741 6                  28343894.305
        38.900                                   111227461.164 6  28343903.840
        39.400                                                   114129043.372 6
  28343903.684          38.400   112678251.381 7  28343903.824          42.600
 128646968.963 8                  24480708.117
        48.200                                    96067555.848 7  24480713.348
        47.700                                                    98573667.030 7
  24480712.703          46.700    97320602.045 8  24480712.938          49.900
 137743386.986 7                  26211686.492
        42.500                                   102860361.928 7  26211692.328
        43.700                                                   105543664.840 7
  26211692.359          43.900   104202013.988 7  26211691.930          47.300
 139423967.264 7                  26531497.047
        42.800                                   104115329.330 7  26531502.605
        45.100                                                   106831380.505 7
  26531502.332          44.600   105473353.020 7  26531502.301          47.900
 124196972.774 8                  23633897.273
        52.800                                    92744520.626 8  23633901.867
        51.300                                                    95163940.012 8
  23633901.328          51.200    93954228.425 9  23633901.359          54.000
 125621037.938 8                  23904883.266
        50.700                                    93807959.248 8  23904889.117
        50.800                                                    96255111.826 8
  23904888.254          50.300    95031536.641 8  23904888.648          53.100
 21  4 28 19  4 30.0000000  0 24G15G19G01G17G02G12G30G13G28R19R18G06
                                G14R09R20G24R07R16E07E30E13E21E27E15
 123117639.953 6  95935761.683 6  23428487.109    23428494.934
        41.600          39.400    23428495.262


 105458587.595 8  82175494.44347  20068081.336    20068086.781
        51.600          46.400


 126785826.710 6  98794252.668 5  24126559.992    24126570.254
        36.300          34.900    24126570.461    94677837.023 6  24126568.395
        41.100

 110042303.315 8  85747278.473 7  20940352.859    20940360.641
        49.900          46.400    20940360.430


 129159553.261 6 100643865.81543  24578249.031    24578257.785
        40.400          20.600


 129965119.444 5 101271427.485 5  24731519.578
        32.400          30.900    24731524.367


 123468496.697 6  96209143.796 6  23495257.945    23495269.375
        41.800          38.300    23495268.887    92200443.456 7  23495268.813
        44.700

 119439087.461 7  93069454.94944  22728507.586    22728514.645
        44.400          29.700


 114437296.950 7  89171935.38345  21776692.852    21776699.207
        47.800          34.900


 104015028.962 6  80900733.082 7  19444546.180    19444549.422    19444544.430
        41.300          42.400    19444549.047


 109846672.391 8  85436444.299 7  20578022.758    20578026.754    20578022.117
        48.800          43.800    20578026.023


 119552892.283 7  93158105.009 6  22750145.555    22750155.566
        42.400          41.400    22750155.766    89276540.550 8  22750156.324
        48.400

 116145070.858 7  90502668.247 7  22101675.367    22101682.992
        46.000          43.700    22101682.875    86731750.941 8  22101686.898
        51.000

 108237439.672 8  84184686.589 7  20269396.039    20269398.789    20269395.711
        48.100          44.000    20269398.309


 122250513.822 5  95083835.181 5  22861485.516    22861491.547    22861483.887
        31.800          34.900    22861493.277


 116188191.280 7  90536191.945 7  22109851.680    22109862.527
        44.700          43.700    22109861.844    86763852.129 8  22109862.793
        50.900

 127236169.562 6  98961468.407 5  23768800.281    23768804.059    23768798.520
        39.200          32.000    23768803.133


 106875408.589 7  83125343.701 6  20007303.039    20007305.770    20007302.551
        45.600          40.900    20007304.961


 149027784.003 6                  28359058.820
        37.500                                   111286974.354 6  28359070.129
        38.200                                                   114190109.148 6
  28359069.402          38.900   112738540.853 7  28359069.930          42.400
 128691372.421 7                  24489157.438
        47.100                                    96100714.257 7  24489162.820
        47.800                                                    98607690.435 7
  24489162.965          47.400    97354192.948 8  24489162.656          50.400
 137650495.480 7                  26194009.141
        42.300                                   102790994.964 7  26194015.328
        43.400                                                   105472488.300 7
  26194015.359          44.100   104131742.239 7  26194015.305          46.500
 139365336.882 7                  26520339.609
        42.600                                   104071546.927 7  26520345.492
        44.800                                                   106786455.946 7
  26520345.270          44.300   105428999.542 8  26520345.332          48.000
 124182794.936 8                  23631199.406
        52.100                                    92733933.273 8  23631203.945
        51.300                                                    95153076.467 8
  23631203.203          51.000    93943502.970 9  23631203.406          54.000
 125585032.534 8                  23898031.523
        51.000                                    93781072.111 8  23898037.371
        50.800                                                    96227523.282 8
  23898036.746          49.800    95004298.801 8  23898037.035          53.000
 21  4 28 19  5  0.0000000  0 25G15G19G01G17G02G12G30G13G28R19R18G06
                                G14R09R08R20G24R07R16E07E30E13E21E27
                                E15
 123175736.679 7  95981031.813 6  23439542.063    23439551.109
        42.400          39.600    23439550.699


 105449710.698 8  82168577.38547  20066392.211    20066397.645
        51.900          46.400


 126863549.344 5  98854815.713 5  24141349.930    24141360.371
        35.000          34.800    24141359.645    94735876.600 6  24141358.254
        41.100

 110092871.172 8  85786681.999 7  20949975.633    20949983.406
        50.700          47.300    20949982.707


 129055016.954 6 100562409.18943  24558356.273    24558364.520
        41.500          20.600


 129880636.734 5 101205596.851 4  24715442.367
        33.800          29.500    24715448.816


 123570309.999 6  96288478.690 6  23514631.609    23514643.547
        41.400          38.700    23514643.527    92276472.711 7  23514643.027
        44.500

 119526095.403 7  93137253.29444  22745063.203    22745072.336
        43.700          27.900


 114477925.875 8  89203594.26745  21784423.852    21784430.473
        48.800          34.400


 103977111.572 6  80871241.769 7  19437457.945    19437461.137    19437455.895
        40.900          42.100    19437461.258


 109926287.636 8  85498367.224 7  20592937.500    20592941.098    20592936.715
        48.300          43.600    20592940.449


 119457621.011 6  93083867.700 6  22732014.953    22732026.113
        41.900          41.400    22732026.523    89205396.474 8  22732026.965
        48.300

 116203820.118 7  90548446.868 7  22112854.563    22112862.395
        46.400          44.100    22112862.430    86775622.108 8  22112866.852
        51.500

 108172988.314 8  84134557.764 7  20257326.664    20257329.121    20257326.031
        48.800          43.600    20257328.617


 127401782.52615                  23791408.461                    23791408.543
        30.300


 122116645.089 5  94979715.162 5  22836449.984    22836456.633    22836449.512
        31.700          35.400    22836456.504


 116112422.885 7  90477151.664 7  22095433.602    22095444.168
        44.900          44.600    22095444.363    86707271.858 8  22095444.203
        50.700

 127320889.155 6  99027361.298 5  23784629.188    23784631.723    23784626.246
        41.500          35.400    23784631.809


 106905151.693 7  83148477.219 6  20012870.414    20012873.980    20012870.617
        45.400          41.600    20012873.996


 149107351.252 6                  28374201.617
        38.800                                   111346391.264 6  28374211.578
        39.100                                                   114251076.067 6
  28374211.523          38.300   112798732.772 7  28374211.305          42.200
 128735888.899 7                  24497628.938
        47.100                                    96133957.042 7  24497633.965
        47.500                                                    98641800.425 7
  24497633.797          47.300    97387869.340 8  24497633.750          50.200
 137557710.786 7                  26176353.727
        43.000                                   102721707.732 7  26176358.664
        43.700                                                   105401393.588 7
  26176358.426          44.700   104061551.267 7  26176358.992          47.300
 139306704.369 6                  26509181.930
        41.700                                   104027762.949 7  26509188.465
        45.500                                                   106741529.787 7
  26509187.867          44.200   105384644.470 8  26509187.996          48.400
 124168732.781 8                  23628523.156
        52.800                                    92723432.310 8  23628528.160
        51.400                                                    95142301.564 8
  23628527.363          51.100    93932865.047 9  23628527.496          54.000
 125549440.980 8                  23891258.844
        50.200                                    93754494.003 8  23891264.891
        50.900                                                    96200251.831 8
  23891263.789          49.900    94977374.024 8  23891264.207          53.300
 21  4 28 19  5 30.0000000  0 26G15G19G01G17G02G12R15G30G13G28R19R18
                                G06G14R09R08R20G24R07R16E07E30E13E21
                                E27E15
 123234183.551 6  96026574.765 6  23450663.922    23450672.957
        41.400          39.100    23450672.340


 105441367.648 8  82162076.30847  20064804.602    20064809.984
        51.500          46.800


 126941720.738 5  98915728.453 5  24156224.227    24156235.672
        34.700          34.800    24156235.820    94794251.259 7  24156234.430
        42.000

 110143772.648 8  85826345.470 7  20959662.055    20959669.949
        49.600          46.700    20959669.477


 128950485.320 6 100480956.17443  24538462.922    24538472.289
        39.400          19.600


 129796178.757 5                  24699371.023
        32.500


 127609901.74615                  23880470.102                    23880469.238
        31.100


 123672336.645 6  96367979.893 6  23534048.117    23534058.191
        41.300          38.700    23534057.996    92352661.348 7  23534057.352
        43.400

 119613361.948 7  93205253.15444  22761670.352    22761679.102
        43.400          28.200


 114518660.779 8  89235335.73545  21792175.492    21792182.328
        48.100          34.500


 103939997.156 6  80842375.048 6  19430519.461    19430523.055    19430518.148
        41.100          40.600    19430523.410


 110006507.904 8  85560760.742 6  20607964.945    20607969.258    20607964.668
        48.500          41.700    20607968.047


 119362586.477 7  93009814.844 7  22713931.992    22713941.684
        43.100          42.500    22713941.941    89134429.160 8  22713941.988
        48.200

 116262718.335 7  90594341.537 7  22124062.227    22124070.441
        45.100          43.600    22124069.852    86819604.504 8  22124075.219
        51.400

 108108785.177 8  84084622.003 6  20245303.742    20245305.625    20245303.074
        48.200          41.000    20245305.957


 127420154.12315                  23794843.266                    23794840.738
        31.900


 121982973.553 5  94875748.582 5  22811452.320    22811460.070    22811453.016
        33.400          34.900    22811461.121


 116037003.921 7  90418383.652 7  22081081.867    22081092.227
        45.200          44.500    22081092.008    86650952.501 8  22081092.352
        50.000

 127405910.479 6  99093488.892 5  23800510.695    23800513.238    23800508.367
        39.900          34.400    23800514.594


 106935319.882 7  83171941.344 6  20018518.672    20018521.559    20018518.137
        45.300          39.500    20018521.469


 149186787.453 6                  28389317.500
        38.600                                   111405710.193 6  28389327.805
        38.500                                                   114311942.469 6
  28389327.855          40.800   112858825.430 7  28389327.699          42.800
 128780518.292 7                  24506121.336
        47.300                                    96167284.173 7  24506126.965
        47.800                                                    98675996.957 7
  24506126.469          46.700    97421631.161 8  24506126.406          50.100
 137465034.299 7                  26158718.047
        43.100                                   102652501.315 7  26158722.938
        43.500                                                   105330381.784 7
  26158722.680          43.700   103991442.157 7  26158723.078          46.800
 139248069.565 7                  26498024.570
        44.000                                   103983977.238 7  26498030.832
        44.900                                                   106696601.845 7
  26498029.859          44.200   105340287.648 7  26498030.180          47.600
 124154786.432 8                  23625869.242
        52.100                                    92713017.829 8  23625874.148
        51.400                                                    95131615.408 8
  23625873.477          51.000    93922314.721 9  23625873.605          54.000
 125514263.706 8                  23884564.680
        50.000                                    93728225.274 8  23884570.840
        50.800                                                    96173297.826 8
  23884569.980          50.100    94950762.659 8  23884570.188          53.300
 21  4 28 19  6  0.0000000  0 26G15G19G01G17G02G12R15G30G13G28R19R18
                                G06G14R09R08R20G24R07R16E07E30E13E21
                                E27E15
 123292978.855 7  96072389.228 6  23461852.313    23461861.012
        42.900          39.300    23461860.867


 105433558.904 8  82155991.56547  20063318.906    20063324.035
        50.900          46.700


 127020339.232 5  98976989.559 6  24171183.570    24171195.660
        33.300          36.100    24171196.988    94852959.836 7  24171195.957
        42.200

 110195006.833 8  85866268.192 7  20969412.000    20969419.238
        49.600          46.500    20969418.953


 128845961.982 6 100399509.67043  24518570.305    24518581.445
        38.700          19.000


 129711746.59114 101073992.14714  24683303.070
        29.100          29.600    24683309.586


 127703183.616 5                  23897924.625                    23897924.012
        32.200


 123774575.825 6  96447646.680 6  23553502.922    23553513.430
        40.000          38.300    23553512.906    92429008.659 7  23553513.324
        43.900

 119700884.239 7  93273452.26644  22778325.320    22778333.824
        43.900          28.500


 114559502.334 8  89267160.31845  21799947.844    21799954.707
        48.600          35.200


 103903687.902 6  80814134.537 6  19423731.633    19423735.422    19423730.707
        41.200          40.600    19423735.777


 110087330.381 8  85623622.637 6  20623106.133    20623110.246    20623105.246
        48.000          41.600    20623109.234


 119267792.789 7  92935949.661 6  22695893.406    22695903.238
        43.000          41.700    22695902.363    89063641.697 8  22695903.680
        48.300

 116321766.286 7  90640352.901 7  22135299.656    22135307.918
        46.600          45.100    22135307.664    86863698.713 8  22135311.148
        51.000

 108044833.565 8  84034881.866 6  20233327.945    20233329.555    20233326.891
        49.000          41.300    20233328.957


 127439188.593 5                  23798395.664                    23798395.359
        33.400


 121849503.621 5  94771938.700 6  22786495.016    22786500.746    22786493.547
        32.600          36.700    22786501.219


 115961937.633 7  90359890.444 7  22066797.078    22066807.715
        45.400          45.000    22066807.477    86594896.513 8  22066807.711
        50.100

 127491230.226 6  99159848.565 5  23816446.695    23816452.809    23816446.707
        38.600          34.600    23816454.535


 106965915.120 7  83195737.649 6  20024246.359    20024248.848    20024245.953
        45.600          39.200    20024249.273


 149266091.667 6                  28404409.930
        38.700                                   111464930.673 6  28404419.000
        37.900                                                   114372707.825 6
  28404419.363          38.600   112918818.363 6  28404418.547          41.900
 128825261.932 7                  24514636.383
        47.100                                    96200696.603 7  24514641.500
        47.200                                                    98710281.010 7
  24514640.762          46.700    97455479.411 8  24514640.844          49.600
 137372468.815 7                  26141103.078
        43.600                                   102583377.821 7  26141107.781
        43.400                                                   105259455.040 7
  26141107.691          44.600   103921417.034 7  26141108.457          47.300
 139189433.617 7                  26486866.703
        43.600                                   103940190.670 7  26486872.590
        45.300                                                   106651673.004 7
  26486871.555          43.800   105295929.943 8  26486872.031          48.200
 124140957.408 8                  23623237.711
        52.200                                    92702690.961 8  23623242.547
        51.400                                                    95121019.129 8
  23623241.754          51.000    93911853.148 9  23623242.016          54.000
 125479502.483 8                  23877949.703
        49.500                                    93702267.232 8  23877955.855
        50.900                                                    96146662.625 8
  23877955.094          50.600    94924466.034 8  23877955.367          53.300
 21  4 28 19  6 30.0000000  0 26G15G19G01G17G02G12R15G30G13G28R19R18
                                G06G14R09R08R20G24R07R16E07E30E13E21
                                E27E15
 123352119.771 6  96118473.025 6  23473105.758    23473115.332
        41.900          38.900    23473114.957


 105426284.121 8  82150322.90547  20061934.523    20061939.832
        51.300          46.900


 127099402.215 5  99038596.976 6  24186230.055    24186241.672
        33.200          36.100    24186241.996    94912000.318 6  24186241.156
        41.900

 110246571.533 8  85906448.458 7  20979224.617    20979231.832
        49.400          46.600    20979231.281


 128741449.795 6 100318071.80843  24498684.570    24498692.645
        38.300          18.600


 129627340.560 4 101008221.17015  24667241.930
        29.900          30.900    24667247.781


 127796664.95815                  23915418.383                    23915415.758
        31.800


 123877025.631 6  96527477.607 6  23572998.398    23573009.629
        41.100          38.300    23573008.723    92505513.253 7  23573009.102
        44.000

 119788659.382 7  93341848.44144  22795027.867    22795037.000
        43.400          27.600


 114600450.438 7  89299067.90545  21807740.094    21807746.746
        47.900          35.200


 103868184.843 6  80786521.030 6  19417094.875    19417098.266    19417093.191
        40.400          40.800    19417098.742


 110168751.201 8  85686949.927 7  20638359.266    20638363.215    20638358.621
        48.700          42.800    20638362.602


 119173243.022 7  92862274.563 7  22677899.469    22677911.629
        42.900          42.800    22677911.461    88993036.412 8  22677910.918
        48.100

 116380963.806 7  90686480.818 7  22146564.133    22146572.723
        46.200          44.500    22146572.711    86907904.628 8  22146576.516
        51.000

 107981135.677 8  83985339.065 6  20221398.258    20221401.078    20221398.133
        48.500          41.700    20221400.398


 127458884.08814                  23802072.586                    23802070.395
        28.900


 121716239.057 5  94668288.617 6  22761572.617    22761580.215    22761570.980
        32.800          37.100    22761581.141


 115887226.346 7  90301673.879 7  22052580.398    22052590.883
        46.400          45.200    22052590.723    86539105.640 8  22052590.832
        50.400

 127576844.064 6  99226436.997 5  23832441.984    23832446.680    23832439.648
        39.200          34.800    23832445.496


 106996937.867 7  83219866.430 6  20030054.539    20030056.582    20030053.230
        45.000          40.000    20030057.277


 149345262.316 6                  28419474.797
        39.100                                   111524051.360 6  28419484.129
        37.700                                                   114433370.841 6
  28419485.133          39.000   112978710.205 7  28419484.531          42.100
 128870120.016 7                  24523171.984
        47.000                                    96234194.501 7  24523177.559
        47.500                                                    98744652.775 7
  24523176.605          47.000    97489414.243 8  24523177.082          49.900
 137280016.156 7                  26123509.789
        43.300                                   102514338.539 7  26123514.809
        43.700                                                   105188614.749 7
  26123514.809          44.200   103851477.242 7  26123515.230          47.000
 139130796.662 7                  26475707.633
        43.300                                   103896403.338 7  26475714.473
        44.900                                                   106606743.369 7
  26475712.984          42.900   105251571.459 7  26475713.547          46.500
 124127246.201 8                  23620628.406
        52.000                                    92692452.073 8  23620633.645
        51.700                                                    95110513.148 8
  23620632.512          51.000    93901480.712 9  23620632.867          54.200
 125445158.147 8                  23871414.305
        49.800                                    93676620.489 8  23871420.484
        51.300                                                    96120346.832 8
  23871419.484          50.100    94898484.763 8  23871419.859          53.400
 21  4 28 19  7  0.0000000  0 26G15G19G01G17G02G12R15G30G13G28R19R18
                                G06G14R09R08R20G24R07R16E07E30E13E21
                                E27E15
 123411602.969 6  96164823.495 6  23484424.398    23484434.742
        41.900          39.400    23484434.668


 105419541.604 8  82145069.00447  20060651.953    20060656.707
        51.100          47.200


 127178906.503 5  99100548.294 5  24201360.711    24201370.836
        35.700          35.100    24201370.180    94971370.300 7  24201370.531
        42.100

 110298463.762 8  85946883.942 7  20989099.484    20989106.613
        48.800          46.400    20989106.172


 128636950.703 6 100236644.22043  24478798.945    24478806.672
        39.400          20.600


 129542960.013 5 100942470.110 5  24651182.742
        31.300          31.000    24651192.746


 127890344.392 5  99470365.31013  23932947.797    23932958.371    23932949.461
        32.100          22.700


 123979683.583 6  96607470.716 6  23592532.445    23592544.863
        39.500          38.300    23592544.711    92582173.285 7  23592544.059
        44.300

 119876683.560 7  93410438.65344  22811778.898    22811787.348
        43.700          27.800


 114641504.713 8  89331058.24445  21815551.234    21815559.113
        48.500          34.600


 103833488.375 6  80759534.895 6  19410607.461    19410612.250    19410607.219
        40.200          40.500    19410612.496


 110250765.714 8  85750738.970 6  20653723.359    20653727.238    20653722.660
        48.500          41.700    20653726.660


 119078939.788 7  92788791.532 7  22659954.844    22659966.027
        42.900          42.500    22659965.852    88922615.189 8  22659965.629
        48.000

 116440310.192 7  90732724.712 7  22157857.227    22157865.691
        45.700          44.600    22157865.277    86952221.685 8  22157869.344
        50.800

 107917693.449 8  83935995.115 6  20209517.625    20209520.281    20209517.637
        48.800          41.200    20209520.066


 127479238.251 5                  23805872.914                    23805871.695
        30.100


 121583183.023 5  94564800.692 6  22736690.742    22736698.426    22736689.625
        33.000          37.200    22736699.383


 115812871.833 7  90243735.321 7  22038430.852    22038441.723
        45.500          45.500    22038441.586    86483581.181 8  22038441.410
        50.400

 127662747.013 6  99293250.353 5  23848487.328    23848494.473    23848487.043
        40.100          35.100    23848494.301


 107028388.852 7  83244328.274 6  20035941.063    20035944.137    20035940.902
        45.300          38.800    20035943.871


 149424297.113 6                  28434514.906
        37.400                                   111583070.625 6  28434525.246
        38.800                                                   114493929.722 6
  28434524.840          37.800   113038499.287 7  28434524.449          42.000
 128915092.386 7                  24531730.078
        46.600                                    96267777.735 7  24531736.070
        47.800                                                    98779112.090 7
  24531734.332          47.100    97523435.522 8  24531735.031          50.300
 137187677.607 7                  26105938.344
        43.400                                   102445384.516 7  26105943.574
        43.400                                                   105117861.889 7
  26105944.160          44.800   103781623.803 7  26105943.637          46.900
 139072158.243 7                  26464549.367
        43.900                                   103852614.944 7  26464555.727
        45.000                                                   106561812.655 7
  26464554.629          43.700   105207211.894 7  26464554.859          47.400
 124113652.791 8                  23618041.828
        52.000                                    92682301.143 8  23618047.047
        51.700                                                    95100097.413 8
  23618045.977          51.200    93891197.387 9  23618046.102          54.200
 125411230.944 8                  23864957.992
        50.100                                    93651285.245 8  23864964.469
        51.200                                                    96094350.670 8
  23864963.555          50.500    94872819.065 8  23864963.715          53.600
 21  4 28 19  7 30.0000000  0 25G15G19G01G17G02G12G30G13G28R19R18G06
                                G14R09R08R20G24R07R16E07E30E13E21E27
                                E15
 123471425.600 6  96211438.498 6  23495807.836    23495818.973
        41.400          39.300    23495818.051


 105413330.929 8  82140229.52847  20059469.844    20059474.813
        52.000          47.100


 127258849.553 5  99162841.542 5  24216573.273    24216583.160
        35.500          34.900    24216583.602    95031067.996 7  24216582.930
        42.600

 110350681.826 8  85987573.335 7  20999035.898    20999043.094
        49.000          46.900    20999042.922


 128532467.505 6 100155228.93343  24458913.867    24458923.777
        39.100          20.100


 129458605.079 5 100876739.01115  24635130.867
        32.000          32.800    24635137.781


 124082547.926 6  96687624.674 6  23612108.234    23612119.195
        39.300          38.200    23612118.691    92658987.473 7  23612119.000
        45.000

 119964953.929 7  93479220.66344  22828576.008    22828584.750
        42.700          28.500


 114682665.441 7  89363131.53145  21823384.258    21823391.512
        47.900          35.200


 103799599.650 6  80733177.018 6  19404274.391    19404277.156    19404272.176
        40.100          41.200    19404277.406


 110333370.317 8  85814986.968 7  20669198.039    20669201.766    20669197.125
        48.800          43.100    20669201.305


 118984886.305 7  92715503.145 7  22642056.109    22642067.738
        42.300          42.800    22642068.098    88852380.502 8  22642068.172
        48.300

 116499805.444 7  90779084.594 7  22169178.594    22169186.992
        46.100          44.300    22169187.207    86996649.905 8  22169190.867
        50.700

 107854509.581 8  83886852.126 7  20197686.281    20197688.395    20197685.320
        49.400          42.400    20197688.375


 127500249.769 5  99166988.180 3  23809800.109    23809802.914    23809799.070
        30.100          23.000


 121450339.434 5  94461477.978 6  22711847.078    22711855.859    22711846.320
        32.900          37.100    22711857.238


 115738876.619 7  90186076.722 7  22024349.938    22024361.008
        44.600          45.800    22024360.656    86428325.023 8  22024360.566
        50.300

 127748934.661 6  99360285.081 5  23864590.945    23864594.758    23864588.555
        41.300          35.600    23864594.352


 107060268.471 7  83269123.519 6  20041908.992    20041912.172    20041908.637
        45.200          40.100    20041911.676


 149503194.542 6                  28449529.086
        39.100                                   111641987.201 6  28449539.246
        38.900                                                   114554383.344 6
  28449537.566          38.300   113098184.380 7  28449538.781          42.300
 128960179.442 7                  24540309.445
        46.700                                    96301446.622 7  24540315.445
        47.000                                                    98813659.283 7
  24540314.688          46.700    97557543.556 8  24540314.844          49.700
 137095455.189 7                  26088388.031
        43.300                                   102376517.188 7  26088394.363
        43.300                                                   105047198.005 7
  26088393.605          44.100   103711858.197 7  26088394.281          46.800
 139013518.771 7                  26453390.492
        44.200                                   103808825.747 7  26453396.871
        44.800                                                   106516881.115 7
  26453395.637          43.400   105162851.535 7  26453396.125          47.200
 124100177.898 8                  23615477.781
        52.100                                    92672238.718 8  23615482.633
        51.700                                                    95089772.491 8
  23615481.813          51.200    93881003.713 9  23615481.949          54.200
 125377721.776 8                  23858581.266
        50.500                                    93626262.176 8  23858587.750
        51.100                                                    96068674.831 8
  23858586.813          50.600    94847469.606 8  23858587.141          53.600
 21  4 28 19  8  0.0000000  0 25G15G19G01G17G02G12G30G13G28R19R18G06
                                G14R09R08R20G24R07R16E07E30E13E21E27
                                E15
 123531585.069 6  96258315.962 6  23507256.578    23507266.828
        40.500          39.600    23507266.082


 105407651.675 8  82135804.13447  20058389.000    20058394.004
        52.500          46.900


 127339228.954 5  99225474.870 5  24231869.992    24231879.973
        35.600          35.300    24231879.195    95091091.571 7  24231878.211
        42.600

 110403223.849 8  86028515.163 7  21009034.359    21009041.648
        49.500          47.200    21009041.230


 128428003.009 6 100073828.26743  24439036.648    24439045.164
        38.400          20.600


 129374276.24615 100811028.365 5  24619084.023
        30.700          33.900    24619093.238


 124185617.078 6  96767938.204 6  23631721.445    23631732.172
        39.300          38.700    23631733.000    92735954.579 7  23631733.441
        45.800

 120053467.360 7  93548192.11044  22845419.453    22845427.738
        42.800          25.700


 114723932.870 8  89395287.94845  21831237.945    21831244.594
        48.100          34.600


 103766520.065 6  80707448.456 6  19398089.992    19398092.977    19398088.188
        39.500          41.700    19398092.719


 110416561.017 8  85879690.820 7  20684782.484    20684786.363    20684781.352
        48.000          43.900    20684785.820


 118891085.996 7  92642412.000 7  22624207.211    22624218.918
        42.700          42.800    22624218.531    88782334.850 8  22624218.875
        48.200

 116559449.630 7  90825560.561 7  22180528.750    22180537.230
        45.400          44.000    22180537.098    87041189.384 8  22180540.699
        50.500

 107791586.480 8  83837911.931 7  20185902.602    20185904.738    20185901.770
        49.600          43.400    20185904.695


 127521917.353 4  99183840.68914  23813846.367    23813848.371    23813845.090
        29.600          27.000


 121317712.047 5  94358323.395 6  22687045.578    22687053.992    22687044.758
        32.600          37.100    22687054.031


 115665243.181 7  90128700.050 7  22010338.031    22010348.977
        44.900          45.400    22010348.586    86373339.035 8  22010348.711
        50.600

 127835403.059 6  99427538.197 6  23880741.711    23880748.563    23880741.125
        40.100          36.000    23880748.512


 107092577.848 7  83294253.002 6  20047958.133    20047959.977    20047957.281
        46.300          40.100    20047959.293


 149581952.989 6                  28464515.945
        38.700                                   111700800.171 6  28464527.324
        38.900                                                   114614730.540 5
  28464523.340          35.800   113157764.476 6  28464526.043          41.400
 129005381.768 7                  24548910.664
        46.200                                    96335201.566 7  24548917.113
        47.500                                                    98848294.807 7
  24548916.012          46.600    97591738.787 8  24548916.574          49.500
 137003350.960 7                  26070862.070
        44.000                                   102307738.087 7  26070866.641
        43.800                                                   104976624.662 7
  26070867.098          43.500   103642181.983 7  26070867.211          46.800
 138954878.697 7                  26442231.680
        44.200                                   103765036.080 7  26442237.723
        44.600                                                   106471949.108 7
  26442236.520          44.100   105118490.696 7  26442237.238          47.300
 124086822.287 8                  23612936.250
        52.200                                    92662265.370 8  23612941.285
        51.800                                                    95079538.974 8
  23612940.414          51.200    93870900.273 9  23612940.488          54.300
 125344631.699 8                  23852284.539
        49.900                                    93601552.048 8  23852290.910
        51.000                                                    96043320.096 8
  23852289.824          50.300    94822437.176 8  23852290.336          53.500
 21  4 28 19  8 30.0000000  0 24G15G19G01G17G02G12G30G13G28R19R18G06
                                G14R09R20G24R07R16E07E30E13E21E27E15
 123592078.470 6  96305453.619 6  23518768.484    23518778.281
        41.400          40.000    23518778.434


 105402502.754 8  82131791.98547  20057409.547    20057414.281
        51.400          47.000


 127420042.053 5  99288446.058 5  24247247.383    24247257.828
        34.600          34.700    24247256.988    95151438.934 7  24247257.469
        43.000

 110456087.662 8  86069707.736 7  21019093.563    21019101.387
        49.000          46.600    21019100.859


 128323559.792 6  99992444.17743  24419161.094    24419170.301
        38.700          20.100


 129289973.74414 100745338.114 5  24603039.406
        28.000          33.100    24603049.195


 124288889.044 6  96848409.738 6  23651373.617    23651385.016
        39.400          39.200    23651384.699    92813073.117 7  23651385.746
        46.000

 120142220.761 7  93617350.55044  22862309.430    22862317.813
        43.100          28.100


 114765306.896 8  89427527.43345  21839110.742    21839117.621
        49.100          34.500


 103734249.777 6  80682349.327 7  19392057.594    19392060.789    19392055.715
        38.700          42.300    19392061.223


 110500333.923 8  85944847.505 7  20700475.516    20700479.906    20700474.766
        48.000          44.300    20700479.023


 118797541.809 7  92569520.488 7  22606406.859    22606417.715
        43.500          43.200    22606418.105    88712480.491 8  22606417.734
        48.400

 116619242.531 7  90872152.380 7  22191907.016    22191915.629
        45.100          44.200    22191915.496    87085839.889 8  22191919.641
        51.100

 107728926.758 8  83789176.594 7  20174167.695    20174170.715    20174167.430
        49.100          44.100    20174170.047


 121185304.657 5  94255339.921 6  22662285.680    22662292.402    22662284.527
        33.000          37.000    22662293.191


 115591973.834 7  90071607.075 7  21996395.258    21996406.012
        45.100          45.100    21996405.820    86318624.931 8  21996406.125
        50.900

 127922147.790 6  99495006.271 5  23896947.758    23896952.789    23896946.605
        40.700          35.600    23896952.344


 107125317.760 7  83319717.369 6  20054086.703    20054089.730    20054086.109
        45.300          41.100    20054089.797


 149660570.876 6                  28479476.219
        37.400                                   111759508.040 6  28479489.016
        41.200                                                   114674970.005 6
  28479485.629          38.500   113217238.140 7  28479487.078          43.000
 129050699.511 7                  24557535.492
        46.700                                    96369042.700 7  24557540.602
        47.000                                                    98883018.775 7
  24557540.039          46.400    97626021.340 8  24557540.352          49.500
 136911366.666 7                  26053357.773
        44.300                                   102239048.571 7  26053363.512
        44.300                                                   104906143.256 7
  26053363.559          44.500   103572596.518 7  26053363.266          47.000
 138896238.076 7                  26431073.258
        44.200                                   103721246.012 7  26431078.840
        43.800                                                   106427016.702 7
  26431077.996          43.600   105074129.457 7  26431078.313          47.000
 124073586.414 8                  23610417.477
        52.200                                    92652381.432 8  23610422.586
        51.800                                                    95069397.194 8
  23610421.469          51.200    93860887.414 9  23610421.828          54.400
 125311961.350 8                  23846067.578
        49.700                                    93577155.374 8  23846073.918
        51.000                                                    96018286.982 8
  23846073.215          50.600    94797722.281 8  23846073.402          53.700
 21  4 28 19  9  0.0000000  0 25G15G19G01G17G02G12R15G30G13G28R19R18
                                G06G14R09R20G24R07R16E07E30E13E21E27
                                E15
 123652903.996 6  96352850.028 6  23530342.766    23530352.938
        40.600          39.000    23530353.078


 105397884.557 8  82128193.39647  20056530.539    20056535.461
        51.100          47.100


 127501287.046 5  99351753.838 5  24262706.023    24262717.434
        33.000          34.000    24262717.074    95212108.866 7  24262717.895
        43.400

 110509271.914 8  86111150.011 7  21029214.078    21029221.938
        48.500          47.000    21029221.539


 128219141.449 6  99911079.47343  24399292.242    24399300.020
        38.100          20.600


 129205698.62014 100679669.16915  24587001.516
        25.900          33.800    24587012.238


 128267070.92315                  24003438.492                    24003439.504
        33.500


 124392362.820 6  96929038.540 6  23671062.086    23671075.672
        37.800          38.900    23671075.949    92890342.366 7  23671076.859
        45.600

 120231211.665 7  93686694.07044  22879244.586    22879251.867
        43.700          27.200


 114806788.639 8  89459850.85445  21847005.586    21847011.918
        49.100          34.800


 103702791.102 6  80657881.502 7  19386176.242    19386179.660    19386174.254
        39.200          42.200    19386179.086


 110584686.043 8  86010454.681 7  20716278.141    20716281.852    20716277.320
        48.300          44.100    20716281.918


 118704257.866 7  92496831.746 7  22588654.547    22588665.910
        43.600          42.400    22588665.492    88642820.450 8  22588666.676
        48.700

 116679184.947 7  90918860.729 7  22203313.648    22203322.008
        45.000          44.100    22203322.305    87130602.023 8  22203326.355
        51.100

 107666533.608 8  83740648.598 7  20162483.461    20162486.352    20162483.016
        48.600          43.900    20162486.234


 121053121.719 5  94152531.090 6  22637565.281    22637573.957    22637565.035
        34.300          37.500    22637574.473


 115519071.772 7  90014800.260 7  21982524.070    21982533.078
        46.500          45.300    21982532.793    86264185.090 8  21982533.402
        51.100

 128009165.046 6  99562686.268 6  23913202.984    23913209.035    23913201.520
        39.300          36.000    23913209.410


 107158490.036 7  83345518.012 6  20060297.031    20060299.250    20060296.484
        45.700          40.500    20060299.117


 149739047.328 6                  28494408.961
        36.800                                   111818110.341 6  28494422.184
        38.300                                                   114735101.039 6
  28494419.148          38.200   113276604.803 6  28494420.445          41.600
 129096133.933 7                  24566181.438
        47.100                                    96402970.975 7  24566186.617
        47.400                                                    98917832.122 7
  24566186.336          47.000    97660392.153 8  24566186.195          49.700
 136819505.079 7                  26035876.602
        43.600                                   102170450.712 7  26035883.656
        44.200                                                   104835755.859 7
  26035882.305          44.700   103503103.889 7  26035882.430          47.500
 138837598.050 7                  26419914.703
        44.200                                   103677456.396 7  26419920.008
        43.900                                                   106382084.748 7
  26419919.262          43.900   105029768.674 7  26419919.461          46.700
 124060471.753 8                  23607921.914
        52.600                                    92642588.002 8  23607926.680
        51.800                                                    95059348.286 8
  23607925.691          51.200    93850966.250 9  23607926.184          54.400
 125279712.431 8                  23839930.859
        50.100                                    93553073.408 8  23839937.156
        51.300                                                    95993576.781 8
  23839936.250          50.500    94773326.195 8  23839936.594          53.700
 21  4 28 19  9 30.0000000  0 25G15G19G01G17G02R15G30G13G28R19R18G06
                                G14R09R20G24R07R16E07E30E13E21E27E19
                                E15
 123714057.687 6  96400502.255 6  23541981.578    23541989.859
        41.600          39.400    23541989.691


 105393795.404 8  82125007.04447  20055752.133    20055757.680
        51.200          46.700


 127582960.285 5  99415395.223 5  24278246.852
        32.000          35.000    24278258.895    95273098.524 7  24278258.852
        43.300

 110562773.464 8  86152839.505 7  21039395.281    21039403.008
        49.300          47.200    21039402.496


 128114749.717 6  99829735.42843  24379427.234    24379435.219
        39.800          22.300


 128361731.362 5  99836940.138 3  24021155.633    24021159.031    24021154.020
        34.200          23.900


 124496035.397 6  97009822.277 6  23690791.578    23690803.973
        37.900          39.100    23690804.191    92967760.106 7  23690803.496
        43.900

 120320435.920 7  93756219.40044  22896223.305    22896231.004
        42.800          27.100


 114848377.204 8  89492257.51245  21854919.469    21854926.059
        49.200          34.800


 103672143.612 6  80634044.530 6  19380445.641    19380450.219    19380444.961
        39.100          41.600    19380450.215


 110669612.169 7  86076508.304 7  20732188.383    20732191.266    20732186.805
        47.200          42.800    20732190.348


 118611236.226 7  92424347.379 7  22570953.891    22570964.383
        43.900          42.500    22570964.441    88573356.286 8  22570965.590
        48.400

 116739275.687 7  90965684.669 7  22214749.109    22214757.516
        45.800          44.300    22214757.477    87175474.938 8  22214760.801
        50.100

 107604408.574 8  83692329.136 7  20150849.273    20150852.199    20150848.703
        48.200          43.400    20150852.578


 120921165.736 5  94049898.764 6  22612891.742    22612896.641    22612889.758
        33.700          36.700    22612899.004


 115446538.282 7  89958280.682 7  21968719.711    21968730.406
        45.300          44.800    21968729.902    86210020.503 8  21968730.734
        51.200

 128096449.613 6  99630574.119 5  23929507.328    23929513.898    23929506.367
        39.200          34.800    23929514.203


 107192094.003 7  83371654.405 6  20066587.938    20066590.230    20066587.004
        45.600          40.500    20066589.500


 149817379.724 5                  28509315.805
        35.400                                   111876605.107 6  28509328.633
        38.600                                                   114795121.721 6
  28509326.773          36.700   113335862.527 6  28509326.402          40.500
 129141684.318 7                  24574849.758
        47.100                                    96436985.851 7  24574854.645
        47.000                                                    98952734.349 7
  24574853.801          46.200    97694850.700 8  24574854.223          49.100
 136727767.036 7                  26018419.539
        43.300                                   102101945.086 7  26018425.824
        43.700                                                   104765463.146 7
  26018424.699          43.800   103433704.727 7  26018425.270          46.500
 138778957.793 7                  26408755.313
        43.800                                   103633666.643 7  26408761.273
        43.600                                                   106337152.625 7
  26408760.457          44.200   104985407.736 7  26408760.594          46.200
 124047477.869 8                  23605449.203
        52.200                                    92632884.784 8  23605454.273
        51.900                                                    95049391.933 8
  23605453.102          51.100    93841136.467 9  23605453.563          54.300
 142116234.097 6                  27043820.914
        37.900                                   106125779.747 6  27043825.656
        39.200                                                   108894273.812 6
  27043824.305          37.200   107510025.888 6  27043825.035          41.600
 125247884.671 8                  23833874.281
        50.300                                    93529305.923 8  23833880.582
        51.000                                                    95969189.276 8
  23833879.563          50.500    94749248.709 8  23833879.922          53.600
 21  4 28 19 10  0.0000000  0 25G15G19G01G17G02R15G30G13G28R19R18G06
                                G14R09R20G24R07R16E07E30E13E21E27E19
                                E15
 123775536.925 6  96448408.081 6  23553679.844    23553689.336
        41.700          39.700    23553689.785


 105390234.470 8  82122232.28547  20055074.648    20055080.004
        50.800          46.900


 127665059.032 5  99479368.265 6  24293873.156    24293882.602
        32.900          36.300    24293882.512    95334406.003 7  24293881.660
        43.800

 110616590.145 8  86194774.579 7  21049636.266    21049644.258
        48.300          46.600    21049643.621


 128010387.169 6  99748414.16443  24359566.227    24359574.262
        39.200          20.100


 128456585.244 5  99910715.321 4  24038903.609    24038911.563    24038903.566
        30.100          25.100


 124599905.103 6  97090759.591 6  23710557.805    23710569.363
        38.300          38.700    23710569.453    93045325.012 7  23710570.754
        45.000

 120409890.618 7  93825924.26244  22913245.352    22913253.156
        43.500          26.900


 114890072.474 8  89524747.31345  21862853.531    21862859.922
        48.400          34.400


 103642308.365 6  80610839.372 7  19374869.250    19374872.875    19374867.883
        39.500          42.000    19374873.199


 110755108.455 8  86143005.383 7  20748204.578    20748207.609    20748203.582
        48.700          43.100    20748207.250


 118518480.030 7  92352069.882 7  22553302.109    22553313.125
        43.600          42.300    22553312.707    88504090.356 8  22553314.168
        48.500

 116799514.705 7  91012624.131 7  22226210.781    22226220.820
        44.500          44.500    22226220.777    87220458.593 8  22226223.258
        49.600

 107542554.248 8  83644220.222 7  20139266.164    20139268.879    20139265.543
        48.400          43.600    20139269.242


 120789440.842 5  93947446.176 6  22588256.398    22588263.910    22588255.828
        34.200          37.600    22588265.145


 115374375.812 7  89902050.210 7  21954987.852    21954998.305
        45.100          45.100    21954998.070    86156132.969 8  21954998.344
        51.300

 128183997.097 6  99698666.535 5  23945862.344    23945868.129    23945861.688
        39.700          33.900    23945870.234


 107226130.366 7  83398127.130 6  20072958.711    20072961.832    20072958.445
        46.100          40.900    20072962.703


 149895566.447 5                  28524194.813
        35.600                                   111934991.003 6  28524206.586
        38.800                                                   114855030.828 6
  28524204.422          37.600   113395010.020 6  28524205.336          41.400
 129187351.037 7                  24583539.461
        47.000                                    96471087.583 7  24583544.793
        47.100                                                    98987725.698 7
  24583544.109          47.000    97729397.245 8  24583544.414          50.000
 136636154.416 7                  26000986.172
        43.500                                   102033533.115 7  26000992.102
        44.800                                                   104695266.508 7
  26000990.762          43.900   103364400.411 7  26000992.004          47.400
 138720317.640 7                  26397596.656
        44.000                                   103589876.918 7  26397602.500
        44.100                                                   106292220.592 7
  26397601.531          44.300   104941046.860 7  26397601.758          47.500
 124034605.382 8                  23602999.539
        51.800                                    92623272.204 8  23603004.719
        52.000                                                    95039528.595 8
  23603003.527          51.100    93831398.503 9  23603004.008          54.300
 142132904.288 6                  27046992.758
        37.700                                   106138228.264 6  27046997.945
        39.000                                                   108907047.086 6
  27046996.891          37.400   107522636.773 6  27046997.328          41.500
 125216478.825 8                  23827898.234
        50.300                                    93505853.519 8  23827904.059
        51.200                                                    95945125.070 8
  23827903.523          50.700    94725490.392 8  23827903.551          53.700
 21  4 28 19 10 30.0000000  0 25G15G19G01G17G02R15G30G13G28R19R18G06
                                G14R09R20G24R07R16E07E30E13E21E27E19
                                E15
 123837338.711 7  96496565.283 6  23565440.883    23565449.879
        42.200          39.300    23565450.098


 105387200.675 8  82119868.28047  20054497.375    20054502.590
        50.800          46.800


 127747580.748 5  99543670.808 6  24309572.359    24309585.531
        32.200          36.500    24309585.305    95396029.269 7  24309585.082
        43.400

 110670719.843 8  86236953.536 7  21059937.000    21059944.660
        48.400          46.400    21059943.969


 127906056.327 6  99667117.57243  24339712.445    24339720.664
        38.300          20.100


 128551632.162 5  99984640.599 4  24056693.953    24056699.086    24056691.906
        30.600          26.300


 124703969.932 6  97171848.953 6  23730361.523    23730372.969
        39.000          38.400    23730372.734    93123035.634 7  23730372.223
        44.100

 120499572.461 6  93895806.17444  22930310.516    22930318.836
        41.400          26.400


 114931874.901 8  89557320.61545  21870807.516    21870814.922
        48.300          34.500


 103613285.918 6  80588266.332 7  19369443.742    19369447.359    19369442.695
        40.100          42.100    19369446.902


 110841170.784 8  86209942.715 7  20764327.344    20764329.910    20764325.730
        48.300          43.100    20764329.188


 118425992.495 7  92280001.715 7  22535702.703    22535713.129
        43.800          42.000    22535712.957    88435025.026 8  22535714.754
        48.700

 116859901.895 7  91059679.055 7  22237703.336    22237711.563
        44.500          43.800    22237711.344    87265552.897 8  22237715.035
        50.000

 107480972.757 8  83596323.542 7  20127734.367    20127736.684    20127733.633
        48.800          43.800    20127736.484


 120657950.866 5  93845176.278 6  22563667.070    22563674.297    22563666.230
        34.300          37.400    22563674.625


 115302586.620 7  89846110.593 7  21941327.539    21941337.434
        45.800          45.000    21941336.793    86102524.167 8  21941337.207
        51.100

 128271803.225 6  99766960.136 5  23962266.328    23962271.402    23962264.520
        39.000          34.300    23962270.828


 107260600.086 7  83424936.877 6  20079412.602    20079414.855    20079411.867
        46.300          41.000    20079415.164


 149973605.752 5                  28539044.828
        35.600                                   111993266.899 6  28539057.984
        39.400                                                   114914827.017 6
  28539056.633          37.200   113454046.064 7  28539056.379          42.100
 129233134.426 7                  24592251.477
        47.000                                    96505276.434 7  24592257.051
        46.800                                                    99022806.423 7
  24592256.039          46.700    97764032.037 8  24592256.625          49.500
 136544669.091 7                  25983577.695
        43.300                                   101965216.221 7  25983583.277
        44.400                                                   104625167.424 7
  25983581.699          43.800   103295192.426 7  25983582.805          47.300
 138661677.772 7                  26386437.352
        43.700                                   103546087.435 7  26386443.629
        44.400                                                   106247288.759 7
  26386442.609          44.200   104896686.199 7  26386442.938          47.400
 124021854.892 8                  23600573.188
        52.600                                    92613750.743 8  23600578.230
        52.000                                                    95029758.743 8
  23600577.133          51.000    93821752.848 9  23600577.641          54.400
 142149957.884 6                  27050238.063
        37.300                                   106150963.052 6  27050243.234
        39.100                                                   108920114.084 6
  27050242.203          37.300   107535537.669 6  27050242.574          41.800
 125185495.651 8                  23822002.297
        50.200                                    93482716.748 8  23822008.254
        51.200                                                    95921384.723 8
  23822007.344          50.700    94702051.841 8  23822007.629          53.700
 21  4 28 19 11  0.0000000  0 24G15G19G01G17G02G30G13G28R19R18G06G14
                                R09R20G24R07R16E07E30E13E21E27E19E15
 123899459.627 7  96544971.153 6  23577262.859    23577270.992
        42.100          38.600    23577271.230


 105384692.769 8  82117914.06347  20054020.008    20054025.313
        51.100          45.900


 127830521.92815  99608300.236 5  24325356.859    24325369.035
        32.200          35.600    24325369.188    95457965.791 6  24325369.355
        41.800

 110725159.788 8  86279374.248 7  21070296.828    21070304.047
        48.300          45.700    21070303.645


 127801759.429 6  99585847.46643  24319866.047    24319874.645
        39.400          20.900


 124808227.339 6  97253088.397 6  23750199.234    23750212.242
        38.400          38.600    23750212.707    93200890.044 7  23750212.551
        44.300

 120589477.643 6  93965862.10144  22947419.313    22947428.320
        41.600          25.400


 114973783.787 8  89589976.87945  21878783.008    21878789.750
        48.100          33.500


 103585076.116 6  80566325.393 6  19364171.555    19364173.824    19364169.645
        39.400          40.700    19364173.020


 110927794.562 7  86277316.758 7  20780553.367    20780557.750    20780552.691
        45.400          43.600    20780557.441


 118333775.965 7  92208144.710 6  22518154.516    22518164.703
        43.800          41.800    22518164.914    88366162.085 8  22518166.227
        48.200

 116920436.444 7  91106848.792 7  22249222.914    22249231.289
        44.500          43.400    22249231.012    87310757.216 8  22249234.582
        49.600

 107419666.390 7  83548640.790 7  20116253.883    20116256.105    20116252.922
        45.900          43.400    20116255.613


 120526698.446 5  93743091.197 6  22539121.219    22539129.723    22539120.613
        33.700          37.500    22539130.020


 115231172.390 7  89790463.130 7  21927737.313    21927747.559
        46.100          44.300    21927747.242    86049195.359 8  21927747.547
        50.900

 128359862.891 6  99835450.92315  23978714.594    23978721.223    23978714.891
        37.800          32.100    23978719.691


 107295502.836 7  83452083.458 6  20085945.516    20085948.801    20085945.887
        44.300          40.300    20085947.629


 150051495.453 5                  28553866.898
        35.600                                   112051431.014 6  28553880.059
        39.400                                                   114974508.504 6
  28553879.734          38.300   113512968.862 6  28553878.480          41.600
 129279034.106 7                  24600986.617
        47.000                                    96539552.148 7  24600992.043
        46.200                                                    99057976.286 7
  24600990.430          45.300    97798754.823 8  24600991.078          48.500
 136453312.216 7                  25966191.969
        42.700                                   101896995.253 7  25966199.008
        43.700                                                   104555166.755 7
  25966196.777          42.700   103226081.609 7  25966198.098          46.000
 138603037.797 7                  26375278.703
        43.000                                   103502297.858 7  26375284.734
        42.800                                                   106202356.828 7
  26375283.668          42.800   104852325.452 7  26375284.066          45.300
 124009226.290 8                  23598170.078
        51.500                                    92604320.289 8  23598175.391
        51.800                                                    95020082.282 8
  23598173.977          50.800    93812199.392 9  23598174.484          54.200
 142167393.361 6                  27053556.391
        37.700                                   106163982.998 6  27053561.023
        38.200                                                   108933473.679 6
  27053559.953          36.600   107548727.451 6  27053560.504          40.400
 125154935.178 8                  23816186.664
        49.500                                    93459895.624 8  23816192.719
        50.800                                                    95897968.266 8
  23816191.746          50.600    94678933.056 8  23816192.207          53.600
 21  4 28 19 11 30.0000000  0 25G15G19G01G17G02G30G13G28R19R18G06G14
                                R09R08R20G24R07R16E07E30E13E21E27E19
                                E15
 123961897.554 6  96593624.017 6  23589143.891    23589152.695
        41.800          39.200    23589152.457


 105382710.734 8  82116369.61747  20053642.633    20053648.008
        51.500          46.600


 127913880.632 5  99673254.990 6  24341219.414    24341232.691
        32.800          37.000    24341232.730    95520214.135 6  24341232.289
        41.300

 110779908.431 8  86322035.505 7  21080714.984    21080722.645
        49.400          46.400    21080722.000


 127697499.930 6  99504606.46843  24300025.766    24300033.438
        39.600          21.700


 124912676.063 6  97334476.838 6  23770075.320    23770088.262
        39.200          38.700    23770088.605    93278887.280 7  23770087.602
        44.300

 120679603.491 6  94036089.97144  22964569.703    22964578.473
        41.400          27.100


 115015799.718 8  89622716.53845  21886778.359    21886785.484
        48.800          35.000


 103557680.570 6  80545017.753 7  19359049.219    19359052.398    19359047.816
        39.700          42.100    19359052.566


 111014976.383 8  86345124.806 7  20796885.727    20796889.500    20796885.063
        48.000          43.000    20796888.957


 118241834.245 7  92136501.885 7  22500658.086    22500669.781
        43.400          43.500    22500669.824    88297504.376 8  22500670.527
        48.900

 116981118.934 7  91154133.830 7  22260770.281    22260778.441
        44.600          43.400    22260777.914    87356072.009 8  22260781.738
        49.300

 107358638.089 8  83501174.334 7  20104824.719    20104827.375    20104824.402
        49.000          43.600    20104827.234


 127692058.57615                  23845570.578
        31.600


 120395688.081 5  93641194.298 6  22514623.578    22514629.789    22514621.629
        35.000          37.100    22514630.684


 115160136.051 7  89735110.147 7  21914219.531    21914229.668
        46.100          45.100    21914229.301    85996148.750 8  21914230.020
        51.400

 128448172.428 6  99904136.065 5  23995213.328    23995218.816    23995211.477
        37.000          32.400    23995218.340


 107330840.327 7  83479568.151 6  20092560.836    20092564.238    20092560.820
        46.300          41.900    20092565.348


 150129234.451 5                  28568659.445
        34.100                                   112109482.638 6  28568673.559
        39.400                                                   115034074.472 6
  28568672.086          37.000   113571777.668 6  28568671.520          41.600
 129325051.037 7                  24609742.969
        47.300                                    96573915.400 7  24609748.719
        46.700                                                    99093235.966 7
  24609747.328          47.200    97833566.287 8  24609747.742          49.500
 136362086.305 7                  25948832.766
        44.000                                   101828872.052 7  25948837.375
        44.000                                                   104485266.418 7
  25948838.313          44.300   103157069.842 7  25948838.285          47.300
 138544398.571 7                  26364119.883
        44.300                                   103458508.857 7  26364126.008
        44.300                                                   106157425.503 7
  26364125.172          43.500   104807965.285 7  26364125.270          47.100
 123996720.812 8                  23595790.313
        52.100                                    92594981.779 8  23595795.660
        52.100                                                    95010500.155 8
  23595794.348          51.300    93802739.074 9  23595794.762          54.500
 142185210.474 6                  27056946.938
        38.500                                   106177287.982 6  27056951.773
        39.100                                                   108947125.772 6
  27056950.813          37.500   107562205.986 6  27056951.023          41.500
 125124798.746 8                  23810451.906
        50.400                                    93437391.146 8  23810458.000
        51.200                                                    95874876.725 8
  23810457.145          50.900    94656135.041 8  23810457.477          53.800
 21  4 28 19 12  0.0000000  0 26G15G19G01G17G02G12G30G13G28R19R18G06
                                G14R09R08R20G24R07R16E07E30E13E21E27
                                E19E15
 124024650.106 6  96642522.048 6  23601084.336    23601094.543
        41.100          39.400    23601094.078


 105381254.141 8  82115234.60847  20053365.352    20053370.852
        50.500          46.500


 127997654.660 5  99738533.451 5  24357161.930    24357173.934
        34.000          33.600    24357172.844    95582772.682 6  24357172.371
        40.400

 110834964.457 8  86364936.295 7  21091191.742    21091199.332
        48.600          47.200    21091198.867


 127593280.946 6  99423397.05543  24280194.031    24280202.117
        40.000          21.800


 128700610.87115 100286093.78715  24490890.625
        31.600          32.400    24490895.934


 125017314.806 6  97416013.439 6  23789988.961    23790000.637
        39.900          37.900    23790000.879    93357026.473 7  23790000.953
        45.400

 120769947.741 6  94106488.03344  22981762.016    22981770.574
        41.800          25.800


 115057923.575 8  89655540.31045  21894793.930    21894801.270
        48.300          35.200


 103531100.454 6  80524344.351 7  19354080.273    19354084.020    19354079.207
        40.100          42.400    19354083.543


 111102712.975 7  86413364.367 7  20813321.484    20813325.703    20813320.914
        47.600          43.600    20813325.852


 118150171.116 7  92065076.110 7  22483215.625    22483226.680
        44.000          43.500    22483226.688    88229054.701 8  22483226.965
        48.900

 117041949.895 7  91201534.536 7  22272345.797    22272353.848
        43.300          43.200    22272353.531    87401497.702 8  22272357.191
        48.800

 107297890.816 8  83453926.461 7  20093448.469    20093451.418    20093448.508
        49.000          44.200    20093452.074


 127718903.297 5  99336841.54313  23850578.875    23850584.922
        30.800          22.300


 120264924.144 5  93539489.102 6  22490169.273    22490176.121    22490168.457
        35.700          37.600    22490175.289


 115089480.613 7  89680053.987 7  21900774.086    21900784.340
        44.900          44.500    21900783.668    85943386.607 8  21900784.730
        51.300

 128536728.101 5  99973012.623 5  24011754.563    24011762.762    24011753.594
        35.800          34.700    24011762.434


 107366613.760 7  83507391.927 6  20099258.648    20099260.680    20099257.539
        45.600          41.300    20099259.660


 150206821.920 5                  28583424.047
        35.600                                   112167421.046 6  28583437.688
        38.500                                                   115093524.354 5
  28583437.316          35.800   113630471.790 6  28583435.977          40.900
 129371186.218 7                  24618522.242
        47.300                                    96608366.932 7  24618528.141
        47.100                                                    99128586.245 7
  24618526.844          46.900    97868467.196 8  24618527.000          49.300
 136270993.815 7                  25931498.156
        43.800                                   101760848.497 7  25931504.508
        45.100                                                   104415468.354 7
  25931503.738          44.900   103088159.028 8  25931504.016          48.000
 138485761.076 7                  26352961.734
        43.800                                   103414721.145 7  26352967.832
        44.600                                                   106112495.481 7
  26352966.633          42.800   104763606.422 7  26352966.797          46.800
 123984339.731 8                  23593434.320
        51.700                                    92585736.163 8  23593439.523
        52.100                                                    95001013.350 8
  23593438.641          51.300    93793372.861 9  23593438.719          54.600
 142203409.011 6                  27060409.766
        36.500                                   106190877.760 6  27060414.691
        38.600                                                   108961070.084 6
  27060413.668          37.100   107575973.024 6  27060414.082          41.900
 125095087.714 8                  23804798.039
        50.500                                    93415204.350 8  23804804.379
        51.300                                                    95852111.141 8
  23804803.461          50.800    94633658.850 8  23804803.641          53.900
 21  4 28 19 12 30.0000000  0 26G15G19G01G17G02G12G30G13G28R19R18G06
                                G14R09R08R20G24R07R16E07E30E13E21E27
                                E19E15
 124087714.177 6  96691662.832 6  23613085.602    23613095.324
        40.200          38.800    23613094.723


 105380321.566 8  82114507.92547  20053187.977    20053193.508
        51.100          46.400


 128081840.987 5  99804133.145 5  24373182.633    24373193.566
        34.600          34.500    24373193.406    95645639.035 7  24373193.266
        42.200

 110890325.427 8  86408074.704 7  21101726.828    21101733.938
        49.800          46.300    21101733.586


 127489104.780 6  99342221.02043  24260371.477    24260377.496
        41.000          22.600


 128616525.423 5 100220572.765 5  24474886.836
        30.500          32.200    24474895.676


 125122141.135 6  97497696.156 6  23809937.547    23809948.410
        40.200          37.600    23809948.293    93435305.756 7  23809949.359
        45.500

 120860506.443 7  94177053.17644  22998995.164    22999003.531
        42.400          25.000


 115100155.171 8  89688448.03245  21902830.484    21902837.523
        49.200          34.600


 103505335.778 6  80504305.146 6  19349264.195    19349267.621    19349262.289
        39.800          41.400    19349267.414


 111190999.639 7  86482031.751 7  20829860.711    20829864.848    20829860.055
        47.900          43.000    20829863.879


 118058789.174 7  91993869.455 7  22465825.539    22465837.004
        43.500          42.900    22465836.738    88160815.011 8  22465837.273
        48.800

 117102928.694 7  91249050.438 7  22283949.258    22283958.285
        43.000          43.400    22283957.887    87447033.776 8  22283961.285
        49.100

 107237426.846 8  83406898.953 7  20082126.188    20082128.328    20082125.227
        49.600          42.600    20082128.070


 127746218.31215                  23855715.492                    23855712.914
        31.600


 120134409.839 5  93437978.072 6  22465763.211    22465768.355    22465761.945
        35.700          37.200    22465769.367


 115019207.802 7  89625295.982 7  21887401.313    21887411.859
        44.600          44.800    21887411.465    85890910.176 8  21887412.113
        51.200

 128625524.539 6 100042076.392 5  24028345.523    24028350.203    24028342.664
        36.600          35.300    24028350.031


 107402823.140 7  83535554.764 6  20106036.195    20106039.457    20106035.813
        45.800          40.900    20106039.508


 150284255.568 5                  28598160.109
        35.300                                   112225244.607 6  28598171.355
        39.300                                                   115152856.388 6
  28598170.906          36.100   113689049.610 6  28598171.438          41.200
 129417439.403 7                  24627323.938
        47.800                                    96642906.619 7  24627329.301
        46.700                                                    99164026.974 7
  24627328.723          46.800    97903457.398 8  24627328.766          49.100
 136180036.134 7                  25914189.898
        44.400                                   101692925.625 7  25914196.781
        45.600                                                   104345773.554 7
  25914194.816          44.400   103019350.199 7  25914195.199          47.900
 138427124.993 7                  26341804.031
        43.800                                   103370934.468 7  26341809.586
        43.200                                                   106067566.551 7
  26341808.148          42.500   104719248.618 7  26341808.605          46.200
 123972083.127 8                  23591101.750
        52.500                                    92576583.506 8  23591107.137
        52.100                                                    94991621.924 8
  23591105.867          51.300    93784100.821 9  23591106.344          54.400
 142221987.581 6                  27063945.219
        37.800                                   106204751.299 6  27063950.043
        38.800                                                   108975305.527 6
  27063949.051          37.200   107590027.515 6  27063949.488          41.400
 125065802.206 8                  23799225.156
        50.600                                    93393335.315 8  23799231.520
        51.500                                                    95829671.606 8
  23799230.422          50.900    94611504.565 8  23799230.738          53.800
 21  4 28 19 13  0.0000000  0 27G15G19G01G17G02G12R15G30G13G28R19R18
                                G06G14R09R08R20G24R07R16E07E30E13E21
                                E27E19E15
 124151087.324 6  96741044.436 6  23625145.102    23625154.418
        41.200          38.300    23625153.844


 105379912.920 8  82114189.49847  20053110.164    20053115.574
        51.000          46.400


 128166437.405 5  99870052.399 6  24389280.438    24389293.738
        35.400          36.700    24389293.430    95708811.586 7  24389291.699
        42.900

 110945989.411 8  86451449.216 7  21112319.125    21112326.652
        49.300          45.800    21112326.449


 127384974.789 6  99261080.89943  24240554.000    24240562.742
        40.200          22.800


 128532468.79614 100155074.111 5  24458890.953
        29.900          33.200    24458901.340


 129029680.46015 100356517.48913  24146162.406    24146169.875
        31.500          22.500


 125227153.887 6  97579524.158 6  23829922.047    23829931.980
        39.100          38.700    23829933.441    93513724.221 7  23829932.945
        45.600

 120951277.326 6  94247783.66744  23016267.344    23016277.270
        41.700          24.800


 115142495.238 8  89721440.26545  21910887.680    21910894.934
        48.700          34.900


 103480387.729 6  80484901.103 6  19344600.414    19344603.984    19344598.695
        40.700          41.700    19344604.480


 111279833.025 7  86551124.330 7  20846503.102    20846506.379    20846501.895
        47.300          43.400    20846506.328


 117967692.265 7  91922884.887 7  22448489.203    22448501.453
        42.900          42.600    22448501.227    88092788.144 8  22448502.254
        48.800

 117164055.931 7  91296682.011 7  22295582.406    22295590.234
        44.000          42.900    22295589.477    87492680.712 8  22295594.008
        49.100

 107177249.133 7  83360094.067 7  20070855.938    20070859.121    20070855.504
        47.200          42.500    20070859.063


 127774338.169 5                  23860965.430                    23860964.891
        30.500


 120004149.667 5  93336664.657 6  22441401.680    22441408.492    22441401.930
        35.000          37.000    22441409.820


 114949320.694 7  89570838.516 7  21874102.703    21874112.898
        45.100          45.200    21874113.184    85838721.759 8  21874113.047
        51.200

 128714558.782 6 100111325.136 5  24044975.922    24044982.211    24044974.637
        38.000          34.500    24044981.176


 107439469.862 7  83564057.719 6  20112897.453    20112899.566    20112896.375
        45.300          40.200    20112899.793


 150361534.447 5                  28612867.438
        35.300                                   112282952.604 6  28612877.371
        37.900                                                   115212069.860 6
  28612877.500          37.500   113747510.343 6  28612877.535          40.800
 129463811.675 7                  24636148.250
        46.000                                    96677535.240 7  24636153.215
        46.000                                                    99199558.951 7
  24636153.414          46.900    97938537.704 8  24636153.070          49.200
 136089215.773 7                  25896906.938
        43.700                                   101625105.298 7  25896913.418
        45.500                                                   104276183.974 7
  25896912.172          44.000   102950645.240 7  25896912.531          47.400
 138368491.278 7                  26330645.594
        43.400                                   103327149.601 7  26330651.844
        43.100                                                   106022639.474 6
  26330649.863          41.900   104674892.639 7  26330650.965          45.500
 123959952.304 8                  23588793.367
        51.800                                    92567524.771 8  23588798.664
        52.000                                                    94982326.874 8
  23588797.648          51.300    93774923.929 9  23588797.938          54.500
 142240945.897 6                  27067553.164
        37.100                                   106218908.468 6  27067557.590
        38.300                                                   108989832.006 6
  27067556.676          36.600   107604369.356 6  27067557.184          41.100
 125036943.614 8                  23793733.688
        50.100                                    93371785.075 8  23793739.711
        50.900                                                    95807559.188 8
  23793739.016          50.700    94589673.230 8  23793739.141          53.700
 21  4 28 19 13 30.0000000  0 26G15G19G01G17G02G12R15G30G13G28R19R18
                                G06G14R09R20G24R07R16E07E30E13E21E27
                                E19E15
 124214766.623 6  96790664.638 6  23637263.133    23637272.098
        40.900          38.100    23637272.664


 105380026.820 8  82114278.25147  20053132.008    20053137.461
        50.700          45.800


 128251441.004 5  99936288.943 6  24405455.836    24405469.133
        35.400          36.800    24405468.645    95772288.274 7  24405467.625
        42.200

 111001954.294 8  86495058.209 7  21122968.664    21122976.266
        48.500          46.500    21122975.109


 127280893.365 6  99179978.70743  24220746.773    24220757.207
        39.200          21.700


 128448440.984 4 100089597.911 5  24442900.070
        29.100          30.200    24442910.230


 129125867.86415                  24164163.164
        31.000


 125332350.925 6  97661495.773 5  23849938.492    23849950.113
        37.200          35.800    23849948.738    93592280.313 7  23849950.656
        45.200

 121042256.721 6  94318676.62444  23033581.523    23033589.246
        41.500          24.800


 115184943.758 8  89754517.00445  21918965.445    21918972.703
        48.800          34.400


 103456256.594 6  80466132.453 6  19340089.547    19340092.938    19340087.637
        40.100          40.800    19340093.473


 111369208.918 7  86620638.903 7  20863245.617    20863249.590    20863244.691
        47.400          42.300    20863249.395


 117876883.237 7  91852124.672 7  22431210.188    22431221.246
        43.200          43.200    22431221.645    88024976.270 8  22431222.016
        48.700

 117225331.351 7  91344429.057 7  22307241.328    22307251.191
        42.500          43.600    22307250.887    87538438.304 8  22307254.117
        48.500

 107117360.236 8  83313513.835 6  20059640.445    20059643.555    20059640.492
        48.500          41.600    20059643.883


 119874146.798 5  93235551.422 6  22417091.625    22417097.305    22417090.871
        34.300          37.000    22417097.387


 114879821.419 7  89516683.218 7  21860877.656    21860887.520
        45.300          45.100    21860886.910    85786822.944 8  21860887.648
        50.900

 128803825.644 6 100180754.764 5  24061653.031    24061657.379    24061651.852
        40.300          32.600    24061658.195


 107476554.341 7  83592901.189 6  20119838.891    20119841.785    20119838.871
        45.600          39.200    20119840.684


 150438656.978 5                  28627545.148
        34.100                                   112340543.817 5  28627553.137
        34.200                                                   115271163.472 5
  28627552.934          34.300   113805852.727 6  28627553.738          37.700
 129510303.157 7                  24644995.547
        46.800                                    96712252.857 7  24645000.820
        46.400                                                    99235182.257 7
  24644999.855          46.200    97973708.166 8  24645000.168          49.400
 135998534.424 7                  25879651.398
        43.900                                   101557388.750 7  25879657.117
        44.800                                                   104206700.918 7
  25879656.668          44.200   102882045.432 7  25879656.438          47.200
 138309860.100 7                  26319488.617
        44.200                                   103283366.575 7  26319495.156
        43.100                                                   105977714.258 7
  26319492.766          42.300   104630538.522 7  26319493.785          45.700
 123947947.682 8                  23586509.078
        52.100                                    92558560.275 8  23586514.418
        51.700                                                    94973128.525 8
  23586513.516          51.100    93765842.504 9  23586513.551          54.200
 142260282.896 6                  27071232.992
        37.300                                   106233348.425 6  27071237.777
        38.100                                                   109004648.679 6
  27071236.824          36.300   107618997.653 6  27071236.980          40.600
 125008512.385 8                  23788323.250
        50.400                                    93350553.970 8  23788329.441
        50.600                                                    95785774.227 8
  23788328.863          50.800    94568165.203 8  23788328.859          53.600
 21  4 28 19 14  0.0000000  0 26G15G19G01G17G02G12R15G30G13G28R19R18
                                G06G14R09R20G24R07R16E07E30E13E21E27
                                E19E15
 124278748.974 6  96840520.947 6  23649437.758    23649447.555
        40.300          37.600    23649447.047


 105380662.609 8  82114773.67047  20053252.805    20053258.172
        50.500          46.300


 128336848.965 6 100002840.586 6  24421709.352    24421721.805
        37.200          37.700    24421720.617    95836066.941 6  24421719.758
        41.300

 111058218.038 8  86538900.083 7  21133675.766    21133682.918
        49.300          46.300    21133682.852


 127176863.198 6  99098916.39743  24200951.781    24200960.422
        40.400          22.600


 128364441.915 5 100024144.06915  24426917.508
        32.000          30.600    24426923.855


 129222244.635 4                  24182192.063
        25.300


 125437730.157 6  97743609.329 6  23869991.063    23870002.434
        39.400          36.700    23870002.406    93670972.460 7  23870003.855
        45.200

 121133441.830 7  94389729.89644  23050932.758    23050941.523
        42.600          25.300


 115227500.731 8  89787678.26245  21927064.047    21927070.703
        48.800          34.600


 103432942.887 6  80447999.572 6  19335731.141    19335734.395    19335729.395
        40.400          41.400    19335734.230


 111459123.030 7  86690572.077 7  20880089.164    20880093.477    20880088.816
        47.600          44.200    20880093.684


 117786365.059 7  91781591.087 7  22413984.820    22413995.957
        43.500          42.800    22413995.828    87957381.582 8  22413997.168
        49.100

 117286754.718 7  91392291.386 7  22318930.242    22318939.770
        44.000          43.900    22318939.344    87584306.354 8  22318942.340
        48.400

 107057762.497 8  83267160.055 7  20048480.555    20048482.590    20048479.957
        48.800          42.300    20048481.801


 119744405.178 5  93134641.375 6  22392828.852    22392835.098    22392827.836
        34.800          37.900    22392834.996


 114810712.054 7  89462831.785 7  21847725.852    21847736.383
        45.100          45.100    21847736.156    85735215.314 8  21847736.645
        51.200

 128893320.892 6 100250362.155 5  24078369.422    24078376.871    24078368.938
        38.700          33.800    24078377.664


 107514076.981 7  83622085.439 6  20126864.172    20126866.027    20126863.145
        45.200          40.400    20126866.676


 150515621.40914                  28642189.672
        28.600                                   112398016.983 5  28642198.621
        32.000                                                   115330135.917 5
  28642198.785          30.800   113864075.57715  28642199.730          34.500
 129556914.013 7                  24653864.836
        47.500                                    96747059.616 7  24653871.215
        46.400                                                    99270897.034 7
  24653869.445          45.700    98008968.922 8  24653870.027          48.700
 135907993.742 7                  25862421.922
        43.600                                   101489777.251 7  25862428.691
        45.400                                                   104137325.638 7
  25862425.801          44.300   102813552.048 7  25862427.156          47.700
 138251231.532 7                  26308332.648
        44.200                                   103239585.531 7  26308338.488
        43.600                                                   105932791.083 7
  26308336.480          43.200   104586186.411 7  26308337.121          46.600
 123936069.734 8                  23584248.820
        52.200                                    92549690.380 8  23584253.973
        51.900                                                    94964027.238 8
  23584253.078          51.300    93756856.911 9  23584253.254          54.400
 142279997.496 6                  27074984.414
        38.100                                   106248070.339 6  27074989.191
        39.300                                                   109019754.647 6
  27074988.453          36.200   107633911.582 6  27074988.563          41.500
 124980509.011 8                  23782994.211
        50.400                                    93329642.372 8  23783000.523
        50.800                                                    95764317.102 8
  23782999.699          50.700    94546980.837 8  23782999.965          53.600
 21  4 28 19 14 30.0000000  0 25G15G19G01G17G02G12R15G30G13G28R19R18
                                G06G14R09R20G24R07R16E30E13E21E27E19
                                E15
 124343031.587 6  96890611.199 6  23661670.336    23661680.016
        39.700          37.400    23661680.301


 105381819.812 8  82115675.38647  20053473.164    20053478.246
        51.300          46.000


 128422658.711 6 100069705.252 5  24438038.336    24438050.734
        37.000          35.900    24438051.043    95900145.603 6  24438048.531
        40.500

 111114778.337 8  86582973.039 7  21144439.414    21144446.008
        49.100          45.600    21144445.602


 127072887.033 6  99017896.19043  24181164.195    24181173.531
        38.700          22.000


 128280472.133 5  99958713.11615  24410940.094
        33.700          32.200    24410946.117


 129318808.822 5                  24200268.031
        32.800


 125543289.814 6  97825863.478 6  23890078.625    23890091.000
        39.200          37.200    23890090.863    93749799.335 7  23890091.184
        45.400

 121224829.302 7  94460940.85844  23068322.547    23068331.805
        42.800          24.400


 115270166.373 8  89820924.19845  21935182.969    21935189.695
        48.300          34.600


 103410446.434 6  80430502.346 6  19331525.320    19331529.145    19331524.199
        39.200          41.100    19331528.539


 111549571.372 7  86760920.759 7  20897033.594    20897037.719    20897032.840
        45.700          42.300    20897036.793


 117696141.009 7  91711286.673 7  22396816.813    22396827.109
        44.400          42.800    22396827.211    87890006.527 8  22396827.520
        48.900

 117348326.030 7  91440269.027 7  22330647.875    22330655.863
        43.200          43.000    22330655.563    87630284.904 7  22330658.605
        47.900

 106998458.811 7  83221034.955 7  20037375.023    20037377.000    20037374.383
        46.400          42.300    20037376.930


 119614928.492 5  93033937.438 6  22368616.133    22368622.551    22368614.602
        33.400          37.600    22368622.051


 114741995.130 7  89409286.140 7  21834649.727    21834660.043
        44.900          44.700    21834659.559    85683900.742 8  21834660.359
        51.300

 128983040.435 6 100320143.89415  24095132.008    24095137.406    24095130.117
        38.000          31.900    24095138.590


 107552038.581 7  83651611.105 6  20133970.414    20133972.633    20133969.410
        43.700          40.300    20133972.520


 129603644.703 7                  24662757.836
        47.800                                    96781955.876 7  24662763.531
        46.200                                                    99306703.624 7
  24662762.402          45.300    98044320.355 8  24662762.648          48.500
 135817595.796 7                  25845219.906
        44.400                                   101422272.327 7  25845226.426
        44.900                                                   104068059.725 7
  25845223.988          43.500   102745166.633 7  25845225.023          46.800
 138192606.043 7                  26297176.375
        44.200                                   103195806.757 7  26297182.055
        42.800                                                   105887870.291 7
  26297180.496          42.500   104541836.630 7  26297181.172          45.100
 123924319.285 8                  23582012.938
        52.100                                    92540915.677 8  23582017.734
        51.700                                                    94955023.643 8
  23582016.992          51.300    93747967.765 9  23582017.215          54.300
 142300088.930 6                  27078807.750
        37.400                                   106263073.607 6  27078812.793
        38.500                                                   109035149.341 5
  27078810.996          35.800   107649110.574 6  27078811.914          40.200
 124952934.271 8                  23777747.242
        49.500                                    93309050.844 8  23777753.258
        50.800                                                    95743188.403 8
  23777752.398          50.700    94526120.728 8  23777752.688          53.500
 21  4 28 19 15  0.0000000  0 25G15G19G01G17G02G12R15G30G13G28R19R18
                                G06G14R09R20G24R07R16E30E13E21E27E19
                                E15
 124407611.694 6  96940933.339 6  23673960.281    23673970.418
        41.500          38.000    23673969.461


 105383496.884 8  82116982.20147  20053792.273    20053797.262
        52.100          46.400


 128508867.450 6 100136880.848 6  24454444.086    24454456.203
        36.900          36.200    24454455.480    95964522.201 6  24454454.500
        40.500

 111171633.161 8  86627275.468 7  21155257.734    21155265.281
        48.900          46.400    21155264.926


 126968967.771 6  98936920.27143  24161387.719    24161397.902
        39.200          21.100


 128196531.613 5  99893305.015 5  24394965.555
        33.300          32.900    24394973.418


 129415599.166 5                  24218376.977                    24218373.426
        31.800


 125649027.955 6  97908256.718 6  23910199.219    23910212.133
        39.500          37.300    23910213.113    93828759.488 7  23910212.145
        44.500

 121316415.901 6  94532306.93744  23085751.367    23085760.496
        41.500          25.500


 115312940.966 8  89854255.02645  21943321.430    21943329.359
        48.000          34.200


 103388768.402 6  80413641.645 6  19327471.875    19327476.586    19327471.375
        39.500          41.100    19327476.367


 111640549.919 8  86831681.816 7  20914076.906    20914080.621    20914076.711
        48.300          43.400    20914079.746


 117606214.175 7  91641213.826 7  22379703.641    22379714.625
        43.800          43.200    22379714.578    87822853.409 8  22379715.316
        49.600

 117410045.249 7  91488361.871 7  22342392.578    22342400.090
        44.100          42.600    22342399.762    87676373.873 8  22342403.664
        48.100

 106939451.430 8  83175140.322 7  20026324.383    20026326.945    20026323.750
        48.900          42.200    20026326.910


 119485720.486 5  92933442.359 6  22344452.406    22344459.551    22344452.719
        34.600          38.100    22344461.000


 114673672.832 7  89356047.984 7  21821648.773    21821658.824
        45.900          45.000    21821658.109    85632880.844 8  21821659.195
        51.800

 129072979.750 6 100390096.59415  24111933.898    24111938.172    24111931.949
        38.000          31.000    24111938.406


 107590439.684 7  83681478.629 6  20141158.867    20141161.461    20141158.309
        45.800          39.000    20141160.715


 129650495.550 7                  24671672.586
        46.500                                    96816941.840 7  24671678.914
        46.900                                                    99342602.284 7
  24671678.102          47.200    98079762.665 8  24671678.148          50.000
 135727342.338 7                  25828045.164
        44.700                                   101354875.317 7  25828051.313
        46.000                                                   103998904.511 7
  25828049.145          44.200   102676890.526 8  25828050.246          48.000
 138133983.884 7                  26286020.617
        44.900                                   103152030.505 7  26286026.199
        44.300                                                   105842952.061 7
  26286025.523          43.900   104497489.385 7  26286025.965          47.000
 123912696.864 8                  23579801.180
        52.300                                    92532236.608 8  23579806.039
        51.800                                                    94946118.152 8
  23579805.367          51.400    93739175.490 9  23579805.539          54.400
 142320556.161 6                  27082702.344
        36.800                                   106278357.590 6  27082707.238
        37.900                                                   109050832.000 6
  27082706.211          36.100   107664593.911 6  27082706.762          40.900
 124925788.739 8                  23772581.563
        51.100                                    93288779.847 8  23772587.848
        51.100                                                    95722388.597 8
  23772586.973          50.800    94505585.327 8  23772587.074          53.800
 21  4 28 19 15 30.0000000  0 25G15G19G01G17G02G12R15G30G13G28R19R18
                                G06G14R09R20G24R07R16E30E13E21E27E19
                                E15
 124472485.813 6  96991484.535 6  23686305.102    23686314.090
        41.200          36.800    23686313.762


 105385692.519 8  82118693.09147  20054210.414    20054215.402
        51.300          46.000


 128595471.612 5 100204364.605 5  24470923.688    24470935.742
        34.800          35.900    24470935.836    96029194.128 6  24470935.699
        40.400

 111228779.721 8  86671805.253 7  21166132.023    21166139.949
        48.300          45.300    21166139.059


 126865107.168 6  98855990.11843  24141623.672    24141634.039
        39.500          21.500


 128112620.175 5  99827919.480 5  24378996.977    24379007.223
        33.600          34.200    24379007.457


 129512534.114 5                  24236515.492                    24236515.715
        30.600


 125754941.933 6  97990786.936 5  23930356.055    23930367.617
        40.100          35.800    23930366.523    93907850.909 7  23930367.684
        44.700

 121408198.166 6  94603825.54343  23103217.070    23103225.805
        41.100          23.400


 115355823.587 8  89887670.03345  21951482.000    21951489.246
        48.100          32.800


 103367908.095 6  80397416.972 6  19323573.656    19323576.852    19323571.840
        38.900          40.700    19323576.324


 111732053.673 7  86902851.367 7  20931218.734    20931222.156    20931217.953
        44.800          42.200    20931221.387


 117516586.908 7  91571374.436 7  22362648.422    22362659.355
        44.000          43.200    22362659.313    87755924.003 8  22362659.988
        49.600

 117471911.525 7  91536569.349 7  22354164.359    22354173.316
        43.100          42.800    22354172.676    87722572.685 8  22354176.816
        48.500

 106880742.291 7  83129477.667 7  20015330.461    20015332.773    20015329.605
        45.400          42.000    20015332.531


 119356784.041 5  92833158.577 6  22320340.813    22320348.219    22320340.156
        32.500          38.000    22320348.469


 114605746.750 7  89303118.589 7  21808722.266    21808732.746
        44.300          45.400    21808732.730    85582156.841 8  21808733.313
        51.600

 129163133.835 6 100460216.49315  24128774.039    24128781.102    24128773.035
        36.400          30.900    24128778.738


 107629280.255 7  83711687.931 6  20148428.734    20148432.344    20148429.348
        42.500          39.400    20148432.152


 129697466.159 7                  24680611.000
        46.600                                    96852017.259 7  24680617.004
        45.900                                                    99378592.715 7
  24680616.453          45.500    98115295.600 8  24680616.340          48.500
 135637234.496 7                  25810897.633
        43.700                                   101287587.058 7  25810903.281
        44.400                                                   103929860.908 7
  25810902.613          43.300   102608724.585 7  25810903.266          46.700
 138075364.678 7                  26274866.047
        44.600                                   103108256.415 7  26274871.988
        43.900                                                   105798036.052 7
  26274870.816          43.100   104453144.343 7  26274871.230          46.200
 123901202.395 8                  23577614.023
        52.300                                    92523653.079 8  23577618.723
        51.700                                                    94937310.718 8
  23577618.102          51.400    93730480.005 9  23577618.254          54.400
 142341397.605 6                  27086668.211
        36.500                                   106293920.999 6  27086673.641
        37.700                                                   109066801.385 5
  27086671.770          35.600   107680360.289 6  27086672.734          40.200
 124899072.296 8                  23767497.211
        50.700                                    93268829.270 8  23767504.074
        51.100                                                    95701917.564 8
  23767503.027          50.700    94485374.523 8  23767503.074          53.700
 21  4 28 19 16  0.0000000  0 24G15G19G01G17G02G12G30G13G28R19R18G06
                                G14R09R20G24R07R16E30E13E21E27E19E15
 124537650.147 7  97042261.855 6  23698707.344    23698714.434
        43.900          36.800    23698714.207


 105388404.957 8  82120806.68047  20054726.383    20054731.570
        51.200          46.500


 128682468.041 5 100272154.024 5  24487478.781    24487490.086
        33.800          34.800    24487489.496    96094158.998 6  24487490.340
        41.000

 111286215.688 8  86716560.531 7  21177062.297    21177069.582
        49.800          45.600    21177068.918


 126761307.546 6  98775107.44943  24121872.867    24121880.508
        40.900          22.000


 128028737.481 5  99762556.495 5  24363034.242    24363043.773
        33.300          30.800    24363041.965


 125861029.322 6  98073452.329 6  23950544.609    23950555.129
        39.700          37.700    23950555.688    93987071.889 7  23950555.848
        44.700

 121500172.065 6  94675493.42443  23120719.375    23120728.813
        41.300          23.900


 115398814.173 8  89921169.17545  21959663.555    21959670.688
        48.500          33.600


 103347865.294 6  80381828.117 7  19319826.906    19319830.320    19319825.359
        39.700          42.400    19319829.328


 111824078.357 7  86974426.125 7  20948457.750    20948462.141    20948456.953
        47.100          42.900    20948461.609


 117427261.898 7  91501770.584 7  22345649.891    22345660.730
        43.600          43.200    22345660.797    87689220.296 8  22345661.789
        49.600

 117533924.404 7  91584891.021 7  22365965.266    22365974.063
        42.400          43.700    22365974.145    87768880.955 8  22365977.168
        48.400

 106822333.537 8  83084048.638 7  20004391.742    20004394.727    20004391.473
        48.800          43.800    20004394.574


 119228122.539 5  92733088.617 6  22296281.156    22296288.145    22296279.344
        34.300          38.400    22296288.688


 114538218.771 7  89250499.393 7  21795871.953    21795882.848
        45.100          46.000    21795882.656    85531730.124 8  21795882.875
        51.400

 129253497.694 6 100530499.357 5  24145655.195    24145661.344    24145653.633
        36.400          33.700    24145659.758


 107668560.501 7  83742239.209 6  20155782.852    20155785.867    20155782.328
        45.700          41.200    20155785.910


 129744556.423 7                  24689572.852
        47.500                                    96887182.024 7  24689577.887
        46.400                                                    99414674.825 7
  24689576.574          46.400    98150919.033 8  24689577.422          49.500
 135547273.725 7                  25793778.195
        43.200                                   101220408.600 7  25793785.469
        45.600                                                   103860929.962 7
  25793784.285          45.100   102540669.892 8  25793784.344          48.000
 138016748.249 7                  26263711.805
        45.300                                   103064484.441 7  26263717.664
        45.300                                                   105753122.201 7
  26263716.293          44.400   104408801.428 7  26263716.941          47.800
 123889836.133 8                  23575450.688
        51.900                                    92515165.270 8  23575456.059
        51.700                                                    94928601.478 8
  23575455.172          51.500    93721881.477 9  23575455.328          54.400
 142362611.821 6                  27090705.273
        37.000                                   106309762.688 6  27090710.078
        37.800                                                   109083056.389 6
  27090709.832          36.200   107696408.635 6  27090709.602          40.200
 124872785.139 8                  23762495.250
        50.700                                    93249199.242 8  23762501.699
        51.000                                                    95681775.448 8
  23762500.594          50.600    94465488.450 8  23762500.777          53.600
 21  4 28 19 16 30.0000000  0 24G15G19G01G17G02G12G30G13G28R19R18G06
                                G14R09R20G24R07R16E30E13E21E27E19E15
 124603102.291 6  97093263.477 6  23711161.398    23711169.785
        41.800          36.900    23711169.500


 105391633.270 8  82123322.24647  20055340.719    20055345.980
        51.900          46.700


 128769854.074 5 100340246.966 5  24504107.055    24504119.371
        34.300          33.300    24504118.043    96159414.712 6  24504118.188
        39.600

 111343938.601 8  86761539.404 7  21188046.156    21188053.969
        48.800          45.700    21188053.379


 126657571.757 6  98694274.51243  24102131.656    24102140.184
        41.100          22.000


 127944883.978 5  99697216.067 5  24347079.031    24347087.023
        35.200          32.300    24347085.164


 125967288.322 6  98156251.387 6  23970764.422    23970775.664
        38.200          37.400    23970774.984    94066420.942 7  23970776.348
        44.600

 121592334.509 6  94747308.28044  23138258.063    23138266.152
        41.000          24.600


 115441913.208 7  89954752.81445  21967864.586    21967872.273
        47.600          33.400


 103328640.290 6  80366875.326 7  19316232.633    19316236.238    19316231.488
        39.400          42.500    19316235.984


 111916620.005 7  87046402.942 7  20965793.883    20965798.230    20965793.512
        47.300          42.700    20965797.664


 117338242.229 7  91432404.643 7  22328710.344    22328720.426
        43.700          42.900    22328720.898    87622744.616 8  22328721.855
        49.900

 117596083.785 7  91633326.860 7  22377793.992    22377802.297
        43.400          43.000    22377802.324    87815298.631 8  22377806.355
        48.800

 106764227.791 7  83038855.300 7  19993510.195    19993513.332    19993510.012
        47.700          43.800    19993513.008


 119099739.597 5  92633235.308 6  22272272.773    22272280.043    22272271.715
        34.500          38.100    22272281.848


 114471091.204 7  89198192.200 7  21783097.922    21783109.043
        45.200          45.800    21783108.223    85481602.387 8  21783108.777
        51.400

 129344067.056 6 100600942.012 6  24162574.961    24162580.809    24162572.367
        37.500          36.400    24162581.750


 107708280.554 7  83773132.562 6  20163218.047    20163221.957    20163217.957
        44.000          40.900    20163221.316


 129791766.662 7                  24698556.320
        47.400                                    96922436.367 7  24698561.754
        46.700                                                    99450848.862 7
  24698560.582          46.800    98186633.223 8  24698561.293          49.600
 135457461.874 7                  25776687.563
        44.000                                   101153341.350 7  25776694.699
        45.900                                                   103792113.124 7
  25776693.953          44.800   102472727.834 8  25776693.648          48.300
 137958135.029 7                  26252557.953
        45.300                                   103020714.833 7  26252563.672
        45.700                                                   105708210.781 7
  26252562.090          44.200   104364460.912 8  26252563.105          48.000
 123878598.715 8                  23573312.594
        52.400                                    92506773.690 8  23573317.723
        51.800                                                    94919990.984 8
  23573316.906          51.700    93713380.439 9  23573316.895          54.500
 142384197.830 5                  27094813.242
        35.300                                   106325882.071 6  27094817.617
        37.200                                                   109099596.223 6
  27094817.371          36.800   107712738.258 6  27094817.176          40.500
 124846927.820 8                  23757574.766
        50.500                                    93229890.208 8  23757580.738
        50.900                                                    95661962.699 8
  23757580.082          51.000    94445927.556 8  23757580.258          53.700
 21  4 28 19 17  0.0000000  0 24G15G19G01G17G02G12G30G13G28R19R18G06
                                G14R09R20G24R07R16E30E13E21E27E19E15
 124668840.461 7  97144487.959 6  23723670.742    23723679.992
        42.600          37.200    23723679.770


 105395377.577 8  82126239.88547  20056053.242    20056058.465
        50.800          46.700


 128857627.95215 100408642.168 5  24520809.570    24520822.910
        33.900          33.900    24520820.805    96224960.092 6  24520821.199
        39.600

 111401947.690 8  86806741.276 7  21199085.367    21199092.539
        49.300          45.300    21199092.402


 126553903.729 6  98613494.37943  24082403.828    24082412.223
        40.900          22.500


 127861060.849 5  99631899.433 5  24331128.008    24331135.855
        35.500          33.700    24331136.719


 126073718.016 6  98239183.504 6  23991017.289    23991027.785
        39.200          37.000    23991028.539    94145897.540 7  23991028.742
        44.500

 121684683.591 6  94819268.50743  23155830.328    23155839.672
        40.300          23.000


 115485121.746 7  89988421.77145  21976086.977    21976093.965
        47.600          33.400


 103310234.321 6  80352559.583 7  19312792.320    19312795.441    19312790.547
        40.000          43.000    19312795.332


 112009675.346 7  87118779.296 7  20983226.977    20983230.633    20983225.980
        47.900          43.200    20983229.980


 117249532.130 7  91363279.931 7  22311828.734    22311840.355
        43.600          42.700    22311840.094    87556500.108 8  22311840.996
        50.200

 117658390.761 7  91681877.718 7  22389650.453    22389659.254
        43.300          42.700    22389658.328    87861826.541 8  22389662.477
        48.300

 106706428.583 8  82993900.361 7  19982686.469    19982689.309    19982686.094
        48.800          44.000    19982689.230


 118971640.182 5  92533602.525 6  22248316.734    22248324.273    22248316.199
        33.900          37.400    22248324.297


 114404367.371 7  89146199.635 7  21770401.375    21770411.727
        45.500          46.000    21770411.371    85431776.181 8  21770411.648
        51.600

 129434838.724 6 100671542.051 5  24179532.648    24179538.465    24179530.867
        40.400          34.500    24179538.441


 107748442.535 7  83804369.649 6  20170737.242    20170739.902    20170736.988
        45.300          41.000    20170739.840


 129839098.393 8                  24707563.266
        48.200                                    96957781.450 7  24707569.066
        46.400                                                    99487115.981 7
  24707567.828          46.300    98222439.321 8  24707568.293          49.100
 135367801.925 7                  25759626.219
        43.900                                   101086387.519 7  25759632.965
        46.100                                                   103723412.664 7
  25759632.457          44.600   102404900.706 8  25759631.891          48.500
 137899526.375 7                  26241404.859
        44.900                                   102976948.661 7  26241411.145
        46.300                                                   105663302.871 7
  26241409.770          44.200   104320123.865 8  26241410.230          48.200
 123867491.925 8                  23571198.875
        52.200                                    92498479.651 8  23571203.984
        51.900                                                    94911480.583 8
  23571203.336          51.500    93704978.218 9  23571203.355          54.500
 142406155.734 5                  27098990.711
        35.200                                   106342279.180 6  27098996.270
        37.400                                                   109116421.11216
  27098995.426          36.700   107729349.261 6  27098995.762          40.600
 124821502.045 8                  23752736.469
        51.000                                    93210903.437 8  23752742.270
        50.800                                                    95642480.620 8
  23752741.645          50.700    94426693.136 8  23752741.918          53.600
 21  4 28 19 17 30.0000000  0 24G15G19G01G17G02G12G30G13G28R19R18G06
                                G14R09R20G24R07R16E30E13E21E27E19E15
 124734861.403 7  97195932.821 6  23736235.641    23736243.094
        42.600          37.900    23736242.832


 105399637.133 8  82129559.02547  20056863.656    20056869.102
        50.700          46.600


 128945786.829 5 100477337.374 5  24537587.164    24537598.984
        35.100          34.300    24537597.113    96290793.024 6  24537596.953
        40.500

 111460240.867 8  86852164.534 7  21210177.938    21210185.547
        49.500          46.400    21210184.945


 126450305.995 6  98532769.05643  24062691.891    24062698.105
        41.400          22.000


 127777268.303 5  99566606.607 5  24315184.359    24315191.336
        35.500          34.500    24315190.863


 126180316.514 6  98322247.134 6  24011302.406    24011313.953
        39.400          36.800    24011312.391    94225500.149 7  24011314.578
        45.300

 121777216.171 6  94891371.75544  23173439.367    23173447.766
        40.900          24.200


 115528439.878 8  90022176.13545  21984330.766    21984337.609
        49.000          33.500


 103292647.638 6  80338881.055 7  19309504.773    19309507.883    19309502.793
        39.000          42.400    19309507.609


 112103240.347 7  87191552.027 7  21000755.250    21000758.988    21000754.059
        47.800          43.400    21000758.809


 117161134.663 7  91294398.811 7  22295007.195    22295018.672
        43.300          43.400    22295019.113    87490489.040 8  22295019.711
        50.300

 117720845.231 7  91730543.503 7  22401536.070    22401544.043
        43.100          43.500    22401543.512    87908464.574 8  22401547.234
        48.700

 106648938.693 8  82949186.015 7  19971921.109    19971923.109    19971920.246
        49.500          43.700    19971922.891


 118843827.713 5  92434192.927 6  22224416.047    22224422.324    22224415.199
        34.000          38.100    22224423.391


 114338049.568 7  89094523.444 7  21757781.656    21757791.602
        45.300          45.900    21757791.371    85382253.148 8  21757791.844
        51.800

 129525808.249 6 100742296.028 6  24196526.641    24196532.719    24196524.281
        37.200          36.100    24196533.566


 107789046.748 7  83835950.682 6  20178338.656    20178341.324    20178338.074
        45.800          40.600    20178340.914


 129886551.823 7                  24716593.195
        46.800                                    96993217.399 7  24716599.145
        46.600                                                    99523476.354 7
  24716598.004          46.700    98258337.482 8  24716598.371          49.600
 135278295.637 7                  25742594.023
        44.400                                   101019548.468 7  25742600.109
        46.200                                                   103654829.988 7
  25742599.840          45.500   102337189.827 8  25742599.313          48.600
 137840922.595 7                  26230253.258
        45.300                                   102933186.136 7  26230259.191
        46.300                                                   105618398.694 7
  26230257.969          45.100   104275790.526 8  26230258.246          48.700
 123856516.348 8                  23569110.328
        52.000                                    92490283.593 8  23569115.281
        51.900                                                    94903070.724 8
  23569114.551          51.700    93696675.262 9  23569114.754          54.400
 142428484.535 5                  27103240.469
        34.700                                   106358953.250 6  27103245.137
        37.400                                                   109133530.170 6
  27103244.262          37.400   107746240.808 6  27103244.922          41.100
 124796508.294 8                  23747980.039
        50.800                                    93192239.269 8  23747986.258
        50.800                                                    95623329.569 8
  23747985.570          50.600    94407785.521 8  23747985.777          53.500
 21  4 28 19 18  0.0000000  0 24G15G19G01G17G02G12G30G13G28R19R18G06
                                G14R09R20G24R07R16E30E13E21E27E19E15
 124801162.530 7  97247595.983 6  23748853.680    23748860.215
        42.600          36.600    23748859.473


 105404410.785 8  82133278.74647  20057772.563    20057777.516
        51.100          46.600


 129034328.131 5 100546330.517 5  24554435.734    24554446.797
        35.000          34.900    24554446.602    96356911.428 6  24554445.922
        41.700

 111518816.305 8  86897807.694 7  21221324.828    21221332.051
        48.600          45.800    21221331.680


 126346781.224 7  98452100.56843  24042991.656    24042997.594
        42.300          22.600


 127693506.615 5  99501337.852 5  24299242.516    24299251.477
        35.800          33.000    24299250.746


 126287081.875 6  98405440.808 6  24031619.367    24031630.055
        39.800          37.800    24031630.703    94305227.356 7  24031631.895
        44.800

 121869929.110 6  94963615.51543  23191082.070    23191090.645
        40.500          22.600


 115571868.132 8  90056016.31345  21992594.797    21992601.676
        48.000          33.700


 103275880.223 6  80325839.699 7  19306370.320    19306373.195    19306368.070
        39.100          42.300    19306373.262


 112197310.698 7  87264717.812 7  21018377.875    21018381.598    21018376.656
        47.600          43.700    21018380.926


 117073053.000 7  91225763.757 7  22278246.414    22278256.871
        43.900          42.700    22278256.883    87424713.802 8  22278258.316
        50.400

 117783447.142 7  91779324.192 7  22413448.664    22413457.082
        43.300          43.700    22413456.449    87955212.727 8  22413460.344
        49.100

 106591760.616 8  82904714.183 7  19961212.930    19961215.656    19961212.613
        48.600          43.900    19961215.422


 118716306.170 5  92335009.551 6  22200568.219    22200575.250    22200567.309
        34.100          38.800    22200575.750


 114272140.121 7  89043165.420 7  21745239.227    21745249.801
        45.800          45.800    21745249.176    85333035.060 8  21745249.617
        51.800

 129616971.401 4 100813200.624 5  24213553.313    24213562.441    24213550.742
        28.100          34.900    24213562.660


 107830093.557 7  83867875.923 6  20186023.164    20186025.230    20186022.207
        45.800          40.800    20186023.867


 129934127.398 7                  24725646.453
        47.100                                    97028744.572 7  24725652.477
        46.900                                                    99559930.323 7
  24725651.273          46.400    98294328.050 8  24725651.711          49.700
 135188944.988 7                  25725591.289
        44.500                                   100952825.606 7  25725596.852
        45.500                                                   103586366.530 7
  25725596.328          44.600   102269596.671 7  25725596.352          47.900
 137782324.156 7                  26219101.844
        45.200                                   102889427.578 7  26219107.871
        45.700                                                   105573498.614 7
  26219107.090          44.500   104231461.197 8  26219107.297          48.100
 123845672.773 8                  23567046.914
        52.200                                    92482186.128 8  23567051.934
        51.800                                                    94894762.005 8
  23567051.211          51.600    93688472.172 9  23567051.301          54.400
 142451183.304 5                  27107560.305
        35.800                                   106375903.582 6  27107564.793
        37.700                                                   109150922.724 6
  27107563.496          37.700   107763412.261 6  27107564.473          41.000
 124771947.231 8                  23743306.063
        51.200                                    93173898.213 8  23743312.496
        50.900                                                    95604510.057 8
  23743311.563          50.500    94389205.237 8  23743311.996          53.500
 21  4 28 19 18 30.0000000  0 24G15G19G01G17G02G12G30G13G28R19R18G06
                                G14R09R20G24R07R16E30E13E21E27E19E15
 124867740.609 7  97299474.957 5  23761521.570    23761528.863
        42.400          35.800    23761527.656


 105409696.973 8  82137397.85547  20058778.227    20058783.465
        50.900          46.200


 129123248.64315 100615619.220 6  24571355.633    24571367.883
        33.900          36.700    24571368.410    96423313.028 7  24571367.383
        42.500

 111577670.770 8  86943668.305 7  21232524.039    21232532.000
        48.900          47.200    21232531.305


 126243332.148 6  98371491.04543  24023304.078    24023311.836
        40.600          21.800


 127609775.971 5  99436093.217 5  24283308.555    24283318.199
        35.400          34.600    24283318.250


 126394011.886 6  98488762.714 6  24051966.094    24051979.242
        38.500          38.200    24051979.227    94385077.552 7  24051980.059
        45.500

 121962818.949 6  95035997.13043  23208758.719    23208766.656
        40.800          22.800


 115615406.187 8  90089942.03345  22000879.156    22000887.027
        48.000          33.600


 103259932.041 6  80313435.594 6  19303389.016    19303391.645    19303386.918
        39.500          40.900    19303391.789


 112291882.390 8  87338273.565 7  21036093.758    21036097.789    21036093.504
        48.100          43.500    21036096.680


 116985289.859 7  91157376.954 7  22261545.570    22261556.793
        43.900          43.900    22261556.457    87359176.446 8  22261556.926
        50.500

 117846196.201 7  91828219.531 7  22425388.734    22425398.016
        43.500          44.600    22425397.441    88002070.726 8  22425401.441
        49.300

 106534897.087 8  82860487.008 7  19950563.813    19950567.074    19950563.793
        48.600          43.200    19950566.141


 118589078.750 5  92236054.998 6  22176775.336    22176783.090    22176775.211
        34.300          38.700    22176783.043


 114206640.989 7  88992127.161 7  21732775.484    21732785.609
        46.700          46.600    21732785.508    85284123.395 8  21732785.535
        51.900

 129708323.772 5 100884252.308 5  24230621.172    24230628.277    24230618.930
        35.600          32.400    24230629.023


 107871583.886 7  83900146.153 6  20193789.703    20193792.191    20193788.848
        45.000          41.300    20193792.875


 129981825.158 7                  24734723.109
        46.800                                    97064362.969 7  24734729.117
        47.300                                                    99596477.919 7
  24734728.180          46.400    98330411.053 8  24734728.348          49.600
 135099751.522 7                  25708617.914
        43.700                                   100886220.134 7  25708623.859
        45.500                                                   103518023.512 7
  25708622.891          44.400   102202122.429 7  25708623.418          47.800
 137723731.060 7                  26207952.398
        45.000                                   102845673.019 7  26207957.844
        46.200                                                   105528602.627 7
  26207956.906          45.200   104187135.936 8  26207957.410          48.600
 123834961.550 8                  23565008.703
        52.900                                    92474187.477 8  23565013.602
        51.800                                                    94886554.697 8
  23565013.059          51.600    93680369.190 9  23565013.027          54.500
 142474250.714 5                  27111949.922
        35.800                                   106393129.224 6  27111954.402
        38.300                                                   109168597.713 6
  27111953.957          37.800   107780862.579 6  27111954.168          41.800
 124747819.049 8                  23738715.305
        50.700                                    93155880.420 8  23738721.371
        51.300                                                    95586022.225 8
  23738720.051          50.400    94370952.429 8  23738720.559          53.700
 21  4 28 19 19  0.0000000  0 24G15G19G01G17G02G12G30G13G28R19R18G06
                                G14R09R20G24R07R16E30E13E21E27E19E15
 124934592.708 7  97351567.441 6  23774243.016    23774249.926
        42.200          37.100    23774250.402


 105415494.929 8  82141915.74447  20059881.594    20059886.664
        51.100          46.200


 129212545.733 6 100685201.322 6  24588350.672    24588361.457
        36.400          37.000    24588361.273    96489995.868 6  24588360.023
        41.600

 111636802.634 8  86989745.065 7  21243776.469    21243784.332
        49.300          46.000    21243783.746


 126139961.547 6  98290942.68443  24003631.344    24003641.523
        38.900          21.100


 127526076.564 5  99370872.932 5  24267380.789    24267390.000
        35.000          34.600    24267390.855


 126501104.755 6  98572211.605 6  24072346.906    24072356.621
        39.200          36.500    24072356.695    94465049.300 7  24072358.863
        45.100

 122055882.891 6  95108514.39343  23226468.703    23226477.137
        41.000          23.000


 115659054.312 7  90123953.54445  22009185.391    22009192.465
        46.700          33.000


 103244803.020 6  80301668.574 7  19300560.648    19300563.379    19300558.410
        39.000          42.100    19300564.219


 112386951.376 7  87412216.065 7  21053903.867    21053907.137    21053902.473
        47.300          42.900    21053906.758


 116897848.505 7  91089240.860 7  22244906.406    22244916.602
        44.500          42.900    22244916.004    87293879.357 8  22244917.496
        50.500

 117909092.443 7  91877229.558 7  22437358.836    22437366.512
        44.300          44.300    22437366.477    88049038.686 8  22437369.863
        48.700

 106478350.495 8  82816506.316 7  19939975.352    19939977.656    19939974.355
        49.800          43.900    19939977.469


 118462149.599 5  92137332.398 6  22153039.078    22153046.316    22153039.016
        34.700          38.300    22153046.563


 114141554.566 7  88941410.454 7  21720389.539    21720400.047
        45.300          45.900    21720399.652    85235519.905 8  21720400.039
        52.100

 129799860.965 5 100955447.90515  24247720.797    24247727.441    24247717.547
        33.400          32.000    24247726.852


 107913517.600 7  83932761.266 6  20201639.438    20201642.445    20201639.434
        45.200          40.300    20201642.863


 130029645.526 7                  24743822.906
        47.400                                    97100072.952 7  24743828.875
        47.000                                                    99633119.476 7
  24743828.301          46.800    98366586.816 8  24743828.332          50.100
 135010717.209 7                  25691674.438
        43.400                                   100819733.535 7  25691681.766
        46.100                                                   103449802.471 7
  25691680.180          44.800   102134768.610 8  25691680.715          48.200
 137665143.863 7                  26196803.570
        44.700                                   102801922.868 7  26196809.285
        46.400                                                   105483711.151 7
  26196808.020          45.500   104142815.118 8  26196808.637          48.900
 123824383.503 8                  23562995.789
        51.200                                    92466288.275 8  23563000.738
        51.600                                                    94878449.434 8
  23562999.914          51.500    93672366.959 9  23563000.094          54.400
 142497685.901 6                  27116409.352
        36.100                                   106410629.504 6  27116413.762
        38.700                                                   109186554.504 6
  27116413.133          37.700   107798591.104 6  27116413.730          41.700
 124724124.405 8                  23734206.172
        49.800                                    93138186.368 8  23734212.375
        51.300                                                    95567866.592 8
  23734211.418          50.500    94353027.586 8  23734211.598          53.600
 21  4 28 19 19 30.0000000  0 24G15G19G01G17G02G12G30G13G28R19R18G06
                                G14R09R20G24R07R16E30E13E21E27E19E15
 125001716.050 6  97403871.234 6  23787014.555    23787023.637
        40.900          36.500    23787023.410


 105421803.871 8  82146831.79947  20061081.906    20061086.922
        50.900          46.200


 129302216.66815 100755074.707 6  24605412.195    24605424.773
        33.400          37.100    24605425.445    96556957.907 6  24605423.773
        40.700

 111696210.302 8  87036036.752 7  21255081.578    21255089.270
        49.300          47.200    21255089.129


 126036672.270 6  98210457.66543  23983978.156    23983986.961
        39.600          22.600


 127442408.841 6  99305677.320 5  24251460.320    24251468.828
        37.400          35.400    24251468.832


 126608358.507 6  98655785.782 6  24092755.445    24092768.570
        37.300          38.300    24092768.824    94545141.244 7  24092768.941
        45.500

 122149117.442 6  95181164.63643  23244211.305    23244219.145
        41.400          22.900


 115702813.043 7  90158051.23745  22017513.484    22017519.617
        47.900          33.000


 103230493.173 6  80290538.715 6  19297885.188    19297888.402    19297883.531
        39.200          41.100    19297887.793


 112482513.234 7  87486541.921 7  21071805.430    21071809.328    21071804.414
        47.500          44.000    21071809.020


 116810731.983 7  91021357.894 7  22228328.313    22228338.789
        44.500          44.000    22228339.160    87228824.862 8  22228339.414
        50.500

 117972135.874 7  91926354.297 7  22449354.805    22449363.148
        44.300          44.000    22449362.957    88096116.536 8  22449366.867
        49.300

 106422123.515 8  82772774.214 7  19929446.078    19929448.133    19929445.094
        49.500          43.200    19929447.621


 118335522.009 5  92038844.348 6  22129358.813    22129366.656    22129358.508
        34.600          39.500    22129365.945


 114076883.106 7  88891017.131 7  21708083.305    21708093.621
        44.900          46.600    21708093.262    85187226.293 8  21708093.719
        52.300

 129891578.748 5 101026783.83814  24264858.234    24264861.430    24264853.906
        34.500          28.300    24264860.574


 107955895.471 7  83965721.795 6  20209572.977    20209575.605    20209572.828
        44.800          40.200    20209575.613


 130077588.885 7                  24752946.633
        47.200                                    97135874.772 7  24752951.625
        47.000                                                    99669855.249 7
  24752951.691          47.100    98402855.618 8  24752951.719          50.100
 134921843.911 7                  25674762.617
        43.600                                   100753367.154 7  25674770.191
        46.400                                                   103381704.776 7
  25674768.145          45.100   102067536.574 8  25674768.582          48.600
 137606562.911 7                  26185656.336
        45.300                                   102758177.359 7  26185661.605
        45.700                                                   105438824.482 7
  26185660.801          45.600   104098499.022 8  26185661.055          48.500
 123813939.296 8                  23561008.305
        51.600                                    92458489.033 8  23561013.070
        51.700                                                    94870446.735 8
  23561012.547          51.500    93664465.993 9  23561012.625          54.500
 142521487.765 5                  27120939.203
        35.500                                   106428403.602 6  27120943.242
        38.500                                                   109204792.323 6
  27120942.816          37.800   107816597.066 6  27120943.074          41.700
 124700863.808 8                  23729779.711
        50.200                                    93120816.451 8  23729785.926
        51.200                                                    95550043.536 8
  23729785.000          50.600    94335431.098 8  23729785.191          53.700
 21  4 28 19 20  0.0000000  0 24G15G19G01G17G02G12G30G13G28R19R18G06
                                G14R09R20G24R07R16E30E13E21E27E19E15
 125069107.600 6  97456384.088 6  23799839.750    23799847.832
        41.800          37.700    23799848.113


 105428622.131 8  82152144.72947  20062379.625    20062384.340
        51.000          46.700


 129392258.21215 100825236.871 5  24622547.664    24622559.277
        32.400          35.700    24622558.422    96624196.660 6  24622557.809
        39.000

 111755891.358 8  87082541.450 7  21266438.391    21266446.324
        48.900          46.400    21266445.691


 125933466.842 6  98130037.97543  23964339.258    23964346.879
        40.300          20.100


 127358772.878 6  99240506.478 5  24235544.359    24235553.262
        36.700          35.400    24235553.773


 126715770.819 6  98739483.592 6  24113195.063    24113206.965
        37.600          37.400    24113208.340    94625351.579 7  24113208.586
        45.500

 122242519.309 6  95253945.23843  23261984.102    23261993.324
        40.900          22.200


 115746682.317 7  90192235.05845  22025861.375    22025868.160
        47.200          34.600


 103217002.363 6  80280045.857 6  19295363.313    19295366.328    19295361.344
        39.600          41.600    19295366.168


 112578563.724 7  87561247.823 7  21089799.125    21089802.391    21089798.047
        46.700          43.300    21089801.320


 116723943.024 7  90953730.153 7  22211812.203    22211823.457
        43.900          44.100    22211823.426    87164014.950 8  22211824.313
        50.400

 118035326.096 7  91975593.382 7  22461378.750    22461387.906
        43.000          44.500    22461387.930    88143303.998 8  22461391.559
        48.900

 106366218.264 8  82729292.375 7  19918975.898    19918979.035    19918975.770
        49.300          43.500    19918978.922


 118209199.661 5  91940593.683 6  22105738.703    22105743.789    22105736.523
        34.900          40.400    22105744.961


 114012628.508 7  88840948.633 7  21695855.977    21695866.340
        45.100          46.400    21695865.477    85139243.983 8  21695866.660
        52.600

 129983472.045 5 101098354.34713  24282023.625    24282028.691    24282020.516
        31.600          22.500


 107998717.637 7  83999027.888 6  20217588.781    20217592.418    20217588.770
        44.600          41.200    20217591.832


 130125655.182 7                  24762093.281
        47.000                                    97171768.398 7  24762098.746
        46.300                                                    99706685.240 7
  24762098.566          47.300    98439217.426 8  24762098.516          49.900
 134833133.069 7                  25657881.313
        44.400                                   100687122.092 7  25657888.426
        46.200                                                   103313731.586 7
  25657887.270          44.600   102000427.442 8  25657887.391          48.200
 137547988.175 7                  26174509.586
        44.900                                   102714436.501 7  26174515.246
        46.900                                                   105393942.562 7
  26174514.125          45.600   104054187.637 8  26174514.695          48.700
 123803629.225 8                  23559046.359
        51.200                                    92450789.957 8  23559051.262
        51.700                                                    94862546.811 8
  23559050.605          51.600    93656666.488 9  23559050.668          54.400
 142545654.949 5                  27125537.039
        35.400                                   106446450.482 6  27125542.270
        39.000                                                   109223310.023 6
  27125541.313          38.100   107834879.356 7  27125541.973          42.000
 124678037.354 8                  23725435.875
        49.800                                    93103770.719 8  23725442.051
        51.100                                                    95532553.133 8
  23725441.414          50.500    94318163.028 8  23725441.426          53.700
 21  4 28 19 20 30.0000000  0 23G15G19G01G17G02G12G30G13G28R19R18G06
                                G14R09R20G24R16E30E13E21E27E19E15
 125136764.703 6  97509103.849 6  23812714.172    23812723.137
        41.100          36.200    23812723.230


 105435949.171 8  82157854.11047  20063774.086    20063778.762
        50.800          45.800


 129482668.10915 100895686.077 5  24639752.547    24639763.188
        32.800          34.800    24639763.086    96691710.484 6  24639761.379
        38.800

 111815844.048 8  87129257.816 7  21277847.148    21277855.031
        48.200          47.000    21277854.461


 125830347.690 6  98049685.51243  23944716.289    23944723.281
        41.000          22.800


 127275169.308 6  99175360.888 5  24219635.266    24219644.391
        36.900          35.800    24219644.172


 126823340.230 5  98823303.832 6  24133663.734    24133678.574
        34.800          37.100    24133678.684    94705679.305 7  24133678.641
        46.000

 122336086.040 6  95326854.27643  23279789.320    23279798.000
        40.300          22.300


 115790662.784 7  90226505.53345  22034229.555    22034237.160
        46.300          33.500


 103204330.718 6  80270190.139 6  19292993.492    19292997.551    19292992.391
        39.200          41.100    19292997.414


 112675099.258 7  87636330.989 7  21107883.461    21107886.918    21107882.242
        46.800          43.500    21107886.680


 116637485.212 7  90886360.458 7  22195359.711    22195371.137
        44.500          44.300    22195371.160    87099452.324 8  22195371.500
        50.500

 118098663.528 7  92024947.193 7  22473432.070    22473440.570
        42.900          43.400    22473439.758    88190601.414 8  22473444.320
        49.300

 106310638.173 8  82686063.430 7  19908567.922    19908570.613    19908567.375
        49.100          43.700    19908570.070


 118083186.617 5  91842583.647 6  22082173.344    22082178.090    22082171.953
        35.400          39.000    22082178.914


 113948793.526 7  88791207.085 7  21683708.109    21683718.766
        44.300          46.700    21683718.387    85091575.025 8  21683719.258
        52.700

 108041985.228 7  84032680.415 6  20225688.781    20225692.090    20225689.043
        45.200          40.400    20225691.113


 130173845.292 7                  24771263.391
        45.600                                    97207754.453 7  24771269.227
        46.300                                                    99743610.071 7
  24771268.594          47.100    98475672.865 8  24771268.785          49.700
 134744587.091 7                  25641031.273
        44.200                                   100621000.137 7  25641038.504
        46.300                                                   103245884.710 7
  25641037.207          44.300   101933443.032 8  25641037.680          48.300
 137489420.575 7                  26163364.438
        44.800                                   102670701.002 7  26163370.402
        46.800                                                   105349066.129 7
  26163369.473          46.400   104009881.673 8  26163369.664          49.400
 123793454.550 8                  23557110.156
        51.000                                    92443191.974 8  23557115.121
        51.800                                                    94854750.628 8
  23557114.270          51.600    93648969.408 9  23557114.488          54.500
 142570186.888 5                  27130205.734
        35.200                                   106464769.804 6  27130211.059
        38.900                                                   109242107.175 6
  27130209.727          37.500   107853437.602 6  27130210.227          41.600
 124655646.081 8                  23721174.828
        49.600                                    93087049.967 8  23721181.082
        51.200                                                    95515396.183 8
  23721180.488          50.700    94301224.185 8  23721180.523          53.700
 21  4 28 19 21  0.0000000  0 23G15G19G01G17G02G12G30G13G28R19R18G06
                                G14R09R20G24R16E30E13E21E27E19E15
 125204683.521 6  97562027.539 5  23825637.477    23825647.184
        39.900          35.100    23825645.973


 105443782.810 8  82163958.24847  20065264.625    20065269.418
        51.200          45.700


 129573442.599 5 100966419.405 5  24657027.250    24657037.672
        34.200          35.100    24657037.902    96759496.598 6  24657035.168
        38.100

 111876065.067 7  87176183.270 7  21289306.664    21289314.707
        47.900          47.600    21289314.281


 125727317.512 6  97969402.37143  23925109.359    23925116.574
        39.900          19.900


 127191597.539 6  99110240.081 5  24203732.484    24203741.527
        37.100          35.700    24203741.313


 126931064.013 6  98907244.282 6  24154165.727    24154177.254
        37.100          36.900    24154177.906    94786122.168 7  24154177.410
        45.700

 122429813.278 6  95399888.41243  23297623.961    23297632.922
        40.500          21.300


 115834753.745 7  90260862.10145  22042620.266    22042627.492
        46.700          33.500


 103192476.962 6  80260970.563 6  19290779.203    19290781.246    19290777.188
        39.400          40.500    19290781.063


 112772114.282 7  87711787.091 7  21126058.367    21126061.402    21126056.633
        46.600          43.400    21126060.898


 116551360.664 7  90819250.439 7  22178970.523    22178982.184
        43.600          44.300    22178982.160    87035138.560 8  22178982.777
        50.600

 118162147.201 7  92074414.949 7  22485511.727    22485521.152
        43.100          43.400    22485520.469    88238007.985 8  22485525.129
        49.700

 106255384.717 8  82643088.516 7  19898221.125    19898223.227    19898220.473
        48.700          43.100    19898222.844


 117957485.457 5  91744816.183 6  22058664.469    22058671.539    22058664.738
        35.900          40.000    22058673.082


 113885379.453 7  88741793.535 7  21671641.070    21671651.648
        45.000          46.100    21671651.020    85044220.357 8  21671652.000
        52.500

 108085697.524 7  84066678.868 6  20233873.164    20233875.191    20233872.254
        44.900          40.600    20233875.832


 130222158.570 7                  24780457.586
        46.700                                    97243832.481 7  24780463.191
        46.400                                                    99780629.263 7
  24780462.379          47.100    98512221.479 8  24780462.430          49.600
 134656206.846 7                  25624212.977
        43.400                                   100555001.963 7  25624220.785
        46.300                                                   103178164.840 7
  25624219.633          45.500   101866584.010 8  25624219.480          48.800
 137430859.614 7                  26152220.492
        44.400                                   102626970.446 7  26152226.637
        47.200                                                   105304194.775 7
  26152225.477          45.800   103965580.715 8  26152225.875          49.000
 123783414.990 8                  23555199.813
        51.000                                    92435694.893 8  23555204.629
        51.600                                                    94847057.962 8
  23555203.922          51.500    93641374.539 9  23555204.004          54.300
 142595081.553 5                  27134943.813
        34.800                                   106483359.948 6  27134947.418
        38.800                                                   109261182.292 6
  27134947.164          37.000   107872270.231 6  27134947.406          41.100
 124633689.499 8                  23716996.555
        49.700                                    93070653.809 8  23717002.789
        51.100                                                    95498572.307 8
  23717002.223          50.800    94284614.164 8  23717002.359          53.700
 21  4 28 19 21 30.0000000  0 23G15G19G01G17G02G12G30G13G28R19R18G06
                                G14R09R20G24R16E30E13E21E27E19E15
 125272860.782 6  97615152.625 5  23838612.594    23838620.004
        39.600          35.300    23838620.129


 105452121.466 8  82170455.90647  20066851.414    20066856.324
        50.000          45.300


 129664578.235 5 101037434.221 5  24674370.727    24674381.219
        34.100          35.400    24674381.461    96827552.455 6  24674377.438
        39.000

 111936552.079 7  87223316.012 7  21300817.203    21300824.914
        47.800          46.300    21300823.969


 125624378.445 6  97889190.21643  23905518.773    23905527.723
        38.900          21.700


 127108057.253 6  99045143.822 5  24187835.547    24187844.371
        38.000          35.900    24187843.039


 127038939.495 6  98991302.967 6  24174694.984    24174705.715
        38.200          36.700    24174705.211    94866678.446 7  24174705.758
        45.600

 122523697.422 6  95473044.82643  23315490.305    23315498.391
        40.100          21.800


 115878954.737 7  90295304.40145  22051031.961    22051038.445
        46.000          32.600


 103181440.647 6  80252386.784 6  19288716.297    19288718.328    19288713.965
        39.500          40.800    19288718.707


 112869604.737 7  87787612.959 7  21144320.258    21144324.629    21144320.297
        46.400          43.500    21144324.336


 116465571.874 7  90752402.060 7  22162645.258    22162657.582
        43.700          45.000    22162657.984    86971075.542 8  22162657.875
        50.500

 118225776.564 7  92123996.254 7  22497621.320    22497629.324
        43.400          43.100    22497629.059    88285523.396 8  22497633.117
        49.400

 106200460.275 8  82600369.503 7  19887935.156    19887937.672    19887934.535
        48.400          43.600    19887937.531


 117832099.620 5  91647293.904 6  22035216.398    22035223.363    22035216.477
        35.000          39.400    22035224.699


 113822388.003 7  88692709.309 7  21659653.859    21659664.539
        44.100          46.600    21659664.090    84997181.308 8  21659664.785
        52.300

 108129854.262 7  84101022.967 6  20242138.758    20242141.410    20242138.070
        45.300          41.100    20242140.605


 130270594.855 7                  24789675.195
        46.600                                    97280002.412 7  24789680.531
        46.500                                                    99817742.762 7
  24789679.574          46.400    98548863.194 8  24789679.543          49.200
 134567993.674 7                  25607427.422
        43.900                                   100489128.542 7  25607434.500
        46.100                                                   103110572.959 7
  25607432.367          45.300   101799851.357 8  25607432.957          48.400
 137372305.122 7                  26141078.469
        44.600                                   102583244.736 7  26141084.125
        47.200                                                   105259328.374 7
  26141082.691          45.500   103921284.660 8  26141083.313          49.800
 123773510.736 8                  23553314.734
        48.900                                    92428298.864 8  23553319.801
        51.700                                                    94839468.992 8
  23553319.023          51.400    93633882.036 9  23553319.305          54.400
 142620337.430 5                  27139749.617
        34.400                                   106502219.823 6  27139753.539
        37.500                                                   109280534.164 6
  27139753.160          36.500   107891376.093 6  27139753.426          40.400
 124612167.529 8                  23712901.227
        48.000                                    93054582.213 8  23712907.371
        51.200                                                    95482081.456 8
  23712906.246          50.600    94268332.941 8  23712906.871          53.800
 21  4 28 19 22  0.0000000  0 23G15G19G01G17G02G12G30G13G28R19R18G06
                                G14R09R20G24R16E30E13E21E27E19E15
 125341294.637 6  97668477.568 6  23851634.313    23851643.184
        38.200          36.100    23851643.086


 105460965.471 8  82177347.33447  20068534.336    20068539.313
        49.500          45.200


 129756073.83515 101108729.461 5  24691778.594    24691792.098
        31.800          35.100    24691790.563    96895877.032 6  24691789.117
        40.300

 111997304.355 7  87270655.443 7  21312378.023    21312385.555
        47.600          46.500    21312384.785


 125521534.811 6  97809052.40943  23885948.766    23885958.594
        39.000          20.400


 127024550.451 6  98980073.590 6  24171945.078    24171953.328
        37.500          36.500    24171952.188


 127146966.268 6  99075479.548 5  24195251.688    24195260.875
        38.400          35.800    24195262.078    94947347.596 7  24195262.609
        45.800

 122617736.933 6  95546322.27343  23333388.781    23333393.699
        41.200          21.100


 115923267.289 7  90329833.64545  22059463.266    22059471.293
        45.300          32.700


 103171222.821 6  80244439.593 7  19286805.992    19286808.539    19286803.559
        39.500          42.100    19286808.965


 112967567.600 7  87863806.252 7  21162672.672    21162676.211    21162671.734
        46.400          42.600    21162675.203


 116380123.393 7  90685818.847 7  22146385.992    22146397.344
        44.100          45.000    22146397.031    86907266.619 8  22146397.531
        50.500

 118289553.056 7  92173692.204 7  22509756.898    22509765.203
        42.800          42.600    22509764.664    88333148.662 8  22509769.551
        49.500

 106145868.951 7  82557909.604 7  19877712.297    19877714.344    19877711.289
        46.900          44.300    19877714.086


 117707033.946 5  91550020.669 6  22011828.797    22011835.137    22011828.469
        35.100          39.200    22011835.688


 113759822.829 7  88643957.217 7  21647747.992    21647758.719
        44.300          46.200    21647758.422    84950460.552 8  21647759.000
        52.200

 108174457.492 7  84135714.348 6  20250487.953    20250491.590    20250487.805
        44.300          40.900    20250491.441


 130319155.895 7                  24798915.492
        45.300                                    97316265.496 7  24798921.273
        47.000                                                    99854951.833 7
  24798920.109          47.100    98585599.271 8  24798920.445          50.300
 134479950.810 7                  25590673.875
        44.800                                   100423382.314 7  25590679.574
        46.800                                                   103043111.610 7
  25590677.844          45.100   101733247.568 8  25590678.859          49.000
 137313758.964 7                  26129936.977
        44.800                                   102539525.190 7  26129942.910
        46.500                                                   105214468.341 7
  26129941.867          45.300   103876994.877 8  26129942.316          49.100
 123763743.931 8                  23551456.555
        50.400                                    92421005.464 8  23551461.168
        51.500                                                    94831985.334 8
  23551460.633          51.700    93626493.500 9  23551460.734          54.400
 142645954.861 5                  27144623.945
        33.900                                   106521349.665 6  27144628.219
        36.700                                                   109300163.048 6
  27144628.027          36.000   107910755.457 6  27144628.227          40.200
 124591082.061 8                  23708888.758
        48.900                                    93038836.571 8  23708894.895
        51.300                                                    95465925.053 8
  23708894.035          50.600    94252381.924 8  23708894.426          53.800
 21  4 28 19 22 30.0000000  0 23G15G19G01G17G02G12G30G13G28R19R18G06
                                G14R09R20G24R16E30E13E21E27E19E15
 125409981.731 6  97721999.974 6  23864705.117    23864714.551
        38.100          37.200    23864715.125


 105470312.969 8  82184631.08947  20070313.188    20070317.969
        49.900          45.100


 129847925.98315 101180302.518 6  24709259.930    24709270.578
        31.900          36.200    24709271.313    96964467.831 6  24709269.129
        40.600

 112058319.307 7  87318199.529 7  21323988.805    21323996.313
        47.500          46.200    21323995.465


 125418788.160 6  97728990.20843  23866397.961    23866406.574
        40.400          22.500


 126941076.580 6  98915029.052 6  24156059.438    24156068.559
        37.100          36.700    24156068.469


 127255141.931 6  99159772.027 6  24215836.438    24215847.219
        37.000          36.600    24215847.809    95028127.956 7  24215847.410
        44.200

 122711928.212 6  95619717.98443  23351309.891    23351317.594
        40.600          21.500


 115967691.484 7  90364449.89845  22067918.305    22067924.414
        45.400          32.300


 103161823.115 6  80237128.719 6  19285047.797    19285051.191    19285046.488
        39.200          41.300    19285051.594


 113065998.296 7  87940363.441 7  21181112.156    21181115.727    21181110.832
        45.500          43.500    21181115.352


 116295017.729 7  90619502.773 7  22130190.633    22130202.109
        44.500          45.500    22130202.137    86843713.730 8  22130202.305
        50.300

 118353476.160 7  92223502.358 7  22521921.445    22521930.000
        42.800          43.600    22521929.301    88380883.383 8  22521933.789
        49.500

 106091612.555 7  82515710.184 7  19867551.195    19867553.746    19867551.102
        47.200          44.200    19867553.992


 117582291.681 5  91452999.012 6  21988500.883    21988508.324    21988500.148
        35.500          40.100    21988509.398


 113697685.641 7  88595538.654 7  21635924.117    21635934.184
        44.500          46.700    21635933.590    84904059.420 8  21635934.543
        52.100

 108219507.240 7  84170752.998 6  20258922.070    20258924.922    20258921.406
        44.500          41.300    20258924.258


 130367841.570 7                  24808179.719
        44.300                                    97352621.636 7  24808185.320
        46.000                                                    99892256.419 7
  24808184.938          46.500    98622429.631 8  24808185.051          48.900
 134392079.623 7                  25573952.422
        44.300                                   100357764.269 7  25573957.418
        46.300                                                   102975781.806 7
  25573956.965          45.300   101666773.637 8  25573957.664          48.600
 137255221.019 7                  26118797.234
        44.500                                   102495811.808 7  26118803.461
        46.800                                                   105169614.616 7
  26118802.254          45.600   103832711.314 8  26118802.891          49.000
 123754114.784 8                  23549624.320
        51.300                                    92413814.869 8  23549628.953
        51.600                                                    94824607.149 8
  23549628.301          51.500    93619209.113 9  23549628.383          54.400
 142671932.220 5                  27149567.797
        33.500                                   106540748.283 6  27149571.781
        36.200                                                   109320067.741 5
  27149571.219          35.800   107930407.116 6  27149571.590          39.100
 124570433.013 8                  23704959.398
        49.500                                    93023416.834 8  23704965.605
        51.300                                                    95450103.062 8
  23704964.996          50.800    94236761.048 8  23704965.043          53.900
 21  4 28 19 23  0.0000000  0 23G15G19G01G17G02G12G30G13G28R19R18G06
                                G14R09R20G24R16E30E13E21E27E19E15
 125478919.639 6  97775717.763 6  23877823.656    23877833.324
        38.600          37.200    23877833.867


 105480163.405 8  82192306.74047  20072187.375    20072192.402
        50.700          45.000


 129940132.06515 101252151.357 5  24726804.063    24726817.504
        31.600          35.500    24726816.508    97033323.002 6  24726814.316
        39.700

 112119595.528 8  87365947.222 7  21335649.016    21335656.863
        48.100          46.500    21335656.309


 125316141.990 6  97649006.26043  23846865.656    23846873.684
        40.800          22.600


 126857636.702 6  98850011.070 6  24140182.563    24140190.445
        38.800          36.300    24140190.188


 127363464.693 6  99244179.259 6  24236450.063    24236460.246
        37.600          37.200    24236461.551    95109018.138 7  24236460.563
        44.100

 122806268.149 6  95693229.55943  23369262.992    23369270.203
        40.400          20.900


 116012227.885 7  90399153.55245  22076393.055    22076399.551
        45.800          31.700


 103153240.955 6  80230453.717 6  19283444.180    19283446.844    19283442.102
        39.000          41.300    19283446.301


 113164893.038 7  88017281.530 7  21199638.289    21199642.211    21199637.305
        46.600          43.000    21199641.531


 116210258.255 7  90553456.461 7  22114062.758    22114072.645
        45.400          44.700    22114072.344    86780419.353 8  22114073.328
        50.300

 118417546.093 7  92273426.939 7  22534113.125    22534122.090
        43.900          43.500    22534121.664    88428727.775 8  22534125.766
        49.500

 106037694.194 8  82473773.664 7  19857454.695    19857456.637    19857453.793
        48.200          43.400    19857457.211


 117457876.859 5  91356232.061 6  21965234.625    21965242.316    21965234.418
        35.900          40.500    21965243.582


 113635978.990 7  88547455.536 7  21624182.234    21624191.863
        45.000          46.200    21624191.410    84857979.771 8  21624192.000
        52.100

 108265004.109 7  84206139.432 6  20267438.789    20267441.652    20267438.512
        44.800          40.600    20267441.656


 130416652.509 7                  24817468.031
        45.100                                    97389071.340 7  24817473.836
        46.100                                                    99929656.960 7
  24817473.383          46.600    98659354.760 8  24817473.422          49.100
 134304382.283 7                  25557264.305
        44.600                                   100292276.059 7  25557269.918
        46.500                                                   102908585.203 7
  25557268.598          45.200   101600431.238 8  25557269.410          48.600
 137196692.029 7                  26107660.258
        45.500                                   102452105.115 7  26107665.938
        46.400                                                   105124767.741 7
  26107664.648          45.500   103788434.537 8  26107665.148          48.800
 123744624.342 8                  23547818.117
        52.600                                    92406727.833 8  23547823.090
        51.900                                                    94817335.238 8
  23547822.316          51.500    93612029.640 9  23547822.418          54.400
 142698268.69115                  27154579.430
        33.300                                   106560415.099 5  27154583.984
        35.300                                                   109340247.590 5
  27154582.434          34.800   107950330.445 6  27154583.281          38.200
 124550221.105 8                  23701112.969
        49.300                                    93008323.528 8  23701119.543
        51.300                                                    95434616.019 8
  23701118.801          50.800    94221470.880 8  23701118.816          53.900
 21  4 28 19 23 30.0000000  0 23G15G19G01G17G02G12G30G13G28R19R18G06
                                G14R09R20G24R16E30E13E21E27E19E15
 125548105.506 6  97829628.754 6  23890989.859    23890999.879
        38.800          36.900    23890999.145


 105490515.487 8  82200373.29747  20074157.383    20074162.375
        50.000          44.000


 130032689.350 5 101324273.935 5  24744417.648    24744430.816
        32.200          35.100    24744429.016    97102440.474 6  24744428.082
        38.700

 112181130.549 7  87413896.587 7  21347359.313    21347366.625
        47.800          45.800    21347366.277


 125213599.383 6  97569103.07743  23827352.375    23827359.840
        40.200          22.300


 126774230.802 6  98785019.512 6  24124311.539    24124318.066
        38.900          36.100    24124316.887


 127471932.732 6  99328699.646 5  24257091.305    24257102.035
        38.500          35.900    24257101.773    95190016.852 7  24257100.605
        42.400

 122900753.887 6  95766854.72843  23387241.250    23387250.082
        40.200          21.100


 116056876.698 7  90433944.81245  22084888.945    22084896.066
        45.300          32.300


 103145476.218 6  80224414.488 6  19281992.516    19281995.359    19281990.672
        38.900          40.900    19281995.145


 113264247.683 7  88094557.324 7  21218251.063    21218254.855    21218250.453
        46.400          42.600    21218254.195


 116125848.054 7  90487682.299 7  22097999.547    22098009.691
        46.000          44.500    22098009.719    86717385.782 8  22098010.254
        50.200

 118481762.926 7  92323466.003 7  22546333.594    22546341.883
        43.000          43.000    22546341.918    88476681.843 8  22546345.840
        49.000

 105984116.781 7  82432102.329 7  19847420.961    19847423.645    19847420.488
        47.500          43.100    19847423.551


 117333793.239 6  91259722.607 6  21942029.813    21942037.496    21942030.289
        36.200          39.700    21942037.828


 113574705.082 7  88499709.649 7  21612522.867    21612531.926
        45.700          45.600    21612531.477    84812223.293 8  21612531.922
        52.000

 108310948.460 7  84241873.893 6  20276040.336    20276042.664    20276039.406
        44.300          40.900    20276042.902


 130465589.099 7                  24826780.555
        45.300                                    97425614.847 7  24826786.793
        46.100                                                    99967153.784 7
  24826785.594          45.700    98696374.918 8  24826785.785          48.600
 134216860.670 7                  25540609.211
        44.400                                   100226919.042 7  25540614.762
        45.500                                                   102841523.230 7
  25540614.105          45.200   101534221.745 8  25540614.535          48.000
 137138172.539 7                  26096524.063
        44.600                                   102408405.521 7  26096529.676
        45.600                                                   105079928.130 7
  26096529.004          45.300   103744164.925 8  26096529.250          48.100
 123735273.330 8                  23546038.500
        50.800                                    92399744.932 8  23546043.660
        51.500                                                    94810170.190 8
  23546042.996          51.500    93604955.667 9  23546043.008          54.300
 142724963.19615                  27159659.367
        32.200                                   106580349.320 5  27159663.004
        34.900                                                   109360701.789 5
  27159662.766          35.600   107970524.644 6  27159663.074          38.700
 124530446.797 8                  23697350.523
        48.900                                    92993557.009 8  23697356.574
        51.000                                                    95419464.278 8
  23697355.578          50.700    94206511.747 8  23697355.914          53.700
 21  4 28 19 24  0.0000000  0 23G15G19G01G17G02G12G30G13G28R19R18G06
                                G14R09R20G24R16E30E13E21E27E19E15
 125617535.452 6  97883729.982 6  23904202.234    23904211.141
        38.600          36.800    23904210.297


 105501367.371 8  82208829.30847  20076222.477    20076227.500
        50.900          44.600


 130125594.20415 101396667.280 5  24762095.867    24762109.715
        31.600          35.300    24762108.434    97171817.422 6  24762107.281
        40.400

 112242921.595 7  87462045.427 7  21359117.414    21359124.852
        47.800          45.600    21359124.711


 125111162.001 6  97489281.81743  23807858.695    23807864.852
        40.800          22.200


 126690858.533 6  98720054.151 6  24108445.570    24108453.195
        38.400          37.100    24108453.688


 127580543.107 6  99413331.000 6  24277757.063    24277769.113
        36.600          36.800    24277768.582    95271121.793 7  24277770.113
        43.300

 122995381.419 6  95840590.37943  23405248.938    23405257.598
        40.300          20.600


 116101637.276 7  90468823.16045  22093405.992    22093413.637
        45.600          32.100


 103138527.425 6  80219009.866 6  19280692.750    19280696.387    19280690.828
        38.500          41.700    19280696.242


 113364057.242 7  88172186.960 6  21236948.969    21236952.191    21236947.879
        46.100          41.600    21236951.750


 116041789.167 7  90422181.904 7  22082002.578    22082014.051
        45.300          45.200    22082013.887    86654614.580 8  22082014.441
        50.300

 118546125.679 7  92373618.753 7  22558581.313    22558590.500
        44.100          43.900    22558589.852    88524744.911 8  22558593.125
        48.300

 105930881.818 7  82390697.373 7  19837451.820    19837454.438    19837451.129
        47.000          44.500    19837453.746


 117210043.370 5  91163472.798 6  21918887.961    21918896.023    21918887.707
        35.900          39.000    21918895.500


 113513865.246 7  88452301.991 7  21600944.906    21600954.512
        45.500          46.400    21600954.008    84766790.942 8  21600954.664
        52.300

 108357339.710 7  84277955.942 6  20284725.266    20284727.164    20284724.000
        44.800          41.100    20284728.242


 130514650.706 7                  24836117.070
        45.400                                    97462251.695 7  24836122.750
        46.400                                                   100004746.402 7
  24836121.684          45.200    98733489.658 8  24836122.051          48.600
 134129515.639 7                  25523987.586
        45.000                                   100161693.937 7  25523994.055
        46.100                                                   102774596.601 7
  25523993.766          45.100   101468145.871 8  25523993.332          48.300
 137079661.958 7                  26085390.031
        45.100                                   102364712.551 7  26085395.480
        45.800                                                   105035095.372 7
  26085394.934          45.600   103699902.063 8  26085395.133          48.400
 123726061.577 8                  23544285.383
        51.300                                    92392866.027 8  23544290.645
        51.700                                                    94803111.826 8
  23544290.059          51.500    93597987.027 9  23544290.070          54.400
 142752013.77415                  27164805.492
        30.100                                   106600549.380 5  27164810.316
        33.700                                                   109381428.816 6
  27164810.594          36.200   107990988.205 6  27164810.641          38.200
 124511109.536 8                  23693670.625
        49.800                                    92979116.831 8  23693676.879
        51.200                                                    95404647.410 8
  23693675.887          50.800    94191883.229 8  23693676.188          53.800
 21  4 28 19 24 30.0000000  0 23G15G19G01G17G02G12G30G13G28R19R18G06
                                G14R09R20G24R16E30E13E21E27E19E15
 125687206.331 6  97938018.898 6  23917460.148    23917469.645
        38.800          36.600    23917468.992


 105512717.470 8  82217673.53447  20078382.102    20078387.469
        49.800          44.000


 130218843.66715 101469329.152 5  24779840.203    24779854.238
        30.800          34.900    24779852.891    97241451.718 6  24779852.340
        40.500

 112304966.460 7  87510392.075 7  21370924.789    21370931.684
        47.600          45.800    21370931.438


 125008832.721 6  97409544.80743  23788387.219    23788393.313
        41.000          20.900


 126607520.525 6  98655115.500 5  24092586.547    24092594.621
        37.600          35.200    24092594.590


 127689293.914 6  99498071.736 5  24298451.195    24298465.012
        38.300          35.800    24298465.117    95352331.651 7  24298465.000
        42.500

 123090147.706 6  95914434.15043  23423283.664    23423290.957
        40.900          21.800


 116146510.052 7  90503788.94345  22101946.141    22101953.289
        45.300          33.000


 103132394.339 6  80214239.672 6  19279546.258    19279550.164    19279545.082
        39.200          40.900    19279550.039


 113464317.341 7  88250167.023 7  21255730.586    21255734.238    21255730.035
        46.300          42.300    21255734.422


 115958084.690 7  90356957.657 7  22066075.328    22066085.758
        45.900          45.100    22066086.180    86592108.037 8  22066086.098
        50.200

 118610634.388 7  92423885.256 7  22570857.453    22570865.926
        43.700          43.100    22570865.660    88572916.984 8  22570869.027
        48.200

 105877992.148 7  82349560.971 7  19827547.320    19827549.926    19827546.980
        45.900          43.200    19827549.504


 117086631.151 5  91067485.605 6  21895810.578    21895816.590    21895809.676
        35.900          39.200    21895817.801


 113453461.626 7  88405234.244 7  21589450.477    21589460.258
        45.300          46.000    21589459.840    84721684.358 8  21589460.566
        52.500

 108404178.384 7  84314386.013 6  20293492.516    20293495.625    20293492.074
        44.100          39.900    20293495.586


 130563837.740 7                  24845477.289
        45.500                                    97498982.245 7  24845482.387
        46.100                                                   100042435.136 7
  24845481.613          46.000    98770699.292 8  24845482.164          48.500
 134042349.106 7                  25507400.313
        44.600                                   100096602.094 7  25507406.371
        46.000                                                   102707806.686 7
  25507406.422          45.200   101402204.989 8  25507406.039          48.400
 137021160.797 7                  26074257.141
        44.600                                   102321026.651 7  26074262.938
        45.900                                                   104990269.829 7
  26074262.453          45.300   103655646.333 8  26074262.793          48.400
 123716989.833 8                  23542559.258
        51.000                                    92386091.675 8  23542564.441
        51.600                                                    94796160.755 8
  23542563.797          51.400    93591124.317 9  23542563.797          54.300
 142779419.16715                  27170021.609
        32.300                                   106621014.398 5  27170024.945
        32.200                                                   109402427.718 5
  27170026.461          35.500   108011720.170 6  27170025.758          36.800
 124492209.729 8                  23690074.156
        50.000                                    92965003.353 8  23690080.496
        51.300                                                    95390165.760 8
  23690079.500          51.000    94177585.661 9  23690079.730          54.000
 21  4 28 19 25  0.0000000  0 23G15G19G01G17G02G12G30G13G28R19R18G06
                                G14R09R20G24R16E30E13E21E27E19E15
 125757115.851 5  97992493.814 6  23930761.039    23930771.898
        35.800          37.100    23930772.570


 105524565.065 8  82226905.42947  20080636.570    20080642.184
        51.000          44.900


 130312435.23815 101542257.732 6  24797653.609    24797665.367
        32.200          36.300    24797664.828    97311341.517 6  24797662.301
        40.800

 112367263.542 8  87558935.245 7  21382778.945    21382786.281
        48.000          45.500    21382785.707


 124906614.600 6  97329894.46343  23768935.125    23768941.969
        40.700          22.800


 126524217.134 6  98590203.792 5  24076733.273    24076742.211
        36.500          35.900    24076742.668


 127798183.599 6  99582920.676 5  24319174.445    24319184.633
        40.300          35.700    24319185.953    95433645.165 7  24319186.840
        43.900

 123185050.121 6  95988383.98143  23441342.898    23441350.395
        41.200          22.000


 116191495.625 7  90538842.62545  22110506.203    22110513.723
        45.100          32.600


 103127076.630 6  80210103.679 6  19278552.656    19278555.871    19278550.535
        39.600          41.700    19278555.887


 113565024.624 7  88328494.879 7  21274597.086    21274600.684    21274595.813
        47.400          43.700    21274601.125


 115874738.018 7  90292012.238 7  22050214.094    22050225.375
        45.900          45.000    22050225.125    86529868.668 8  22050225.359
        50.300

 118675289.416 7  92474265.759 7  22583161.031    22583169.336
        43.900          43.000    22583168.344    88621198.297 8  22583172.676
        49.100

 105825450.841 8  82308695.523 7  19817707.594    19817710.508    19817707.348
        49.700          44.100    19817710.238


 116963560.462 5  90971764.020 6  21872793.750    21872801.695    21872794.645
        35.700          40.200    21872801.910


 113393496.855 7  88358508.446 7  21578040.000    21578049.418
        46.200          46.100    21578048.910    84676905.468 8  21578049.680
        52.900

 108451464.805 7  84351164.312 6  20302344.680    20302347.953    20302344.652
        45.300          41.400    20302347.758


 130613150.887 7                  24854860.820
        45.100                                    97535806.959 7  24854866.270
        47.000                                                   100080220.498 7
  24854865.723          47.000    98808004.333 8  24854866.133          49.600
 133955363.246 7                  25490847.195
        44.700                                   100031645.175 7  25490853.328
        46.700                                                   102641155.242 7
  25490852.910          46.000   101336400.808 8  25490853.059          49.800
 136962669.911 7                  26063127.289
        45.700                                   102277348.398 7  26063132.672
        47.300                                                   104945452.146 7
  26063131.844          46.300   103611398.374 8  26063132.309          50.000
 123708059.189 8                  23540859.813
        52.000                                    92379422.683 8  23540864.945
        51.900                                                    94789317.790 8
  23540864.000          51.400    93584368.340 9  23540864.344          54.500
 142807178.82315                  27175303.148
        31.100                                   106641743.923 5  27175307.453
        32.700                                                   109423698.052 6
  27175308.543          36.300   108032720.100 6  27175308.293          38.100
 124473748.124 8                  23686561.070
        51.000                                    92951217.092 8  23686567.176
        51.700                                                    95376019.853 8
  23686566.281          51.000    94163619.575 9  23686566.574          54.100
 21  4 28 19 25 30.0000000  0 23G15G19G01G17G02G12G30G13G28R19R18G06
                                G14R09R20G24R16E30E13E21E27E19E15
 125827261.333 6  98047152.528 6  23944109.055    23944120.648
        37.200          38.400    23944121.598


 105536909.046 8  82236524.11147  20082986.023    20082990.863
        51.900          45.000


 130406366.42315 101615450.778 6  24815528.492    24815539.113
        31.300          37.300    24815539.180    97381484.852 6  24815536.938
        41.000

 112429811.063 8  87607673.552 7  21394681.258    21394688.809
        48.200          46.100    21394688.453


 124804510.537 6  97250332.96943  23749503.695    23749512.203
        41.300          22.300


 126440948.869 5  98525319.485 5  24060886.766    24060895.633
        35.400          33.200    24060894.941


 127907210.208 6  99667876.351 6  24339920.977    24339933.695
        39.600          37.100    24339933.559    95515061.023 7  24339933.270
        44.900

 123280085.593 6  96062437.51143  23459427.664    23459435.012
        41.400          21.700


 116236594.395 7  90573984.49945  22119088.836    22119095.391
        45.300          32.400


 103122573.969 6  80206601.601 7  19277709.914    19277714.020    19277708.953
        39.100          42.200    19277713.367


 113666174.699 7  88407167.130 7  21293544.328    21293549.320    21293544.309
        47.300          43.000    21293548.551


 115791752.273 7  90227348.050 7  22034422.555    22034433.652
        46.400          46.000    22034433.770    86467898.823 8  22034433.258
        50.200

 118740090.893 7  92524760.362 7  22595493.773    22595500.563
        44.100          43.200    22595499.746    88669588.957 8  22595504.492
        49.700

 105773260.767 8  82268103.247 7  19807934.680    19807937.031    19807934.074
        49.800          44.700    19807936.574


 116840835.070 6  90876311.023 6  21849843.695    21849851.766    21849844.445
        36.400          39.900    21849852.313


 113333973.167 7  88312126.372 7  21566711.563    21566722.262
        46.000          46.700    21566721.473    84632455.970 8  21566722.586
        52.900

 108499199.912 7  84388291.588 6  20311281.266    20311284.023    20311281.094
        45.900          41.400    20311283.391


 130662590.647 7                  24864268.078
        43.900                                    97572726.198 7  24864274.578
        46.800                                                   100118102.858 7
  24864274.207          46.800    98845405.135 8  24864274.184          49.300
 133868560.009 7                  25474329.961
        45.500                                    99966824.644 8  25474335.418
        48.000                                                   102574643.710 7
  25474334.598          45.800   101270734.781 8  25474334.918          49.400
 136904189.859 7                  26051998.875
        45.600                                   102233678.237 7  26052004.504
        47.600                                                   104900642.757 7
  26052003.340          46.100   103567158.602 8  26052003.832          50.100
 123699270.535 8                  23539187.883
        52.900                                    92372859.724 8  23539192.492
        52.000                                                    94782583.610 8
  23539191.555          51.300    93577719.774 9  23539191.898          54.500
 142835291.542 5                  27180653.336
        32.200                                   106662737.194 5  27180657.859
        32.700                                                   109445238.911 5
  27180658.070          35.800   108053987.145 6  27180657.836          37.200
 124455725.193 8                  23683131.461
        51.000                                    92937758.405 8  23683137.160
        51.300                                                    95362210.067 8
  23683136.641          51.000    94149985.342 9  23683136.883          54.000
 21  4 28 19 26  0.0000000  0 23G15G19G01G17G02G12G30G13G28R19R18G06
                                G14R09R20G24R16E30E13E21E27E19E15
 125897640.295 6  98101993.205 6  23957503.797    23957513.383
        39.000          37.400    23957513.617


 105549748.778 8  82246529.09547  20085429.000    20085434.164
        51.800          44.700


 130500635.30115 101688906.563 5  24833464.977
        31.000          35.400    24833476.637    97451879.964 6  24833475.867
        41.300

 112492607.407 7  87656605.750 7  21406630.992    21406638.918
        47.900          45.300    21406637.973


 124702523.686 6  97170862.75943  23730098.375    23730105.227
        41.800          23.500


 126357716.665 6  98460463.240 5  24045048.867    24045057.965
        36.200          34.100    24045056.137


 128016372.451 6  99752937.668 6  24360694.508    24360706.391
        39.800          36.200    24360705.379    95596578.073 7  24360706.438
        44.300

 123375251.536 6  96136592.72543  23477536.352    23477545.078
        41.300          22.300


 116281807.095 7  90609215.14645  22127692.242    22127699.086
        46.700          32.700


 103118886.590 6  80203733.642 6  19277020.641    19277025.020    19277019.699
        39.500          41.700    19277025.055


 113767764.001 7  88486181.003 7  21312576.859    21312580.723    21312575.715
        46.900          43.000    21312580.734


 115709130.974 7  90162967.818 7  22018699.672    22018711.371
        46.100          45.000    22018711.063    86406201.117 8  22018711.414
        50.600

 118805039.244 7  92575369.456 7  22607851.609    22607859.578
        43.700          42.700    22607859.453    88718089.297 8  22607863.289
        49.600

 105721425.118 8  82227786.631 7  19798226.727    19798229.734    19798226.473
        50.000          43.700    19798229.535


 116718459.185 6  90781129.845 6  21826960.820    21826967.266    21826959.457
        37.000          40.900    21826968.117


 113274893.293 7  88266090.107 7  21555469.336    21555479.648
        45.600          46.200    21555479.383    84588337.901 8  21555480.027
        52.900

 108547384.547 7  84425768.468 6  20320301.094    20320304.227    20320300.652
        45.200          41.000    20320303.223


 130712157.813 7                  24873700.578
        43.900                                    97609740.642 7  24873707.176
        47.700                                                   100156082.874 7
  24873706.336          46.500    98882902.359 8  24873706.422          49.700
 133781941.768 7                  25457846.609
        45.300                                    99902142.222 7  25457852.590
        47.700                                                   102508273.933 7
  25457851.645          47.300   101205208.677 8  25457852.008          50.300
 136845721.587 7                  26040872.516
        45.500                                   102190016.907 7  26040878.410
        47.900                                                   104855842.422 7
  26040877.414          46.200   103522927.766 8  26040877.645          49.800
 123690625.118 8                  23537542.398
        53.200                                    92366403.725 8  23537547.395
        52.100                                                    94775959.202 8
  23537546.516          51.500    93571179.565 9  23537546.738          54.500
 142863756.735 5                  27186069.203
        31.700                                   106683993.640 5  27186074.645
        33.300                                                   109467049.894 5
  27186075.016          35.100   108075520.882 6  27186074.645          37.500
 124438141.765 8                  23679785.234
        51.300                                    92924627.928 8  23679791.297
        51.600                                                    95348737.066 8
  23679790.684          51.200    94136683.602 9  23679790.867          54.200
 21  4 28 19 26 30.0000000  0 24G15G19G01G17G02G12G30G13G28R19R18G06
                                G14R09R08R20G24R16E30E13E21E27E19E15
 125968248.308 6  98157012.371 6  23970938.758    23970950.102
        38.300          37.900    23970949.988


 105563081.772 8  82256918.44347  20087966.320    20087971.434
        50.700          45.100


 130595236.053 5 101762621.798 5  24851465.828    24851478.234
        32.400          35.300    24851478.109    97522523.743 6  24851476.551
        39.500

 112555649.176 8  87705729.185 7  21418628.008    21418635.340
        48.800          45.400    21418635.281


 124600655.837 6  97091485.33243  23710711.852    23710719.984
        41.700          22.600


 126274519.689 6  98395634.489 5  24029219.641    24029226.066
        38.400          35.700    24029226.160


 128125666.947 6  99838102.039 6  24381491.039    24381504.648
        39.400          37.600    24381503.871    95678193.952 7  24381504.293
        44.200

 123470543.352 6  96210845.97043  23495669.000    23495677.945
        40.600          22.000


 116327132.773 7  90644533.82845  22136317.250    22136323.977
        45.200          32.400


 103116012.665 6  80201498.370 7  19276484.359    19276487.656    19276482.938
        39.900          42.000    19276487.871


 113869787.332 7  88565532.440 7  21331688.938    21331693.199    21331687.695
        45.800          42.600    21331692.328


 115626875.771 7  90098872.891 7  22003047.445    22003058.641
        46.200          45.800    22003058.156    86344776.824 8  22003059.023
        50.800

 118870133.250 7  92626091.994 7  22620238.023    22620246.500
        44.100          43.200    22620246.570    88766698.408 8  22620249.992
        49.400

 105669945.215 8  82187746.703 7  19788587.016    19788589.199    19788586.359
        49.300          44.100    19788589.168


 128765852.75015                  24046086.125
        31.000


 116596434.962 6  90686222.189 6  21804140.492    21804147.469    21804140.145
        37.300          40.000    21804149.059


 113216258.052 7  88220400.312 7  21544311.141    21544321.738
        45.900          46.800    21544321.641    84544551.845 8  21544322.082
        52.900

 108596017.183 7  84463593.833 6  20329405.695    20329408.500    20329404.617
        45.000          40.800    20329408.039


 130761851.495 7                  24883157.992
        44.800                                    97646849.487 7  24883164.234
        47.300                                                   100194159.810 7
  24883162.844          46.000    98920495.259 8  24883163.035          49.300
 133695508.976 7                  25441399.078
        45.700                                    99837598.311 7  25441404.395
        47.000                                                   102442046.261 7
  25441403.934          46.700   101139822.893 8  25441404.363          50.000
 136787264.298 7                  26029748.039
        44.500                                   102146363.769 8  26029754.188
        48.200                                                   104811050.493 7
  26029753.328          46.300   103478705.232 8  26029753.574          50.200
 123682122.365 8                  23535924.305
        52.700                                    92360054.255 8  23535929.430
        52.100                                                    94769444.103 8
  23535928.641          51.500    93564747.281 9  23535928.715          54.600
 142892571.962 5                  27191553.906
        32.600                                   106705511.42715  27191558.273
        33.400                                                   109489129.127 6
  27191558.129          36.200   108097319.377 6  27191558.238          37.900
 124420996.863 8                  23676522.680
        50.400                                    92911824.935 8  23676529.000
        51.800                                                    95335600.064 8
  23676527.828          51.300    94123713.603 9  23676528.270          54.300
 21  4 28 19 27  0.0000000  0 23G15G19G01G17G02G12G30G13G28R19R18G06
                                G14R09R20G24R16E30E13E21E27E19E15
 126039083.134 6  98212208.309 6  23984418.656    23984429.074
        38.300          37.200    23984429.457


 105576907.292 8  82267691.56547  20090597.391    20090602.266
        52.000          44.700


 130690168.16815 101836594.805 5  24869530.672    24869543.938
        31.200          35.000    24869543.922    97593414.538 6  24869542.293
        38.200

 112618935.189 8  87755042.924 7  21430670.828    21430678.047
        48.500          45.800    21430677.621


 124498910.169 7  97012203.11544  23691351.680    23691359.484
        42.200          25.500


 126191359.134 6  98330834.032 5  24013393.688    24013400.941
        37.600          35.400    24013400.574


 128235092.368 6  99923368.552 6  24402315.688    24402327.031
        38.500          37.100    24402328.324    95759907.612 7  24402328.352
        44.300

 123565958.940 7  96285195.73043  23513826.789    23513834.754
        42.200          21.800


 116372572.362 7  90679941.29045  22144963.141    22144971.113
        45.000          32.300


 103113951.700 6  80199895.388 6  19276098.406    19276102.621    19276096.793
        38.800          41.800    19276102.762


 113972240.903 7  88645218.527 7  21350879.922    21350885.887    21350880.441
        45.600          42.300    21350885.363


 115544990.352 7  90035066.103 7  21987464.211    21987476.664
        45.700          45.900    21987476.879    86283628.664 8  21987476.473
        50.800

 118935373.468 7  92676928.517 7  22632652.922    22632661.383
        44.500          42.500    22632661.160    88815416.726 8  22632665.367
        49.900

 105618824.550 8  82147986.177 7  19779013.094    19779016.078    19779012.871
        48.600          44.000    19779016.641


 116474766.891 6  90591591.563 6  21781388.703    21781395.012    21781387.977
        37.100          39.700    21781395.016


 113158070.250 7  88175059.178 7  21533239.234    21533249.086
        45.600          46.800    21533248.773    84501099.932 8  21533249.168
        52.900

 108645099.200 7  84501768.688 6  20338594.063    20338597.102    20338593.598
        44.900          41.000    20338597.449


 130811672.596 7                  24892638.766
        45.600                                    97684053.507 7  24892644.246
        46.400                                                   100232334.392 7
  24892643.875          45.500    98958184.552 8  24892643.773          48.700
 133609264.165 7                  25424986.563
        45.000                                    99773194.759 7  25424992.820
        46.900                                                   102375962.607 7
  25424992.090          46.300   101074579.286 8  25424992.539          49.100
 136728819.101 7                  26018626.352
        44.700                                   102102719.631 7  26018632.141
        46.800                                                   104766267.828 7
  26018631.441          46.200   103434491.841 8  26018631.820          49.100
 123673763.673 8                  23534333.961
        53.100                                    92353812.371 8  23534338.809
        52.000                                                    94763039.391 8
  23534337.949          51.500    93558423.985 9  23534338.137          54.600
 142921736.72315                  27197103.297
        33.200                                   106727290.275 5  27197107.750
        33.000                                                   109511476.043 5
  27197108.000          35.800   108119382.255 6  27197108.281          38.000
 124404291.453 8                  23673343.789
        50.400                                    92899350.110 8  23673350.125
        51.800                                                    95322799.819 8
  23673348.695          50.900    94111076.076 9  23673349.352          54.200
 21  4 28 19 27 30.0000000  0 24G15G19G01G17G02G12G30G13G28R19R18G06
                                G14R09R08R20G24R16E30E13E21E27E19E15
 126110141.130 6  98267578.093 6  23997941.836    23997950.672
        39.400          36.800    23997950.004


 105591223.354 8  82278846.93247  20093321.336    20093326.539
        51.400          44.800


 130785428.07814 101910822.937 5  24887658.156
        28.300          35.300    24887672.457    97664549.831 6  24887669.813
        38.200

 112682462.744 8  87804544.925 7  21442760.078    21442766.559
        48.300          45.300    21442766.297


 124397289.151 7  96933017.99744  23672013.625    23672021.117
        42.100          24.400


 126108234.414 6  98266061.593 6  23997575.031    23997582.844
        37.700          36.800    23997582.844


 128344646.304 6 100008735.061 6  24423162.406    24423175.020
        39.700          37.100    24423174.957    95841717.182 7  24423175.211
        42.800

 123661494.636 7  96359639.04943  23532008.711    23532015.551
        43.400          21.300


 116418125.607 7  90715437.29745  22153632.039    22153640.121
        46.100          32.800


 103112702.545 6  80198923.800 7  19275864.961    19275868.953    19275863.367
        39.200          42.700    19275869.230


 114075120.212 7  88725235.733 7  21370155.328    21370158.809    21370153.559
        46.400          42.900    21370157.984


 115463477.138 7  89971549.341 7  21971953.055    21971964.727
        46.200          46.100    21971964.891    86222758.446 8  21971965.379
        50.800

 119000759.432 7  92727878.565 7  22645095.617    22645104.457
        43.700          43.200    22645104.156    88864243.850 8  22645108.137
        50.100

 105568064.936 8  82108506.494 7  19769507.016    19769510.727    19769507.004
        49.500          45.000    19769510.211


 128856341.89115 100221485.57114  24062981.961    24062986.301
        30.700          29.300


 116353458.030 6  90497240.267 6  21758702.398    21758709.742    21758702.629
        37.300          40.100    21758710.469


 113100331.504 7  88130067.938 7  21522250.969    21522261.664
        45.600          47.200    21522261.473    84457983.340 8  21522261.992
        52.800

 108694629.916 7  84540292.560 6  20347866.258    20347869.320    20347865.703
        45.100          41.600    20347869.520


 130861620.898 7                  24902142.422
        44.100                                    97721352.542 7  24902149.125
        46.200                                                   100270606.427 7
  24902148.582          45.800    98995970.091 8  24902148.547          49.400
 133523208.562 7                  25408611.297
        45.200                                    99708932.511 7  25408617.488
        47.000                                                   102310023.959 7
  25408615.758          46.300   101009478.838 8  25408616.676          49.900
 136670385.932 7                  26007507.031
        45.000                                   102059084.499 7  26007512.813
        47.000                                                   104721494.386 7
  26007511.734          46.100   103390287.544 8  26007512.352          49.100
 123665549.249 8                  23532770.211
        52.700                                    92347678.219 8  23532775.598
        52.000                                                    94756745.216 8
  23532775.043          51.700    93552209.820 9  23532775.004          54.600
 142951249.173 5                  27202719.102
        33.200                                   106749328.711 5  27202723.086
        32.700                                                   109534089.439 5
  27202724.309          35.900   108141708.182 6  27202724.242          38.100
 124388025.244 8                  23670248.578
        50.900                                    92887203.268 8  23670254.766
        51.600                                                    95310336.105 8
  23670253.590          51.100    94098770.792 9  23670254.012          54.100
 21  4 28 19 28  0.0000000  0 23G15G19G17G02G12G30G13G28R19R18G06G14
                                R09R08R20G24R16E30E13E21E27E19E15
 126181419.155 6  98323119.352 6  24011505.859    24011514.773
        39.900          36.700    24011513.996


 105606028.293 8  82290383.25447  20096138.773    20096143.914
        51.400          45.000


 112746229.477 8  87854233.264 7  21454894.555    21454900.883
        48.600          44.800    21454900.438


 124295795.124 6  96853931.87244  23652698.594    23652707.859
        41.000          24.500


 126025145.669 5  98201317.173 6  23981762.047    23981771.473
        35.800          36.900    23981771.305


 128454326.171 6 100094199.764 6  24444034.367    24444045.277
        38.800          36.600    24444045.051    95923620.793 7  24444046.445
        42.600

 123757146.784 6  96434173.08243  23550209.250    23550216.703
        41.600          22.300


 116463792.550 7  90751021.90945  22162323.148    22162329.703
        46.100          33.000


 103112264.074 6  80198582.765 7  19275783.500    19275787.008    19275781.941
        39.200          42.600    19275786.602


 114178420.385 7  88805580.282 7  21389506.289    21389510.461    21389505.598
        46.400          42.600    21389510.219


 115382338.611 7  89908324.533 7  21956513.547    21956524.633
        45.800          46.200    21956524.871    86162168.017 8  21956525.168
        50.900

 119066290.572 7  92778941.750 7  22657566.883    22657574.383
        44.700          43.000    22657574.148    88913179.389 8  22657578.363
        50.100

 105517669.007 8  82069309.687 7  19760070.242    19760072.980    19760069.375
        49.900          44.600    19760072.605


 128902191.16215 100257332.001 4  24071590.977    24071593.063    24071587.238
        31.900          26.900


 116232511.282 6  90403170.645 6  21736085.398    21736091.746    21736084.367
        37.200          40.200    21736092.445


 113043043.420 7  88085427.889 7  21511349.102    21511360.262
        44.900          47.300    21511359.953    84415203.287 8  21511360.629
        53.000

 108744609.296 7  84579165.393 6  20357222.555    20357225.723    20357221.809
        45.000          41.400    20357225.469


 130911696.263 7                  24911671.266
        43.900                                    97758746.461 7  24911678.406
        46.700                                                   100308975.826 7
  24911677.273          45.800    99033851.752 8  24911677.527          49.000
 133437343.556 7                  25392272.000
        45.100                                    99644812.569 7  25392277.844
        47.600                                                   102244231.314 7
  25392275.977          46.200   100944522.542 8  25392277.039          49.500
 136611964.787 7                  25996390.086
        45.300                                   102015458.363 7  25996395.711
        47.300                                                   104676730.182 7
  25996394.633          46.200   103346092.377 8  25996395.156          49.700
 123657479.361 8                  23531235.063
        52.500                                    92341652.001 8  23531239.797
        52.000                                                    94750561.795 8
  23531239.035          51.500    93546104.998 9  23531239.379          54.600
 142981107.644 5                  27208401.625
        34.200                                   106771625.645 5  27208406.152
        32.800                                                   109556967.966 5
  27208406.176          35.200   108164295.898 6  27208405.898          37.200
 124372198.086 8                  23667236.953
        51.000                                    92875384.290 8  23667242.785
        51.500                                                    95298208.801 8
  23667241.922          51.100    94086797.652 9  23667242.211          54.100
 21  4 28 19 28 30.0000000  0 23G15G19G17G02G12G30G13G28R19R18G06G14
                                R09R08R20G24R16E30E13E21E27E19E15
 126252915.365 6  98378830.653 6  24025112.586    24025121.383
        40.600          38.300    24025120.855


 105621321.989 8  82302300.41047  20099048.992    20099054.113
        51.300          44.900


 112810234.382 8  87904107.193 7  21467073.523    21467080.801
        48.900          44.700    21467080.180


 124194431.835 6  96774947.61044  23633410.516    23633418.234
        41.400          24.700


 125942094.499 5  98136601.986 6  23965957.680    23965967.461
        34.300          36.500    23965967.379


 128564131.197 6 100179761.979 6  24464928.188    24464941.164
        38.300          36.500    24464941.559    96005617.912 6  24464941.637
        41.700

 123852913.394 7  96508796.34543  23568433.961    23568440.484
        42.000          22.500


 116509574.507 7  90786696.13945  22171034.445    22171041.301
        45.600          31.600


 103112636.427 6  80198872.397 7  19275852.797    19275856.551    19275851.168
        38.800          42.500    19275856.406


 114282138.940 7  88886250.248 7  21408936.320    21408940.367    21408935.371
        46.000          42.400    21408940.137


 115301578.915 7  89845394.927 7  21941144.461    21941156.449
        45.500          46.100    21941156.344    86101860.488 8  21941157.039
        50.700

 119131968.154 7  92830119.045 7  22670064.352    22670072.148
        44.400          42.100    22670071.172    88962224.284 8  22670076.391
        49.600

 105467640.417 8  82030398.564 7  19750701.672    19750703.988    19750700.910
        50.200          44.800    19750703.813


 128948836.958 4 100293612.025 3  24080300.797    24080304.563    24080297.367
        29.400          21.600


 116111931.655 6  90309386.547 6  21713536.500    21713542.324    21713535.672
        37.000          39.500    21713543.715


 112986209.364 7  88041141.612 7  21500534.211    21500545.078
        45.500          47.400    21500544.590    84372762.287 8  21500545.398
        53.000

 108795038.832 7  84618388.335 6  20366662.242    20366665.867    20366662.246
        44.400          41.300    20366665.418


 130961900.252 7                  24921224.898
        44.400                                    97796236.407 7  24921231.828
        47.300                                                   100347443.800 7
  24921230.527          45.600    99071830.705 8  24921231.141          49.300
 133351672.134 7                  25375968.914
        45.500                                    99580837.193 7  25375974.379
        47.300                                                   102178587.002 7
  25375973.363          47.000   100879712.706 8  25375974.270          49.900
 136553557.434 7                  25985275.773
        45.900                                   101971842.495 7  25985281.301
        47.300                                                   104631976.492 7
  25985279.992          46.200   103301907.601 8  25985280.590          49.600
 123649555.977 8                  23529727.094
        53.400                                    92335735.191 8  23529732.133
        52.100                                                    94744490.623 8
  23529731.324          51.400    93540111.011 9  23529731.637          54.600
 143011312.097 5                  27214149.633
        34.300                                   106794180.989 5  27214153.840
        32.900                                                   109580111.660 5
  27214153.367          35.000   108187145.417 6  27214153.445          37.200
 124356811.393 8                  23664308.875
        51.000                                    92863894.232 8  23664314.602
        51.500                                                    95286419.003 8
  23664313.879          51.200    94075157.730 9  23664314.207          54.100
 21  4 28 19 29  0.0000000  0 22G15G19G17G02G12G30G13G28R19R18G06G14
                                R09R20G24R16E30E13E21E27E19E15
 126324626.450 6  98434709.347 6  24038757.086    24038767.141
        40.600          39.000    24038767.242


 105637102.629 8  82314597.00747  20102051.992    20102057.027
        50.500          44.300


 112874475.466 8  87954165.145 7  21479298.953    21479305.715
        48.300          44.600    21479304.996


 124093201.675 6  96696067.06544  23614147.070    23614154.266
        41.700          24.000


 125859080.682 5  98071915.932 6  23950162.258    23950170.414
        34.100          37.100    23950170.602


 128674059.053 6 100265419.882 6  24485847.227    24485859.258
        37.800          36.300    24485859.832    96087706.703 7  24485861.059
        42.300

 123948791.256 6  96583506.25943  23586677.875    23586686.621
        41.600          22.200


 116555471.430 7  90822459.97045  22179767.484    22179775.445
        45.900          31.900


 103113818.974 6  80199792.147 7  19276073.625    19276077.594    19276072.547
        39.400          43.400    19276077.469


 114386270.919 7  88967241.725 6  21428443.461    21428447.949    21428442.559
        45.500          41.000    21428448.285


 115221200.572 7  89782762.492 7  21925849.055    21925860.941
        46.700          45.800    21925860.840    86041837.726 8  21925860.887
        50.400

 119197791.686 7  92881410.084 7  22682589.914    22682598.633
        43.700          43.000    22682598.402    89011378.181 8  22682602.043
        49.600

 105417981.548 8  81991774.984 7  19741402.211    19741404.301    19741401.625
        49.500          45.500    19741403.480


 115991722.148 6  90215890.323 6  21691058.328    21691062.773    21691056.344
        37.300          39.400    21691062.852


 112929830.984 7  87997210.410 7  21489806.750    21489816.855
        45.700          47.600    21489816.629    84330661.547 8  21489816.797
        52.800

 108845918.629 7  84657961.492 6  20376187.547    20376190.398    20376187.445
        45.000          40.700    20376190.512


 131012232.719 7                  24930803.836
        45.100                                    97833822.296 7  24930809.957
        47.400                                                   100386010.205 7
  24930808.371          44.900    99109906.859 8  24930809.262          49.200
 133266195.634 7                  25359703.008
        45.300                                    99517007.370 7  25359709.500
        47.800                                                   102113092.074 7
  25359708.203          47.300   100815050.327 8  25359708.688          50.500
 136495163.852 7                  25974163.469
        44.200                                   101928236.916 7  25974169.488
        47.600                                                   104587233.366 7
  25974168.352          46.200   103257733.248 8  25974168.602          49.400
 123641779.417 8                  23528247.406
        51.800                                    92329928.007 8  23528252.434
        52.200                                                    94738531.962 8
  23528251.598          51.600    93534228.086 9  23528251.813          54.700
 143041860.972 5                  27219961.633
        32.500                                   106816993.391 5  27219968.199
        34.500                                                   109603519.188 5
  27219967.719          34.200   108210255.386 6  27219966.652          37.700
 124341865.036 8                  23661464.555
        49.900                                    92852733.000 8  23661470.293
        51.500                                                    95274966.605 8
  23661469.785          51.100    94063850.907 9  23661469.973          54.200
 21  4 28 19 29 30.0000000  0 22G15G19G17G02G12G30G13G28R19R18G06G14
                                R09R20G24R16E30E13E21E27E19E15
 126396549.703 6  98490753.347 6  24052443.820    24052453.492
        40.500          37.700    24052453.207


 105653369.596 8  82327272.56847  20105147.500    20105152.469
        50.900          43.900


 112938950.452 8  88004405.378 7  21491568.039    21491575.008
        48.200          44.100    21491574.285


 123992107.928 6  96617292.84343  23594909.859    23594917.047
        41.700          23.200


 125776105.015 5  98007259.612 6  23934371.656    23934380.316
        33.100          36.100    23934379.477


 128784108.116 6 100351172.190 6  24506789.547    24506801.563
        38.700          37.500    24506802.266    96169885.981 7  24506802.938
        42.300

 124044777.413 7  96658300.59643  23604944.227    23604951.820
        42.100          21.300


 116601484.005 7  90858313.89745  22188524.672    22188532.160
        45.800          31.900


 103115810.364 6  80201340.999 7  19276445.984    19276450.000    19276444.676
        39.300          43.200    19276450.168


 114490812.555 7  89048551.882 6  21448027.352    21448032.051    21448026.824
        45.900          40.900    21448032.316


 115141206.902 7  89720429.773 7  21910627.734    21910638.668
        46.800          45.200    21910638.355    85982102.224 8  21910638.746
        50.500

 119263761.565 7  92932815.127 7  22695143.680    22695152.172
        43.400          42.600    22695152.277    89060641.363 8  22695155.824
        49.300

 105368695.229 8  81953441.185 7  19732172.500    19732174.910    19732171.637
        49.000          45.400    19732175.238


 115871886.988 6  90122685.233 6  21668646.453    21668652.688    21668645.973
        37.300          39.200    21668653.910


 112873910.754 7  87953636.225 7  21479165.867    21479175.367
        46.100          46.700    21479174.840    84288902.952 8  21479175.371
        53.000

 108897248.689 7  84697884.825 6  20385797.219    20385799.789    20385796.109
        44.600          41.100    20385799.359


 131062694.402 7                  24940406.711
        45.900                                    97871504.664 7  24940412.609
        47.800                                                   100424675.614 7
  24940411.426          46.400    99148080.744 8  24940411.969          49.900
 133180916.285 7                  25343474.914
        45.300                                    99453324.791 8  25343481.281
        48.000                                                   102047748.194 7
  25343479.875          47.100   100750537.102 8  25343480.484          50.200
 136436784.996 7                  25963054.195
        45.100                                   101884642.332 7  25963060.078
        47.300                                                   104542501.537 7
  25963059.395          46.400   103213570.040 8  25963059.383          49.600
 123634150.855 8                  23526795.969
        52.700                                    92324231.334 8  23526800.785
        52.200                                                    94732686.683 8
  23526799.844          51.400    93528457.117 9  23526800.121          54.700
 143072753.39815                  27225840.984
        33.000                                   106840062.360 5  27225846.316
        35.300                                                   109627190.047 5
  27225845.293          32.000   108233625.296 6  27225845.371          37.100
 124327359.581 8                  23658704.094
        50.300                                    92841901.012 8  23658710.246
        51.500                                                    95263852.040 8
  23658709.223          50.900    94052877.630 9  23658709.668          54.000
 21  4 28 19 30  0.0000000  0 22G15G19G17G02G12G30G13G28R19R18G06G14
                                R09R20G24R16E30E13E21E27E19E15
 126468681.384 6  98546959.785 6  24066171.172    24066180.070
        41.400          38.900    24066180.023


 105670120.073 8  82340324.88747  20108335.297    20108339.957
        49.100          44.300


 113003656.870 7  88054825.949 7  21503881.180    21503888.066
        47.000          44.600    21503887.617


 123891152.285 7  96538626.21644  23575699.578    23575706.098
        42.300          26.400


 125693167.222 5  97942632.768 6  23918590.578    23918598.285
        34.600          37.400    23918598.004


 128894275.368 6 100437016.673 6  24527753.320    24527765.406
        38.100          36.900    24527765.473    96252153.562 7  24527768.168
        42.400

 124140868.101 6  96733176.36144  23623228.594    23623238.496
        41.600          24.000


 116647611.685 7  90894257.52345  22197302.953    22197309.590
        45.400          32.200


 103118609.449 6  80203518.079 7  19276969.359    19276973.211    19276968.109
        38.900          42.900    19276972.980


 114595758.797 7  89130176.684 6  21467688.711    21467691.805    21467687.684
        44.400          40.000    21467691.320


 115061599.869 7  89658398.357 7  21895477.727    21895489.898
        44.700          45.900    21895489.914    85922655.462 8  21895490.305
        50.700

 119329876.805 7  92984333.492 7  22707724.859    22707733.555
        42.800          42.900    22707732.875    89110013.105 8  22707737.328
        49.300

 105319783.529 7  81915398.767 7  19723012.594    19723015.227    19723012.148
        46.000          44.200    19723015.391


 115752428.537 6  90029773.180 6  21646307.398    21646313.148    21646306.176
        36.500          39.400    21646314.188


 112818449.806 7  87910419.907 7  21468611.938    21468621.523
        45.900          47.300    21468621.113    84247487.296 8  21468621.789
        53.400

 108949028.291 7  84738157.834 6  20395490.211    20395492.969    20395489.500
        42.400          40.500    20395493.996


 131113284.635 7                  24950033.453
        44.200                                    97909283.030 7  24950039.805
        46.200                                                   100463439.495 7
  24950038.355          45.500    99186351.873 8  24950038.938          48.800
 133095834.882 7                  25327284.563
        44.300                                    99389790.023 7  25327290.445
        47.200                                                   101982555.998 7
  25327289.527          46.400   100686173.617 8  25327290.020          49.800
 136378420.340 7                  25951947.773
        44.400                                   101841058.368 7  25951953.590
        46.400                                                   104497780.593 7
  25951952.789          44.800   103169417.582 8  25951952.895          48.500
 123626670.043 8                  23525372.430
        50.900                                    92318645.026 8  23525377.258
        52.200                                                    94726954.632 8
  23525376.527          51.700    93522797.930 9  23525376.590          54.800
 143103987.137 5                  27231784.586
        32.900                                   106863386.226 5  27231789.766
        34.200                                                   109651122.379 5
  27231789.195          32.800   108257253.391 6  27231789.012          37.100
 124313294.284 8                  23656027.656
        49.300                                    92831397.711 8  23656033.773
        51.400                                                    95253074.740 8
  23656032.801          51.000    94042237.328 9  23656033.152          54.000
 21  4 28 19 30 30.0000000  0 22G15G19G17G02G12G30G13G28R19R18G06G14
                                R09R20G24R16E30E13E21E27E19E15
 126541017.887 7  98603325.849 6  24079937.992    24079945.629
        42.900          38.300    24079944.676


 105687352.416 8  82353752.68847  20111614.055    20111619.004
        49.900          44.000


 113068591.459 7  88105424.326 7  21516237.305    21516244.703
        47.200          44.800    21516244.223


 123790336.916 6  96460068.90543  23556513.836    23556520.672
        41.500          23.900


 125610266.733 5  97878035.061 6  23902814.477    23902823.215
        35.100          37.600    23902823.031


 129004558.177 5 100522951.159 6  24548739.344    24548752.609
        35.900          38.600    24548752.891    96334507.398 7  24548753.797
        43.300

 124237059.418 7  96808130.51243  23641533.852    23641543.750
        42.300          23.200


 116693854.027 7  90930290.49745  22206102.180    22206109.238
        46.000          32.700


 103122214.083 6  80206321.683 7  19277642.797    19277646.809    19277641.914
        38.600          42.600    19277645.422


 114701104.753 7  89212112.403 6  21487423.367    21487426.668    21487422.184
        45.200          40.600    21487426.582


 114982381.673 7  89596669.912 7  21880404.250    21880414.938
        45.800          45.400    21880414.773    85863499.040 8  21880414.980
        50.700

 119396136.732 7  93035964.549 7  22720334.352    22720342.348
        43.800          42.600    22720342.074    89159492.865 8  22720346.328
        49.500

 105271248.356 7  81877649.169 7  19713923.766    19713925.867    19713923.109
        47.400          45.300    19713925.211


 115633349.598 5  89937156.313 6  21624038.188    21624045.133    21624037.047
        35.700          39.300    21624045.492


 112763449.490 7  87867562.518 7  21458144.430    21458155.105
        44.800          47.000    21458154.801    84206415.638 8  21458155.559
        53.600

 109001257.335 7  84778780.383 6  20405267.484    20405270.242    20405266.949
        43.400          40.000    20405270.414


 131164002.994 7                  24959684.953
        44.900                                    97947157.100 7  24959690.848
        46.400                                                   100502301.573 7
  24959690.293          46.100    99224719.938 8  24959690.230          49.000
 133010952.530 7                  25311132.313
        45.100                                    99326403.880 7  25311137.520
        47.400                                                   101917516.293 7
  25311136.961          46.800   100621960.693 8  25311137.410          50.000
 136320069.748 7                  25940844.141
        44.900                                   101797484.877 7  25940849.254
        46.400                                                   104453070.386 7
  25940849.090          45.600   103125275.731 8  25940849.125          48.900
 123619337.068 8                  23523976.813
        50.400                                    92313169.082 8  23523981.730
        52.000                                                    94721335.848 8
  23523981.078          51.700    93517250.568 9  23523981.195          54.700
 143135560.26015                  27237793.219
        34.000                                   106886963.520 5  27237798.098
        34.300                                                   109675314.694 5
  27237796.969          32.900   108281138.222 6  27237797.227          37.000
 124299668.651 8                  23653434.875
        49.300                                    92821222.718 8  23653440.902
        51.300                                                    95242634.317 8
  23653439.887          51.000    94031929.618 9  23653440.289          54.000
 21  4 28 19 31  0.0000000  0 23G15G19G17G02G12G30G13G28R19R18G06G14
                                R09R08R20G24R16E30E13E21E27E19E15
 126613555.295 7  98659848.422 6  24093740.969    24093749.488
        43.400          38.400    24093748.691


 105705064.123 8  82367554.01747  20114984.648    20114989.738
        49.500          44.000


 113133751.928 8  88156198.684 7  21528636.719    21528644.348
        48.700          45.400    21528644.090


 123689663.923 6  96381622.52144  23537356.852    23537363.172
        41.600          26.200


 125527403.408 6  97813466.305 6  23887046.875    23887053.961
        37.900          36.300    23887053.516


 129114953.763 6 100608973.557 6  24569748.148    24569760.633
        36.600          38.600    24569761.707    96416945.496 7  24569762.551
        43.100

 124333347.490 6  96883160.08543  23659855.180    23659865.547
        40.900          21.500


 116740210.424 7  90966412.33245  22214924.383    22214930.664
        45.800          33.400


 103126622.796 6  80209750.660 7  19278466.688    19278470.727    19278466.574
        39.400          42.100    19278470.578


 114806845.596 7  89294355.241 6  21507232.234    21507235.633    21507230.969
        45.700          41.800    21507234.465


 114903554.407 7  89535246.084 7  21865403.688    21865414.586
        47.200          45.000    21865414.844    85804634.548 8  21865415.043
        51.000

 119462540.529 7  93087707.692 7  22732970.391    22732978.707
        43.700          42.200    22732978.148    89209080.063 8  22732982.473
        49.400

 105223091.409 8  81840193.779 7  19704905.492    19704907.594    19704904.578
        49.800          44.300    19704907.465


 129190302.83315                  24125395.258
        30.500


 115514653.011 6  89844836.811 6  21601840.852    21601848.063    21601840.715
        36.100          40.100    21601849.113


 112708911.067 7  87825065.057 7  21447766.773    21447776.359
        46.700          46.600    21447776.703    84165688.900 9  21447777.195
        54.100

 109053934.516 7  84819751.493 6  20415128.813    20415131.324    20415128.684
        44.600          40.200    20415131.051


 131214849.049 7                  24969360.383
        45.700                                    97985126.527 7  24969366.480
        46.700                                                   100541261.500 7
  24969366.070          46.600    99263184.615 8  24969365.871          49.200
 132926270.221 7                  25295017.711
        45.900                                    99263167.144 7  25295023.191
        47.700                                                   101852629.887 7
  25295022.605          47.700   100557899.121 8  25295022.867          50.100
 136261732.943 7                  25929742.688
        45.600                                   101753921.693 7  25929748.277
        46.500                                                   104408370.788 7
  25929748.105          46.200   103081144.341 8  25929747.988          49.400
 123612151.869 8                  23522609.320
        50.800                                    92307803.515 8  23522614.301
        52.000                                                    94715830.312 8
  23522613.516          51.700    93511815.018 9  23522613.895          54.700
 143167470.703 5                  27243865.320
        34.700                                   106910792.698 5  27243870.441
        34.400                                                   109699765.538 5
  27243869.566          33.700   108305278.203 6  27243869.637          38.100
 124286482.062 8                  23650925.500
        49.500                                    92811375.595 8  23650931.508
        51.700                                                    95232530.314 8
  23650930.711          51.300    94021954.059 9  23650930.957          54.100
 21  4 28 19 31 30.0000000  0 22G15G19G17G02G12G30G13G28R19R18G06G14
                                R09R20G24R16E30E13E21E27E19E15
 126686294.184 6  98716527.991 6  24107580.438    24107591.074
        41.300          38.000    24107590.555


 105723257.366 8  82381730.56647  20118446.531    20118451.715
        49.400          43.700


 113199139.484 7  88207150.009 7  21541080.242    21541087.273
        47.700          44.900    21541086.668


 123589139.390 7  96303291.82444  23518228.719    23518234.152
        42.200          26.200


 125444581.153 6  97748929.467 6  23871285.508    23871293.188
        38.300          36.200    23871293.293


 129225463.590 6 100695084.907 6  24590777.586    24590790.621
        37.200          38.000    24590791.500    96499468.866 7  24590791.332
        42.500

 124429732.768 7  96958265.42243  23678198.164    23678208.375
        42.000          22.600


 116786684.691 7  91002626.02745  22223767.055    22223774.273
        45.800          33.700


 103131837.434 6  80213806.518 6  19279442.258    19279445.582    19279440.668
        38.400          41.700    19279445.293


 114912980.592 7  89376904.637 6  21527113.555    21527118.570    21527112.973
        44.600          41.400    21527117.934


 114825124.475 7  89474131.870 7  21850479.164    21850489.648
        46.600          45.100    21850489.801    85746066.761 8  21850490.441
        51.200

 119529091.627 7  93139565.657 7  22745635.016    22745643.012
        42.400          42.200    22745642.184    89258777.244 8  22745646.570
        49.300

 105175319.256 7  81803037.644 7  19695959.016    19695961.555    19695958.387
        47.600          44.300    19695961.723


 115396345.974 6  89752820.295 6  21579717.211    21579724.551    21579717.063
        37.100          41.500    21579725.457


 112654840.043 7  87782931.798 7  21437476.953    21437487.227
        46.100          46.300    21437486.641    84125311.196 8  21437487.910
        53.900

 109107063.769 7  84861074.201 6  20425074.383    20425077.363    20425074.203
        44.500          40.700    20425077.859


 131265826.542 7                  24979061.633
        45.700                                    98023194.090 7  24979067.719
        46.300                                                   100580322.133 7
  24979066.559          44.800    99301748.714 8  24979066.656          48.300
 132841793.159 7                  25278942.164
        45.700                                    99200083.662 7  25278947.637
        46.800                                                   101787900.760 7
  25278946.980          47.000   100493992.813 8  25278947.320          49.500
 136203413.912 7                  25918645.133
        45.300                                   101710371.776 7  25918650.605
        46.200                                                   104363684.765 7
  25918650.094          46.100   103037026.375 8  25918650.223          49.000
 123605118.683 8                  23521270.938
        49.800                                    92302551.456 8  23521275.941
        52.000                                                    94710441.245 8
  23521275.383          51.800    93506494.457 9  23521275.594          54.700
 143199720.648 5                  27250002.773
        35.200                                   106934875.430 5  27250007.156
        34.200                                                   109724476.432 5
  27250006.777          34.400   108329675.050 6  27250006.586          37.800
 124273738.170 8                  23648500.555
        49.800                                    92801859.060 8  23648506.480
        51.300                                                    95222765.518 8
  23648505.766          51.200    94012313.392 9  23648505.844          54.100
 21  4 28 19 32  0.0000000  0 22G15G19G17G02G12G30G13G28R19R18G06G14
                                R09R20G24R16E30E13E21E27E19E15
 126759230.289 6  98773361.280 6  24121461.164    24121470.301
        41.400          38.800    24121470.445


 105741929.519 8  82396280.28847  20121999.977    20122004.934
        50.100          44.000


 113264750.875 8  88258275.765 7  21553565.492    21553572.813
        48.600          44.100    21553572.426


 123488764.809 7  96225077.94844  23499127.695    23499132.594
        42.600          26.400


 125361798.728 6  97684423.752 6  23855534.344    23855540.539
        39.500          37.300    23855540.813


 129336084.178 6 100781282.672 6  24611828.891    24611841.340
        37.800          37.300    24611840.168    96582075.012 7  24611841.984
        42.700

 124526210.690 7  97033442.91743  23696557.250    23696567.250
        42.400          22.600


 116833275.926 7  91038930.85145  22232632.977    22232640.074
        46.800          32.600


 103137855.868 6  80218487.522 7  19280567.141    19280570.637    19280565.859
        39.500          43.000    19280570.422


 115019504.286 7  89459756.378 6  21547069.430    21547074.008    21547068.379
        45.200          39.900    21547073.391


 114747093.379 7  89413328.448 7  21835629.742    21835641.148
        47.500          44.700    21835640.859    85687796.812 8  21835641.395
        51.200

 119595788.715 6  93191537.345 7  22758327.195    22758335.754
        41.700          42.700    22758335.355    89308583.432 8  22758338.559
        49.300

 105127932.899 8  81766181.603 7  19687085.344    19687087.426    19687084.641
        49.500          44.700    19687087.332


 115278430.346 6  89661108.208 6  21557666.531    21557673.488    21557666.684
        37.300          39.700    21557673.930


 112601237.130 7  87741163.308 7  21427276.719    21427287.004
        46.100          46.300    21427286.426    84085283.065 9  21427287.664
        54.100

 109160644.026 7  84902747.746 6  20435104.789    20435108.027    20435104.668
        44.600          40.200    20435107.488


 131316934.432 7                  24988786.750
        44.900                                    98061359.016 7  24988793.367
        46.600                                                   100619482.686 7
  24988791.953          45.600    99340411.458 8  24988792.254          48.800
 132757521.795 7                  25262905.695
        46.000                                    99137153.786 7  25262911.637
        47.700                                                   101723329.218 7
  25262910.629          47.700   100430242.106 8  25262910.977          50.300
 136145111.780 7                  25907550.523
        44.700                                   101666834.476 7  25907556.188
        46.600                                                   104319011.737 7
  25907555.359          45.800   102992921.214 8  25907555.699          48.600
 123598236.926 8                  23519961.547
        51.600                                    92297412.470 8  23519966.484
        52.200                                                    94705168.206 8
  23519965.855          51.900    93501288.440 9  23519966.055          54.900
 143232307.445 6                  27256204.578
        36.300                                   106959209.649 5  27256209.055
        35.200                                                   109749445.520 5
  27256207.914          34.300   108354326.703 6  27256207.836          38.300
 124261435.761 8                  23646159.391
        49.900                                    92792672.205 8  23646165.535
        51.600                                                    95213338.997 8
  23646164.789          51.200    94003006.704 9  23646164.793          54.100
 21  4 28 19 32 30.0000000  0 22G15G19G17G02G12G30G13G28R19R18G06G14
                                R09R20G24R16E30E13E21E27E19E15
 126832360.144 6  98830345.464 6  24135375.984    24135385.965
        40.900          37.800    24135385.457


 105761078.663 8  82411201.69447  20125643.750    20125649.023
        49.200          43.800


 113330583.968 8  88309574.242 7  21566093.344    21566100.352
        48.400          44.700    21566100.328


 123388542.643 6  96146982.84044  23480055.125    23480060.672
        41.800          25.300


 125279056.376 6  97619949.249 6  23839788.141    23839795.305
        38.600          36.900    23839794.316


 129446813.323 5 100867564.933 6  24632899.086    24632912.070
        34.000          36.900    24632910.887    96664762.164 6  24632911.684
        41.900

 124622778.201 7  97108690.26143  23714934.578    23714942.281
        42.000          22.300


 116879984.008 7  91075326.75045  22241521.484    22241527.977
        46.100          32.300


 103144676.624 6  80223792.534 7  19281841.734    19281845.633    19281840.871
        39.200          42.500    19281845.438


 115126412.296 7  89542907.030 6  21567097.516    21567101.406    21567096.375
        45.300          40.600    21567100.859


 114669463.677 8  89352837.798 7  21820858.648    21820868.668
        48.200          45.500    21820868.988    85629826.605 8  21820869.074
        51.400

 119662631.377 7  93243622.505 6  22771046.656    22771054.680
        43.000          41.700    22771054.273    89358498.357 8  22771058.246
        48.800

 105080934.920 8  81729627.613 7  19678283.672    19678286.609    19678283.313
        49.600          45.600    19678286.332


 115160909.438 6  89569703.128 6  21535689.836    21535695.699    21535689.176
        36.800          40.000    21535696.391


 112548103.982 7  87699760.871 7  21417166.055    21417176.223
        46.200          47.000    21417175.816    84045605.727 8  21417176.777
        53.900

 109214674.863 7  84944771.682 6  20445220.188    20445222.605    20445219.609
        45.000          40.300    20445222.520


 131368172.675 7                  24998536.781
        44.200                                    98099621.302 7  24998543.410
        46.200                                                   100658743.138 7
  24998542.793          45.500    99379172.822 8  24998542.539          48.700
 132673457.568 7                  25246908.906
        46.400                                    99074378.587 7  25246914.570
        47.200                                                   101658916.388 7
  25246913.441          47.400   100366648.089 8  25246914.008          49.800
 136086826.753 7                  25896459.133
        45.000                                   101623309.989 7  25896464.914
        46.900                                                   104274351.803 7
  25896463.855          46.300   102948828.995 8  25896464.391          49.500
 123591507.062 8                  23518680.875
        50.900                                    92292386.912 8  23518686.113
        52.400                                                    94700011.545 8
  23518685.301          51.800    93496197.336 9  23518685.395          54.900
 143265229.440 5                  27262468.383
        35.900                                   106983794.197 6  27262474.148
        36.700                                                   109774671.421 5
  27262473.199          34.900   108379231.917 6  27262473.070          38.900
 124249574.641 8                  23643902.023
        49.100                                    92783814.873 8  23643908.355
        51.300                                                    95204250.609 8
  23643907.500          51.000    93994033.849 9  23643907.688          54.000
 21  4 28 19 33  0.0000000  0 22G15G19G17G02G12G30G13G28R19R18G06G14
                                R09R20G24R16E30E13E21E27E19E15
 126905681.292 7  98887478.771 6  24149329.633    24149338.000
        42.700          38.000    24149338.203


 105780703.762 8  82426493.97347  20129377.875    20129383.695
        50.900          43.900


 113396636.732 8  88361043.904 7  21578662.844    21578670.086
        48.400          44.500    21578669.363


 123288476.180 6  96069009.06944  23461011.641    23461018.863
        41.700          25.100


 125196355.283 6  97555506.880 6  23824050.383    23824057.348
        39.100          36.800    23824056.918


 129557649.568 6 100953930.670 6  24653989.922    24654003.691
        36.800          38.200    24654003.934    96747529.291 6  24654002.680
        41.300

 124719432.501 7  97184005.21143  23733327.836    23733335.137
        42.700          22.600


 116926809.872 7  91111814.41545  22250431.727    22250439.422
        46.600          33.600


 103152299.488 6  80229721.448 7  19283267.383    19283270.750    19283265.824
        39.400          42.400    19283271.063


 115233700.816 7  89626353.584 6  21587195.984    21587200.648    21587195.262
        45.300          40.400    21587200.293


 114592238.786 7  89292662.559 7  21806162.383    21806173.172
        47.600          44.500    21806172.766    85572158.698 8  21806173.824
        51.700

 119729620.227 7  93295821.579 6  22783794.328    22783801.941
        43.100          40.900    22783801.734    89408522.453 8  22783805.859
        48.900

 105034328.379 8  81693378.093 7  19669555.711    19669558.473    19669555.234
        49.600          44.900    19669557.926


 115043787.278 6  89478608.159 6  21513785.273    21513793.578    21513786.398
        37.100          39.600    21513793.914


 112495443.176 7  87658726.482 7  21407144.641    21407154.977
        45.900          46.500    21407154.449    84006281.114 8  21407155.320
        53.500

 109269157.067 7  84987146.679 6  20455418.883    20455421.840    20455418.313
        45.000          39.900    20455422.449


 131419542.150 7                  25008312.805
        45.300                                    98137981.596 7  25008318.586
        45.400                                                   100698104.114 7
  25008317.754          45.400    99418033.461 8  25008317.809          48.000
 132589602.811 7                  25230951.945
        45.900                                    99011759.802 7  25230957.258
        46.800                                                   101594664.073 7
  25230956.434          47.200   100303212.540 8  25230956.969          49.600
 136028559.947 7                  25885371.359
        46.300                                   101579799.084 7  25885377.164
        46.200                                                   104229705.828 7
  25885376.336          46.400   102904750.562 8  25885376.598          48.700
 123584930.371 8                  23517429.273
        51.700                                    92287475.743 8  23517434.738
        52.700                                                    94694972.255 8
  23517433.715          51.900    93491222.104 9  23517433.887          55.100
 143298485.933 6                  27268798.016
        36.400                                   107008628.533 6  27268802.871
        37.000                                                   109800153.655 5
  27268801.027          34.900   108404390.212 6  27268801.855          39.700
 124238155.481 8                  23641729.008
        50.300                                    92775287.584 8  23641735.004
        51.500                                                    95195500.872 8
  23641734.164          51.000    93985395.333 8  23641734.699          53.900
 21  4 28 19 33 30.0000000  0 22G15G19G17G02G12G30G13G28R19R18G06G14
                                R09R20G24R16E30E13E21E27E19E15
 126979189.822 7  98944758.149 6  24163319.406    24163326.039
        43.000          37.400    24163325.301


 105800802.433 8  82442155.27147  20133203.453    20133208.395
        52.000          44.100


 113462906.380 7  88412682.589 7  21591273.188    21591280.449
        47.900          44.200    21591280.180


 123188567.083 6  95991157.91643  23442000.250    23442007.012
        41.700          23.600


 125113694.649 6  97491096.029 6  23808318.609    23808327.887
        38.600          36.600    23808326.617


 129668589.937 6 101040377.529 6  24675102.453    24675114.969
        36.500          38.100    24675114.406    96830374.138 7  24675115.578
        42.600

 124816169.784 7  97259384.79043  23751735.305    23751743.848
        42.400          21.500


 116973752.855 7  91148393.35545  22259364.727    22259372.711
        47.100          32.900


 103160721.537 6  80236271.922 7  19284840.930    19284845.035    19284840.473
        39.200          42.900    19284844.875


 115341365.004 7  89710092.392 6  21607365.133    21607369.258    21607364.301
        45.700          40.500    21607369.230


 114515420.541 7  89232804.217 7  21791544.320    21791554.977
        47.300          44.500    21791554.516    85514794.465 8  21791555.410
        51.600

 119796754.298 6  93348133.778 6  22796567.992    22796576.980
        41.200          41.100    22796576.750    89458654.988 8  22796581.625
        49.000

 104988115.292 8  81657434.586 7  19660901.617    19660904.270    19660901.008
        49.900          45.300    19660903.570


 114927066.494 6  89387825.422 6  21491959.906    21491966.137    21491959.242
        37.300          39.900    21491966.848


 112443255.769 7  87618060.980 7  21397213.711    21397224.250
        45.300          47.200    21397223.895    83967309.996 8  21397224.207
        53.300

 109324089.615 7  85029871.987 6  20465702.039    20465705.488    20465702.254
        45.200          41.000    20465705.465


 131471042.165 7                  25018112.977
        47.000                                    98176439.348 7  25018118.496
        46.000                                                   100737565.132 7
  25018118.352          45.600    99456992.843 8  25018118.000          49.100
 132505958.276 7                  25215034.508
        46.100                                    98949298.027 7  25215040.520
        47.900                                                   101530572.867 7
  25215039.457          47.000   100239936.048 8  25215039.930          50.100
 135970311.005 7                  25874286.820
        46.400                                   101536301.497 7  25874292.863
        47.100                                                   104185073.533 7
  25874292.320          46.800   102860685.618 8  25874292.266          49.400
 123578506.687 8                  23516207.148
        52.600                                    92282678.834 8  23516212.285
        52.500                                                    94690050.210 8
  23516211.344          52.000    93486362.628 9  23516211.492          55.100
 143332074.557 5                  27275188.664
        34.500                                   107033710.915 6  27275194.602
        37.200                                                   109825890.377 5
  27275192.922          34.700   108429799.749 6  27275193.672          39.700
 124227177.432 8                  23639640.266
        50.600                                    92767089.692 8  23639645.961
        51.200                                                    95187089.123 8
  23639644.973          50.600    93977090.506 8  23639645.645          53.900
 21  4 28 19 34  0.0000000  0 22G15G19G17G02G12G30G13G28R19R18G06G14
                                R09R20G24R16E30E13E21E27E19E15
 127052882.751 6  99002181.123 6  24177341.188    24177350.309
        41.700          38.300    24177350.617


 105821373.454 8  82458184.63247  20137117.578    20137123.000
        50.800          44.500


 113529391.404 8  88464489.086 7  21603925.242    21603932.504
        48.000          45.000    21603932.117


 123088817.894 6  95913431.37243  23423017.805    23423025.168
        41.400          22.900


 125031074.683 6  97426716.879 6  23792597.398    23792605.523
        39.200          37.700    23792605.285


 129779632.126 6 101126903.761 6  24696232.008    24696245.418
        36.900          37.100    24696245.191    96913295.051 6  24696245.031
        41.400

 124912986.512 6  97334826.29343  23770160.258    23770167.871
        41.200          21.800


 117020813.047 7  91185063.59745  22268320.016    22268327.996
        45.600          32.700


 103169941.774 6  80243443.206 7  19286564.328    19286568.645    19286563.707
        39.400          43.100    19286569.016


 115449400.320 7  89794119.819 6  21627603.516    21627607.910    21627603.344
        46.200          39.600    21627607.918


 114439011.528 7  89173264.763 7  21777003.969    21777014.438
        47.400          44.600    21777014.063    85457735.815 8  21777015.488
        52.000

 119864033.222 7  93400558.860 6  22809371.672    22809379.848
        42.400          41.400    22809379.434    89508895.688 8  22809384.098
        48.900

 104942297.774 8  81621798.740 7  19652321.313    19652323.875    19652321.270
        51.100          44.800    19652324.145


 114810750.282 6  89297357.313 6  21470207.930    21470214.348    21470207.422
        37.600          39.700    21470214.262


 112391543.400 7  87577765.650 8  21387373.859    21387383.957
        46.500          48.100    21387383.285    83928693.630 8  21387383.832
        53.500

 109379472.041 7  85072947.182 6  20476070.461    20476073.617    20476069.797
        45.700          41.100    20476072.684


 131522672.683 7                  25027938.508
        46.800                                    98214994.585 7  25027943.316
        46.000                                                   100777126.150 7
  25027942.730          45.500    99496050.976 8  25027942.957          48.600
 132422525.457 7                  25199158.281
        46.800                                    98886994.318 7  25199163.891
        47.300                                                   101466643.830 7
  25199162.445          47.100   100176819.676 8  25199163.152          50.300
 135912080.071 7                  25863205.742
        46.300                                   101492817.380 7  25863211.746
        46.900                                                   104140455.049 7
  25863210.766          46.900   102816634.322 8  25863211.336          49.700
 123572236.496 8                  23515013.813
        52.000                                    92277996.542 8  23515018.969
        52.400                                                    94685245.763 8
  23515018.152          51.900    93481619.256 9  23515018.281          55.000
 143365993.740 5                  27281643.250
        34.300                                   107059040.104 6  27281649.070
        37.200                                                   109851880.362 5
  27281646.180          33.900   108455459.330 6  27281648.477          39.500
 124216640.275 8                  23637635.008
        50.400                                    92759221.032 8  23637640.906
        51.300                                                    95179015.192 8
  23637639.918          50.600    93969119.217 8  23637640.438          53.900
 21  4 28 19 34 30.0000000  0 22G15G19G17G02G12G30G13G28R19R18G06G14
                                R09R20G24R16E30E13E21E27E19E15
 127126758.004 6  99059746.167 6  24191398.578    24191408.230
        40.700          37.900    24191408.207


 105842415.905 8  82474581.34147  20141122.016    20141127.273
        50.900          44.400


 113596089.913 7  88516461.928 7  21616617.063    21616624.828
        47.800          44.600    21616624.035


 122989231.997 6  95835832.06144  23404067.102    23404074.633
        40.900          25.800


 124948496.637 6  97362370.322 6  23776881.711    23776891.223
        38.400          37.600    23776891.199


 129890774.573 6 101213508.072 6  24717382.789    24717395.406
        37.000          38.200    24717396.059    96996290.829 7  24717395.820
        42.200

 125009880.345 6  97410327.88543  23788596.492    23788606.613
        40.000          21.700


 117067991.466 7  91221825.96645  22277297.914    22277305.133
        46.300          31.900


 103179959.221 6  80251234.581 7  19288438.102    19288441.352    19288436.871
        39.400          42.600    19288441.465


 115557803.072 7  89878433.008 6  21647910.969    21647915.879    21647910.516
        45.400          40.200    21647915.422


 114363015.058 7  89114046.761 7  21762542.594    21762552.902
        47.600          45.100    21762553.184    85400985.225 8  21762553.801
        52.000

 119931457.515 7  93453097.259 6  22822200.992    22822210.156
        42.600          41.300    22822210.289    89559244.976 8  22822214.891
        48.900

 104896879.190 8  81586473.166 7  19643816.477    19643818.520    19643815.715
        50.200          45.600    19643818.734


 114694842.480 6  89207206.836 6  21448533.391    21448539.289    21448531.871
        37.600          40.400    21448539.539


 112340308.542 7  87537842.405 8  21377623.805    21377634.379
        45.900          48.300    21377634.059    83890433.851 8  21377634.355
        53.400

 109435305.305 7  85116373.009 6  20486521.805    20486525.488    20486521.715
        44.900          41.300    20486525.234


 131574434.575 7                  25037788.125
        46.600                                    98253647.882 7  25037793.594
        46.700                                                   100816787.808 7
  25037792.602          45.500    99535208.456 8  25037793.047          49.100
 132339306.551 7                  25183321.625
        46.400                                    98824850.372 7  25183327.313
        46.900                                                   101402878.730 7
  25183327.203          47.100   100113865.153 8  25183327.020          49.300
 135853868.276 7                  25852128.766
        46.400                                   101449347.552 7  25852134.684
        47.400                                                   104095851.217 7
  25852133.316          46.400   102772597.493 8  25852133.953          49.600
 123566121.053 8                  23513850.219
        52.900                                    92273429.811 8  23513855.055
        52.200                                                    94680559.899 8
  23513854.281          51.900    93476992.958 9  23513854.547          54.800
 143400242.61015                  27288160.133
        33.600                                   107084615.553 6  27288166.605
        38.100                                                   109878123.00015
  27288165.137          33.800   108481368.381 6  27288165.789          39.600
 124206544.584 8                  23635713.578
        50.600                                    92751682.055 8  23635719.891
        51.300                                                    95171279.546 8
  23635718.961          50.900    93961481.904 8  23635719.309          53.900
 21  4 28 19 35  0.0000000  0 22G15G19G17G02G12G30G13G28R19R18G06G14
                                R09R20G24R16E30E13E21E27E19E15
 127200811.992 7  99117450.460 6  24205491.688    24205499.855
        42.200          37.200    24205499.219


 105863927.714 8  82491343.78147  20145215.461    20145220.910
        51.100          44.200


 113662999.667 7  88568599.391 7  21629349.516    21629357.215
        47.600          44.600    21629356.859


 122889812.268 6  95758362.22543  23385147.805    23385155.914
        39.900          22.800


 124865960.563 6  97298056.542 6  23761177.906    23761185.492
        38.800          37.500    23761185.516


 130002015.253 6 101300189.004 6  24738551.531    24738564.230
        37.000          37.300    24738564.016    97079360.033 6  24738563.391
        40.700

 125106848.393 6  97485887.31043  23807050.508    23807059.484
        40.600          22.000


 117115288.514 7  91258680.78045  22286299.180    22286305.957
        46.600          33.000


 103190772.347 6  80259644.791 7  19290459.250    19290462.898    19290458.438
        39.600          42.500    19290462.992


 115666569.229 7  89963028.880 6  21668286.648    21668291.020    21668286.207
        44.800          39.300    21668290.020


 114287433.978 7  89055152.434 7  21748159.031    21748170.820
        46.700          45.300    21748170.645    85344544.829 8  21748171.227
        52.100

 119999027.232 6  93505748.933 6  22835060.656    22835068.629
        41.500          40.900    22835068.539    89609702.828 8  22835072.949
        48.800

 104851862.086 8  81551459.869 7  19635385.719    19635388.492    19635385.543
        49.100          45.200    19635388.313


 114579346.787 6  89117376.900 6  21426933.430    21426940.375    21426933.387
        36.300          39.400    21426941.559


 112289553.241 7  87498292.822 8  21367965.688    21367975.914
        46.600          48.100    21367975.723    83852532.176 8  21367976.066
        53.500

 109491588.870 7  85160149.064 6  20497059.234    20497062.227    20497058.207
        44.600          40.700    20497062.172


 131626328.090 7                  25047662.945
        46.400                                    98292399.492 7  25047668.445
        46.200                                                   100856550.340 7
  25047668.145          44.900    99574465.520 8  25047668.105          48.300
 132256303.392 7                  25167526.570
        45.900                                    98762867.536 7  25167532.465
        46.300                                                   101339278.938 7
  25167532.250          46.400   100051073.843 8  25167531.980          49.100
 135795676.199 7                  25841054.844
        46.600                                   101405892.427 7  25841061.184
        46.900                                                   104051262.489 7
  25841059.949          45.700   102728575.564 8  25841060.324          49.100
 123560161.170 8                  23512716.148
        52.200                                    92268979.247 8  23512720.770
        52.000                                                    94675993.230 8
  23512719.926          51.700    93472484.346 9  23512720.426          54.700
 143434819.874 5                  27294740.648
        33.500                                   107110436.199 6  27294746.898
        37.700                                                   109904617.197 5
  27294743.508          33.100   108507525.806 6  27294745.535          39.000
 124196890.472 8                  23633876.898
        50.500                                    92744472.817 8  23633882.895
        51.200                                                    95163882.238 8
  23633881.820          50.700    93954178.631 8  23633882.160          53.800
 21  4 28 19 35 30.0000000  0 22G15G19G17G02G12G30G13G28R19R18G06G14
                                R09R20G24R16E30E13E21E27E19E15
 127275042.124 6  99175292.049 6  24219617.234    24219625.336
        41.600          38.100    24219625.574


 105885907.793 8  82508471.11347  20149398.656    20149403.637
        51.100          44.300


 113730118.941 8  88620900.099 7  21642122.461    21642129.504
        48.200          44.500    21642128.816


 122790561.650 6  95681024.17144  23366261.859    23366269.512
        40.400          26.200


 124783467.385 6  97233776.199 6  23745479.664    23745488.496
        38.100          38.400    23745488.313


 130113352.564 5 101386945.166 6  24759738.602    24759751.477
        35.000          38.300    24759751.957    97162501.298 7  24759750.852
        42.500

 125203887.632 6  97561502.18643  23825515.117    23825525.004
        39.300          21.100


 117162704.323 7  91295628.14645  22295322.117    22295328.840
        46.500          32.300


 103202380.443 6  80268673.323 7  19292628.516    19292632.965    19292628.051
        39.600          42.900    19292633.156


 115775694.714 7  90047904.232 6  21688729.992    21688734.387    21688729.207
        44.900          39.500    21688734.383


 114212271.297 7  88996584.142 7  21733856.570    21733867.914
        47.000          46.000    21733868.262    85288416.898 8  21733868.094
        52.100

 120066742.553 6  93558514.092 6  22847944.984    22847954.324
        40.900          41.100    22847953.867    89660269.400 8  22847958.590
        48.700

 104807249.579 8  81516761.269 7  19627031.148    19627033.980    19627030.801
        49.500          45.500    19627033.605


 114464266.641 6  89027870.211 6  21405414.086    21405419.492    21405413.105
        37.200          40.000    21405419.289


 112239279.668 7  87459118.604 8  21358398.867    21358409.070
        46.400          48.000    21358408.711    83814990.219 8  21358409.059
        53.700

 109548323.310 7  85204275.845 6  20507679.250    20507683.121    20507679.148
        44.900          41.300    20507682.316


 131678353.816 7                  25057562.984
        46.900                                    98331249.804 7  25057568.875
        47.100                                                   100896414.142 7
  25057567.891          45.500    99613822.578 8  25057568.426          48.900
 132173517.925 7                  25151772.914
        46.000                                    98701047.249 7  25151778.988
        46.700                                                   101275845.943 7
  25151778.434          46.700    99988447.199 8  25151778.301          49.500
 135737504.603 7                  25829985.711
        46.800                                   101362452.625 7  25829991.426
        47.200                                                   104006689.468 7
  25829990.563          46.200   102684569.148 8  25829990.602          49.200
 123554357.889 8                  23511611.672
        53.100                                    92264645.613 8  23511616.457
        52.100                                                    94671546.555 8
  23511615.996          51.900    93468094.191 9  23511616.145          54.800
 143469724.346 5                  27301382.203
        33.200                                   107136501.218 6  27301388.813
        37.600                                                   109931362.104 5
  27301386.996          34.400   108533930.768 6  27301387.473          39.200
 124187678.201 8                  23632123.727
        51.000                                    92737593.524 8  23632129.965
        51.300                                                    95156823.490 8
  23632128.832          50.800    93947209.615 8  23632129.117          53.900
