     3.03           OBSERVATION DATA    M                   RINEX VERSION / TYPE
GnssLogger          Google 14           20231107 234315 UTC PGM / RUN BY / DATE
Google GnssLogger                                           MARKER NAME
Unknown                                                     MARKER NUMBER
Unknown             Unknown                                 OBSERVER / AGENCY
Unknown             GnssLogger          v3.0.6.4            REC # / TYPE / VERS
Unknown             Unknown                                 ANT # / TYPE
        0.0000        0.0000        0.0000                  ANTENNA: DELTA H/E/N
G    8 C1C L1C D1C S1C C5Q L5Q D5Q S5Q                      SYS / # / OBS TYPES
R    4 C1C L1C D1C S1C                                      SYS / # / OBS TYPES
E    8 C1C L1C D1C S1C C5Q L5Q D5Q S5Q                      SYS / # / OBS TYPES
  2023    11    07    23    43   15.0000000     GPS         TIME OF FIRST OBS
 6 R01  1 R02 -4 R03  5 R12 -1 R13 -2 R21  4                GLONASS SLOT / FRQ #
G L1C                                                       SYS / PHASE SHIFT
G L5Q  0.00000                                              SYS / PHASE SHIFT
R L1C                                                       SYS / PHASE SHIFT
E L1C  0.00000                                              SYS / PHASE SHIFT
E L5Q  0.00000                                              SYS / PHASE SHIFT
 C1C    0.000 C1P    0.000 C2C    0.000 C2P    0.000        GLONASS COD/PHS/BIS
                                                            END OF HEADER
> 2023 11 07 23 43 15.0002755  0 19                      
G04  23440243.75725    150559.52625     -3537.65625        29.97225                                                                
G05  24248520.49923    -36865.24323      1154.22023        18.04423                                                                
G07  20928656.89226     -2313.66426        51.62926        39.16326                                                                
G08  21969142.67927     -9916.83327       212.34427        43.95227  21968977.79325     -7944.84425       158.14125        31.83125
G09  21068332.89724    105392.76224     -2413.23924        29.49124  21068169.21024     84218.04224     -1801.44524        26.72224
G14  22109629.32227   -109815.80827      2495.73527        43.14327  22109467.13425    -87781.82025      1863.59125        30.91025
G20  23247562.04826     35654.88326      -822.45926        37.91426                                                                
G22  23381007.16626   -131328.10226      2990.39926        40.95826                                                                
G27  23576171.45625     87887.52125     -2025.37525        32.55025  23576009.26825     70618.60925     -1512.81225        34.02825
G30  21623713.11524    -60596.02624      1377.49424        25.84024  21623535.03824    -48432.53324      1028.89524        28.50224
R02  19450202.20526     77193.43726     -1781.83026        39.39726
R13  20040358.64825    -32536.33125       735.67625        32.79625
R12  20165202.72126     94690.95926     -2166.93426        38.89226
R01  22749616.96824    203200.08424     -4580.72624        25.96124
R21  23676554.56223    -36165.17123       815.61823        22.34823
R03  20581345.83125   -105787.79225      2409.24125        31.75825
E07  24225409.19824     86587.65624     -1924.08024        26.82224  24225255.10524     65781.07524     -1436.43324        28.35924
E27  23311805.47325     -2005.32525        51.66325        33.95825                                                                
E30  25352017.86325    104594.58325     -2353.86825        31.88525                                                                
> 2023 11 07 23 43 16.0002754  0 19                      
G04  23440891.00924    154096.59224     -3537.71324        27.90924                                                                
G05  24248271.97123    -38021.22023      1153.88923        20.24423                                                                
G07  20928616.42026     -2363.82626        49.88026        37.31226                                                                
G08  21969071.02927    -10129.07627       211.80427        44.19127  21968907.34225     -8103.17725       158.59925        30.21125
G09  21068758.90225    107803.71225     -2411.50525        30.24525  21068593.71624     86018.19124     -1800.67124        26.10524
G14  22109123.87227   -112310.87027      2495.61427        42.70527  22108961.68424    -89645.07224      1863.15724        27.49424
G20  23247685.56226     36478.08426      -821.93726        37.72326                                                                
G22  23380409.97926   -134317.44326      2989.46226        40.99126                                                                
G27  23576522.51325     89913.01125     -2024.70525        33.38625  23576364.22325     72131.43825     -1513.46825        32.47025
G30  21623421.11724    -61973.58124      1377.88224        25.39424  21623242.74124    -49461.64024      1029.39424        29.23524
R02  19450501.69826     78975.22426     -1782.48726        38.07126
R13  20040198.55925    -33271.32525       736.08325        32.82525
R12  20165581.35926     96859.46826     -2168.11726        39.17926
R01  22750436.60024    207776.63324     -4576.46524        28.38824
R21  23676380.68323    -36984.67823       814.99023        22.89423
R03  20580864.66425   -108197.42825      2408.61625        31.72525
E07  24225745.26625     88510.70425     -1923.35125        29.77325  24225591.47224     67217.24024     -1435.45624        29.10524
E27  23311764.10225     -2057.44525        51.90125        32.76525                                                                
E30  25352435.77425    106947.03825     -2352.90625        32.80925                                                                
> 2023 11 07 23 43 17.0002752  0 19                      
G04  23441506.18324    157633.53424     -3537.06724        28.29124                                                                
G05  24247992.86422    -39173.01322      1154.14622        16.51022                                                                
G07  20928543.87126     -2413.28226        49.08926        38.55726                                                                
G08  21968969.39927    -10340.46627       211.45227        42.56727  21968806.61224     -8264.73524       158.08524        28.10424
G09  21069160.32425    110214.65225     -2410.85925        32.33725  21068993.04024     87819.43224     -1800.82824        27.13524
G14  22108589.64227   -114804.88327      2492.90227        42.26627  22108426.55524    -91507.88724      1862.37224        29.14124
G20  23247784.49426     37302.51526      -824.32426        38.24926                                                                
G22  23379783.11326   -137306.21326      2989.60326        40.46626                                                                
G27  23576848.08825     91938.74325     -2024.81125        33.66425  23576689.19825     73645.13925     -1513.14025        34.57725
G30  21623091.94524    -63350.24424      1376.03724        26.63224  21622920.16425    -50489.98725      1028.55925        29.79725
R02  19450782.30426     80757.95626     -1782.42926        38.86926
R13  20039998.59825    -34006.61125       735.57925        33.37125
R12  20165917.12626     99028.92826     -2168.86126        38.43826
R01  22751226.85325    212351.15125     -4575.91425        29.57025
R21  23676168.72924    -37803.74124       815.51024        24.00124
R03  20580346.62325   -110606.68825      2409.33125        31.23725
E07  24226051.05425     90434.31925     -1923.06725        29.66725  24225896.66125     68653.04725     -1435.59425        30.59125
E27  23311696.04925     -2110.11025        52.06325        34.32525  23311534.46123     -2146.88423        39.01523        22.00423
E30  25352822.20625    109299.88325     -2352.26725        32.73825                                                                
> 2023 11 07 23 43 18.0002751  0 19                      
G04  23442149.53825    161171.35125     -3537.46025        30.75925                                                                
G05  24247741.63823    -40323.43823      1153.92023        20.07523                                                                
G07  20928502.79926     -2462.73826        50.30326        37.06626                                                                
G08  21968899.84727    -10550.66127       210.17627        41.70127  21968735.26125     -8428.20125       157.70325        29.89025
G09  21069589.32725    112626.36925     -2411.24825        32.91225  21069421.74325     89620.81725     -1801.10625        30.70625
G14  22108083.89227   -117297.43027      2491.48427        42.04827  22107922.60425    -93370.13725      1862.47525        31.31625
G20  23247911.90526     38128.78026      -826.75526        37.96626                                                                
G22  23379181.13026   -140293.36126      2987.03026        40.27026                                                                
G27  23577205.74025     93965.96625     -2026.13825        33.77225  23577044.75225     75159.62825     -1514.18225        34.01725
G30  21622796.94924    -64726.83224      1376.23624        29.07424  21622627.56625    -51518.09225      1028.42825        29.75225
R02  19451092.58926     82541.20426     -1783.04726        37.79626
R13  20039834.61125    -34740.56225       734.65525        33.81025
R12  20166306.55626    101199.17526     -2170.59626        37.62126
R01  22752050.38324    216927.94824     -4577.43024        28.37324
R21  23675986.15623    -38619.44823       814.88923        22.33823
R03  20579862.45825   -113015.25825      2408.96125        31.07225
E07  24226388.62025     92357.90225     -1923.26825        30.33425  24226232.42825     70089.94025     -1436.27025        31.76325
E27  23311657.37525     -2161.99625        51.93725        34.95225  23311493.38924     -2185.21724        38.53824        26.36124
E30  25353240.11725    111652.50025     -2352.05825        33.15225                                                                
> 2023 11 07 23 43 19.0002750  0 20                      
G04  23442793.79225    164709.23325     -3537.65025        30.20825                                                                
G05  24247494.00923    -41473.75123      1151.53023        18.23023                                                                
G07  20928462.32725     -2512.48725        50.86525        35.42025                                                                
G08  21968828.49727    -10760.08227       209.34527        43.70627  21968664.21024     -8591.34124       156.76024        28.96424
G09  21070017.43025    115039.35325     -2413.32625        33.30925  21069851.04625     91422.09725     -1801.55425        31.82825
G14  22107578.74227   -119790.41727      2492.88327        41.73227  22107418.05325    -95232.52025      1862.23525        31.51525
G20  23248038.11826     38955.65526      -826.95726        38.49526                                                                
G22  23378584.84226   -143280.41626      2986.89426        39.75326                                                                
G27  23577559.49525     95994.21325     -2028.51725        33.96325  23577400.00625     76674.28625     -1514.92425        32.54325
G30  21622502.55324    -66103.57724      1377.72124        28.29124  21622336.16825    -52546.09925      1027.65925        30.51925
R02  19451393.28126     84325.71226     -1785.50426        36.90326
R13  20039672.12425    -35472.86425       731.65925        34.05625
R12  20166688.79226    103369.23626     -2168.65726        38.84326
R01  22752863.12124    221506.26024     -4578.00124        28.84524
R21  23675792.19023    -39433.80123       814.29223        22.49823
R03  20579375.89525   -115422.30925      2406.98725        30.04725
E07  24226725.28725     94281.99225     -1923.80125        31.23125  24226568.19625     71526.56125     -1436.60725        33.07425
E19  27009725.05622   -106366.67722      2377.59722        16.28122                                                                
E27  23311618.40225     -2213.35425        51.61125        34.78225  23311454.41624     -2223.79824        38.18824        24.43524
E30  25353655.03025    114005.46425     -2352.38325        32.79125                                                                
> 2023 11 07 23 43 20.0002748  0 19                      
G04  23443401.47124    168247.30224     -3537.92324        28.02824                                                                
G07  20928390.07725     -2561.08425        48.94325        35.40025                                                                
G08  21968729.86527    -10968.59227       208.16627        44.47427  21968564.37925     -8749.87925       155.55825        31.16725
G09  21070416.15425    117453.26825     -2414.84225        32.73425  21070250.96925     93224.46025     -1802.10925        30.95825
G14  22107043.61227   -122283.24327      2493.84827        42.09227  22106882.02425    -97094.05925      1861.50625        31.08725
G20  23248132.85326     39782.33126      -826.56926        37.81926                                                                
G22  23377953.18026   -146266.90926      2985.81426        39.38226                                                                
G27  23577885.37026     98024.17426     -2030.55926        35.50726  23577726.77925     78189.84725     -1515.44925        33.78125
G30  21622182.67424    -67480.52024      1378.87324        28.17524  21622014.19125    -53573.36125      1027.35125        32.36225
R02  19451659.79626     86112.50126     -1787.78026        37.58726
R13  20039476.05925    -36204.37825       730.96825        33.91625
R12  20167042.84726    105539.59726     -2169.12526        40.39926
R01  22753672.56024    226085.24124     -4578.68424        29.13024
R21  23675580.23723    -40247.23023       814.76923        19.04023
R03  20578868.04625   -117827.77225      2404.35025        30.01325
E07  24227032.27525     96207.16425     -1924.81725        29.95925  24226873.68425     72964.22225     -1437.31325        32.47925
E19  27009201.61922   -108744.32622      2377.47022        15.90422                                                                
E27  23311550.35025     -2263.52925        50.76525        34.40025  23311384.26424     -2261.41124        37.63824        25.14024
E30  25354045.06025    116359.44825     -2353.35625        32.67125                                                                
> 2023 11 07 23 43 21.0002747  0 19                      
G04  23444036.73124    171786.57124     -3540.06924        27.16624                                                                
G07  20928353.20325     -2608.20225        45.82925        35.01325                                                                
G08  21968659.11427    -11176.02227       206.92427        44.49027  21968494.52825     -8905.14225       155.00825        31.72525
G09  21070843.65825    119868.48025     -2416.14425        33.08925  21070680.57125     95027.40625     -1803.09625        31.42325
G14  22106539.06127   -124775.44327      2492.25527        41.71627  22106377.77325    -98955.12725      1861.17525        31.12725
G20  23248259.36526     40610.84326      -829.32826        37.88226                                                                
G22  23377353.89526   -149252.68126      2984.85026        38.78126                                                                
G27  23578241.52326    100055.05326     -2030.76426        36.30626  23578082.33325     79706.06625     -1516.32225        34.53525
G30  21621887.97824    -68855.63924      1374.30324        27.83124  21621722.79325    -54600.37625      1026.78325        33.71425
R02  19451971.88026     87899.38126     -1787.56626        38.08426
R13  20039308.17625    -36935.32425       730.46125        33.47025
R12  20167413.99026    107710.71726     -2170.59726        40.28126
R01  22754501.78624    230664.02824     -4580.09824        28.44924
R21  23675394.06623    -41059.77123       813.91823        19.46923
R03  20578388.07824   -120231.36624      2401.57524        28.70624
E07  24227370.44025     98133.10625     -1926.01225        30.80325  24227210.05125     74402.37625     -1438.24525        32.91325
E19  27008723.45022   -111121.86822      2377.56822        15.25122                                                                
E27  23311511.07725     -2312.74825        49.61125        33.90525  23311344.39224     -2298.63824        37.53924        25.27124
E30  25354464.46925    118714.21825     -2354.58125        33.68225                                                                
> 2023 11 07 23 43 22.0002746  0 19                      
G04  23444680.38624    175325.69524     -3539.58424        27.89624                                                                
G07  20928310.03225     -2653.92325        43.63625        33.45225                                                                
G08  21968590.16227    -11382.53227       205.39127        43.20827  21968424.07625     -9059.61025       154.52525        33.65025
G09  21071268.16525    122283.78125     -2415.37325        32.92325  21071109.57425     96830.60825     -1802.90325        34.01225
G14  22106035.11027   -127266.82627      2490.50327        42.10827  22105874.12225   -100815.59225      1860.88525        31.87225
G20  23248389.77526     41439.84826      -829.65226        38.13926                                                                
G22  23376756.70826   -152238.61826      2986.38026        39.47126                                                                
G27  23578598.87626    102085.96826     -2030.92226        35.83426  23578438.18725     81222.76325     -1516.74725        31.72125
G30  21621598.97824    -70229.72024      1372.89524        28.95924  21621430.49525    -55627.26425      1026.79025        32.84825
R02  19452288.16126     89687.54926     -1789.50926        36.28126
R13  20039138.49325    -37666.03225       730.30725        33.34325
R12  20167788.43126    109883.34126     -2173.80526        39.49526
R01  22755340.00624    235243.75724     -4579.10124        27.79824
R21  23675200.10023    -41871.53023       813.22223        19.76323
R03  20577918.30424   -122635.27424      2403.28124        28.46424
E07  24227707.10725    100059.80525     -1927.09425        32.36325  24227545.81925     75840.54825     -1437.85625        34.09625
E19  27008239.58522   -113499.42922      2377.53022        15.75722                                                                
E27  23311471.50425     -2361.42725        48.51625        33.46625  23311304.52025     -2335.05325        36.74425        29.82125
E30  25354883.57925    121069.28725     -2355.54725        33.06125                                                                
> 2023 11 07 23 43 23.0002745  0 20                      
G04  23445329.13624    178865.51124     -3540.88124        27.01824                                                                
G05  24246490.30422    -46089.49322      1151.46322        15.51122                                                                
G07  20928274.05725     -2700.18625        44.42125        33.20325                                                                
G08  21968520.61027    -11588.65727       206.22827        42.96927  21968353.62526     -9214.28926       155.09426        36.77126
G09  21071700.16625    124698.78625     -2415.01525        31.90725  21071538.87725     98634.25725     -1803.10525        33.95525
G14  22105530.56027   -129758.29027      2491.33827        41.89827  22105370.77025   -102676.19325      1861.05725        32.69625
G20  23248517.78626     42268.80026      -828.82526        38.03926                                                                
G22  23376155.92426   -155224.53126      2985.74026        38.97326                                                                
G27  23578952.03126    104116.90426     -2030.68526        35.52126  23578794.34024     82739.42124     -1516.33924        28.33724
G30  21621312.97624    -71603.78024      1372.13424        28.85924  21621138.19725    -56654.31025      1027.22125        31.85625
R02  19452587.05426     91476.14426     -1788.94926        36.22426
R13  20038969.11025    -38396.52725       730.14625        33.37025
R12  20168163.77126    112055.92526     -2173.49326        39.15226
R01  22756165.33524    239822.33224     -4579.20224        27.97124
R21  23675020.52423    -42682.64223       812.63523        18.49423
R03  20577437.73624   -125039.85424      2405.18024        29.43724
E07  24228046.17325    101986.34125     -1927.50125        32.11625  24227882.78625     77279.06025     -1438.12425        34.59125
E19  27007730.83722   -115876.98922      2377.56122        15.71622                                                                
E27  23311431.93125     -2409.94325        47.78025        32.93525  23311264.94725     -2371.56325        37.00125        31.28625
E30  25355301.79025    123424.24625     -2355.96625        32.19325                                                                
> 2023 11 07 23 43 24.0002743  0 20                      
G04  23445932.91824    182404.72324     -3540.01624        28.41424                                                                
G05  24246188.71322    -47241.14222      1151.46322        16.19422                                                                
G07  20928204.20625     -2747.56425        47.01325        32.08925                                                                
G08  21968421.67827    -11794.90927       206.59727        42.73227  21968254.99426     -9368.12526       154.73426        37.53426
G09  21072097.69025    127113.84125     -2414.90225        32.50525  21071938.50125    100437.80025     -1803.35725        34.17925
G14  22104994.53127   -132250.28727      2493.25027        41.98627  22104836.54025   -104536.73325      1860.54525        31.16325
G20  23248608.02426     43097.25726      -826.86226        37.80126                                                                
G22  23375531.75626   -158210.51326      2986.11526        39.13226                                                                
G27  23579275.80725    106148.63425     -2031.90725        35.01425  23579120.21524     84256.76524     -1517.22124        27.69724
G30  21620993.39825    -72978.76025      1375.08025        30.50925  21620816.52025    -57681.24225      1027.27125        30.96825
R02  19452865.26226     93264.17326     -1786.95126        36.33726
R13  20038772.74625    -39126.55125       730.17525        33.09725
R12  20168501.33726    114228.05026     -2172.72326        37.68926
R01  22756946.89324    244401.83824     -4579.80824        28.15124
R21  23674819.96323    -43489.58223       810.75923        23.02423
R03  20576931.98624   -127444.49524      2405.83224        28.64824
E07  24228352.86025    103913.22525     -1927.52325        31.31525  24228188.87425     78717.35725     -1438.36725        33.85725
E19  27007239.77722   -118254.60322      2377.53022        15.42822                                                                
E27  23311362.38025     -2458.11425        47.49925        32.73925  23311195.09525     -2408.17225        37.27825        30.94825
E30  25355691.52025    125779.43225     -2355.98925        31.44925                                                                
> 2023 11 07 23 43 25.0002742  0 20                      
G04  23446578.37225    185944.19325     -3539.77825        30.68525                                                                
G05  24245924.89522    -48392.52522      1151.46322        15.33422                                                                
G07  20928164.03425     -2796.23025        49.33325        32.61225                                                                
G08  21968352.12627    -12000.16627       205.09527        42.45327  21968185.74126     -9521.94026       153.55026        36.61726
G09  21072525.79425    129529.49925     -2415.79225        31.51625  21072368.70325    102241.41025     -1804.09325        34.15025
G14  22104493.27827   -134741.39527      2490.36327        41.75827  22104332.88925   -106396.88825      1860.65725        31.56325
G20  23248737.53426     43925.92526      -828.38026        37.48926                                                                
G22  23374929.17326   -161196.77326      2987.28426        38.86726                                                                
G27  23579632.56025    108180.83925     -2031.97725        35.07325  23579476.96824     85774.63424     -1519.44024        25.49224
G30  21620704.69825    -74354.38525      1376.79825        30.91325  21620525.12225    -58707.81925      1027.10625        31.37425
R02  19453162.35626     95052.79326     -1786.66926        37.42026
R13  20038604.86325    -39856.35925       729.81225        32.87025
R12  20168884.77226    116400.03626     -2171.41626        38.68126
R01  22757792.60824    248981.61624     -4580.35624        27.21824
R21  23674633.79223    -44300.48423       810.14623        23.13423
R03  20576459.81324   -129847.84824      2403.41124        28.76024
E07  24228692.82525    105839.96425     -1927.00125        32.02225  24228524.94125     80156.27925     -1438.59425        33.41525
E19  27006755.91222   -120632.14722      2377.56722        14.88022                                                                
E27  23311322.80725     -2506.31625        47.62725        32.25125  23311155.82325     -2444.90525        36.47125        31.36025
E30  25356110.93025    128134.14025     -2355.41825        31.34425                                                                
> 2023 11 07 23 43 26.0002741  0 18                      
G04  23447225.32425    189484.51225     -3540.68825        31.30425                                                                
G07  20928123.56225     -2843.91625        49.21725        34.33525                                                                
G08  21968281.97527    -12204.67127       204.74927        43.66727  21968116.78926     -9674.51526       152.97326        35.92426
G09  21072956.89625    131945.94725     -2416.33425        30.81425  21072798.30525    104046.30625     -1804.81725        32.22925
G14  22103987.52827   -137231.46327      2489.82927        41.55127  22103828.33825   -108258.42125      1859.98825        29.58525
G20  23248870.04226     44756.77926      -831.47626        37.61726                                                                
G22  23374334.68526   -164181.82926      2983.97126        38.57026                                                                
G27  23579992.31125    110213.77525     -2033.14225        35.32725  23579831.62223     87297.48823     -1518.06623        21.40923
G30  21620421.39425    -75730.26125      1377.30625        31.03425  21620232.52425    -59734.65225      1026.65125        30.45225
R02  19453462.14826     96842.79426     -1789.65326        37.08726
R13  20038440.57625    -40585.08025       728.69525        32.06725
R12  20169259.81226    118572.52126     -2172.15226        40.35826
R01  22758616.13824    253562.83124     -4581.17624        27.45924
R21  23674459.01324    -45110.77724       808.44924        24.32324
R03  20575968.15424   -132249.70024      2402.12624        27.89224
E07  24229031.89025    107768.13025     -1926.94125        31.34325  24228861.60825     81595.66525     -1438.88625        31.48125
E27  23311281.73525     -2553.86025        47.66225        32.05925  23311117.14924     -2480.64724        36.29624        28.57224
E30  25356526.44225    130489.43425     -2355.09225        31.52525                                                                
> 2023 11 07 23 43 27.0002739  0 18                      
G04  23447838.99925    193025.39025     -3541.44525        31.19525                                                                
G07  20928055.80826     -2891.12126        48.02626        36.32626                                                                
G08  21968182.44427    -12408.50227       203.79727        44.98927  21968018.15726     -9826.47026       152.57126        36.35526
G09  21073357.11825    134363.38425     -2417.92725        31.62925  21073198.22825    105851.32125     -1804.67425        32.74425
G14  22103451.19927   -139721.49227      2489.81727        41.82727  22103292.60925   -110117.73525      1860.14625        32.25025
G20  23248969.87326     45588.24726      -832.23626        37.97626                                                                
G22  23373704.52126   -167165.38326      2982.32626        38.37926                                                                
G27  23580319.08525    112247.84525     -2034.29125        35.46725                                                                
G30  21620100.61625    -77105.67625      1376.16425        29.61825  21619910.54725    -60761.10225      1026.40625        32.16825
R02  19453741.25526     98634.92426     -1792.16826        38.10226
R13  20038253.50625    -41313.60225       728.52625        31.36625
R12  20169606.67226    120746.05726     -2173.96226        40.20626
R01  22759414.48524    258142.89524     -4581.65624        28.35524
R21  23674254.25523    -45921.68023       808.09723        22.59423
R03  20575453.11025   -134651.50025      2401.86925        29.54525
E07  24229337.67925    109695.74025     -1927.01925        31.67125  24229167.69625     83035.22425     -1439.04425        32.21725
E27  23311213.38325     -2601.70425        47.67525        34.20925  23311048.79724     -2520.21624        34.81624        24.82424
E30  25356912.57525    132844.25425     -2354.73225        29.92425                                                                
> 2023 11 07 23 43 28.0002738  0 18                      
G04  23448480.55525    196565.56925     -3540.34725        31.41325                                                                
G07  20928015.63626     -2937.80026        46.41926        36.15226                                                                
G08  21968112.59227    -12611.80027       202.99627        44.25227  21967949.20525     -9978.85425       152.13525        33.91525
G09  21073792.41725    136780.62125     -2417.55125        32.41725  21073628.43125    107658.98625     -1804.73025        31.94225
G14  22102948.74727   -142211.07527      2489.09327        42.20327  22102788.65825   -111977.63725      1859.68125        31.61525
G20  23249092.18826     46420.33126      -833.51026        37.67226                                                                
G22  23373104.33726   -170150.40226      2986.38826        38.08826                                                                
G27  23580677.03726    114281.79326     -2033.76626        35.75426                                                                
G30  21619807.11925    -78480.13525      1374.06925        29.88825  21619618.84925    -61787.38425      1026.91225        30.79125
R02  19454044.64526    100427.18426     -1791.29226        37.16926
R13  20038085.92225    -42041.62425       727.91725        31.20125
R12  20169987.40826    122920.16826     -2175.65626        38.55826
R01  22760246.40924    262725.97724     -4580.43824        26.66624
R21  23674077.97723    -46731.84123       806.49123        23.36023
R03  20574965.04824   -137052.74224      2401.03924        28.55624
E07  24229673.44625    111622.92525     -1927.30925        32.09125  24229504.06325     84474.76125     -1439.19725        31.02425
E27  23311172.01125     -2649.70625        47.74125        34.56525  23311010.42323     -2567.05023        35.36023        21.40023
E30  25357333.18425    135198.83925     -2354.54625        29.55125                                                                
> 2023 11 07 23 43 29.0002737  0 19                      
G04  23449124.20925    200105.62725     -3539.55325        31.72925                                                                
G05  24244911.89724    -52990.00924      1146.76324        25.32824                                                                
G07  20927976.66326     -2984.45126        45.78726        36.72926                                                                
G08  21968044.23927    -12814.86727       203.32027        43.54827  21967879.95325    -10131.10425       151.85125        31.77825
G09  21074229.21525    139198.52125     -2418.36325        32.80825  21074058.03325    109470.66625     -1805.35125        31.00725
G14  22102444.19627   -144700.47127      2488.94927        41.71627  22102284.70725   -113837.48625      1859.69425        32.39325
G20  23249220.20026     47252.62826      -832.75826        37.48526                                                                
G22  23372510.44826   -173135.73626      2986.19726        38.92926                                                                
G27  23581036.48826    116316.16426     -2034.67826        35.65126                                                                
G30  21619512.42325    -79854.47325      1373.67425        30.05325  21619327.45125    -62815.27325      1026.86525        30.16625
R02  19454340.24126    102219.51726     -1791.61426        37.34926
R13  20037926.43225    -42770.10325       728.19025        31.72325
R12  20170365.14726    125094.27826     -2175.37926        38.07026
R01  22761036.36224    267306.92524     -4578.21824        25.87324
R21  23673899.00123    -47542.46223       806.88223        23.19523
R03  20574475.48724   -139452.94424      2399.19524        28.94924
E07  24230007.41525    113550.73225     -1927.68525        31.54925  24229840.43125     85914.06725     -1439.41125        30.81925
E27  23311133.63826     -2696.91326        47.56526        35.57726                                                                
E30  25357752.59325    137552.99125     -2354.52725        29.54325                                                                
> 2023 11 07 23 43 30.0002736  0 19                      
G04  23449767.86425    203645.37625     -3538.06525        31.87125                                                                
G05  24244658.27224    -54136.83524      1145.81124        26.48224                                                                
G07  20927939.78926     -3031.20526        46.34026        36.94226                                                                
G08  21967974.38827    -13017.40627       202.81627        44.67027  21967811.00125    -10281.94425       151.09625        31.94225
G09  21074661.81525    141616.83125     -2418.91025        32.46525  21074487.63625    111276.69925     -1805.82025        31.42125
G14  22101939.64627   -147189.97027      2488.74327        41.88527  22101780.45625   -115696.42525      1859.54325        33.22225
G20  23249351.80926     48085.01226      -831.91326        38.44626                                                                
G22  23371906.96526   -176120.12626      2983.72826        38.16526                                                                
G27  23581392.94125    118351.05125     -2034.85825        34.80825                                                                
G30  21619216.82824    -81228.27424      1373.06324        28.04224  21619035.15325    -63841.41125      1026.47725        30.43025
R02  19454657.12126    104013.09526     -1793.73926        38.18626
R13  20037758.24925    -43498.13025       728.71725        31.89825
R12  20170747.38226    127266.90726     -2171.00926        39.56426
R01  22761875.18224    271886.36324     -4579.84724        25.97424
R21  23673714.32923    -48353.94223       807.88323        21.54123
R03  20574003.61425   -141852.67125      2399.54925        30.61425
E07  24230344.98125    115478.25425     -1928.16225        31.51925  24230176.79825     87353.96525     -1439.47325        31.15525
E27  23311088.07026     -2743.56826        47.12426        36.02926                                                                
E30  25358172.30324    139907.46724     -2354.73324        27.92724                                                                
> 2023 11 07 23 43 31.0002734  0 20                      
G04  23450387.23525    207185.68325     -3539.63925        31.34725                                                                
G05  24244385.76124    -55283.46724      1146.77924        26.31824                                                                
G07  20927870.53726     -3077.75426        46.20226        37.60926                                                                
G08  21967877.25527    -13218.96927       202.21827        43.60527  21967713.26924    -10436.50624       148.49324        28.44524
G09  21075061.43925    144036.13925     -2419.28725        32.72425  21074883.06225    113083.24825     -1806.05125        31.91225
G14  22101409.01326   -149678.25026      2488.20526        41.34226  22101245.62625   -117553.14125      1858.19225        33.12825
G20  23249447.14326     48918.20226      -832.58426        38.44426                                                                
G22  23371283.09726   -179103.26826      2982.35426        38.75326                                                                
G27  23581721.21425    120387.26125     -2036.34325        34.70025  23581558.12724     94888.18724     -1519.89424        28.70724
G30  21618889.75424    -82602.39724      1373.65824        28.39824  21618713.77625    -64867.02225      1026.10325        29.95525
R02  19454933.53026    105808.42126     -1795.86126        38.33026
R13  20037551.09225    -44225.34225       727.67625        32.27225
R12  20171090.34526    129440.46426     -2172.78526        38.60226
R01  22762678.32624    276467.83124     -4581.98724        26.87124
R21  23673514.06723    -49166.53523       806.23823        21.63623
R03  20573538.03625   -144251.31425      2398.13225        31.61525
E07  24230650.77024    117409.44824     -1928.71224        29.21324  24230483.48525     88794.53325     -1440.03625        32.10325
E19  27003770.57922   -134897.45022      2377.49322        12.68522                                                                
E27  23311023.01525     -2790.42725        46.70825        35.17325                                                                
E30  25358562.33324    142262.40224     -2355.04224        28.10524                                                                
> 2023 11 07 23 43 32.0002733  0 20                      
G04  23451027.89124    210726.43324     -3540.80224        28.92524                                                                
G05  24244133.93524    -56429.27724      1144.06024        26.83324                                                                
G07  20927835.16126     -3123.79026        45.09926        39.69926                                                                
G08  21967811.90026    -13420.66026       202.45426        38.27226  21967647.01425    -10586.66725       150.28925        33.02625
G09  21075497.63725    146455.24825     -2419.09525        31.82925  21075314.16424    114889.78224     -1806.51524        28.20824
G14  22100894.26926   -152167.35826      2489.48126        35.97226  22100741.97525   -119411.22225      1858.43825        32.64125
G20  23249577.55226     49751.30326      -832.05926        37.90326                                                                
G22  23370685.91127   -182086.34827      2983.20327        42.48427                                                                
G27  23582075.56925    122423.93925     -2037.70725        33.01425  23581915.18026     96408.41726     -1519.92326        35.68426
G30  21618584.56524    -83976.12124      1373.74324        26.25324  21618421.47824    -65893.50424      1025.82324        28.83724
R02  19455254.00826    107603.99626     -1794.64726        37.91826
R13  20037389.50425    -44951.99825       726.26125        32.82825
R12  20171460.28926    131615.16926     -2175.69026        36.65926
R01  22763495.56025    281049.75225     -4581.98125        31.38225
R21  23673340.78724    -49969.73724       804.51924        27.31724
R03  20573046.07725   -146649.44725      2398.37325        30.93725
E07  24230986.83725    119340.31925     -1929.33725        32.42125  24230820.15225     90234.92225     -1440.40325        30.73325
E19  27003304.40122   -137275.02522      2377.53622        14.39722                                                                
E27  23310984.94125     -2836.44525        46.07125        35.13625  23310820.65524     -2691.73424        34.68324        27.63724
E30  25358975.44725    144618.04125     -2355.57025        30.67125                                                                
> 2023 11 07 23 43 33.0002732  0 19                      
G04  23451671.84524    214264.80124     -3539.57524        29.28124  23451499.16524    162637.65424     -2643.99424        24.87424
G05  24243882.70923    -57578.11123      1150.49623        22.54523                                                                
G07  20927799.78626     -3170.01026        45.40326        36.79726                                                                
G08  21967735.75327    -13624.07027       204.18827        43.41727  21967573.26526    -10738.12926       150.89226        35.54826
G09  21075925.14125    148877.67525     -2418.44125        34.15425  21075743.16725    116697.54125     -1807.50525        33.32325
G14  22100403.50926   -154658.20026      2491.26326        39.73226  22100238.92325   -121271.72425      1860.64525        30.70925
G20  23249705.56425     50583.21125      -832.38325        34.56525                                                                
G22  23370082.72826   -185071.93126      2985.87026        40.46826                                                                
G27  23582434.72026    124459.90126     -2035.97126        40.42426  23582272.53225     97928.53725     -1520.41025        34.08225
G30  21618296.46524    -85352.18124      1376.10224        28.60024  21618130.68024    -66918.29824      1025.36224        25.90624
R02  19455552.90126    109399.43426     -1795.58826        38.53726
R13  20037224.61825    -45679.97225       727.00825        33.20925
R12  20171856.61426    133790.18426     -2175.39826        37.24726
R01  22764318.49025    285632.21425     -4583.58725        30.59525
R21  23673162.41124    -50771.17124       803.50724        24.99624
R03  20572579.30024   -149048.66724      2399.36124        28.31624
E07  24231321.70525    121264.66225     -1930.06525        31.86925  24231156.51925     91676.54825     -1440.91325        30.52825
E27  23310945.66825     -2882.24925        45.57425        34.32625  23310781.68224     -2726.53924        34.82724        27.40924
E30  25359389.16025    146972.89225     -2355.07525        32.48825  25359233.86823    112251.57123     -1757.32523        22.48023
> 2023 11 07 23 43 34.0002730  0 20                      
G04  23452284.32125    217801.97725     -3539.86425        30.81825                                                                
G05  24243599.70523    -58730.18023      1151.14523        21.57023                                                                
G07  20927730.53425     -3215.53125        45.47025        33.94025                                                                
G08  21967637.42126    -13826.21226       200.50126        40.85226  21967477.63225    -10889.25025       150.84325        31.65425
G09  21076302.28026    151298.29726     -2419.58926        36.89326  21076144.88925    118505.58525     -1808.23825        34.77925
G14  22099864.78227   -157149.70327      2491.53627        42.12827  22099705.29225   -123133.01925      1861.25725        30.21125
G20  23249802.99625     51415.84425      -830.14125        33.52425                                                                
G22  23369454.36327   -188060.71027      2989.99627        42.73527                                                                
G27  23582758.19626    126496.22126     -2036.52726        39.87526  23582598.40726     99449.30026     -1521.04726        36.88426
G30  21617969.69124    -86729.84524      1378.65524        28.91024  21617809.90224    -67945.40624      1027.67124        23.75124
R02  19455822.41426    111194.89126     -1795.93126        39.86026
R13  20037028.25425    -46408.62825       728.16125        31.07825
R12  20172193.88125    135966.18925     -2175.50525        34.71225
R01  22765122.83325    290214.48925     -4583.36525        32.33825
R21  23672950.45723    -51570.50023       799.66123        23.06523
R03  20572066.05524   -151447.90224      2400.14424        27.71824
E07  24231628.39325    123182.33525     -1930.46425        34.00025  24231462.90725     93118.30925     -1441.68225        31.71025
E19  27002313.88722   -142030.00222      2377.57222        16.42122                                                                
E27  23310875.21725     -2928.06725        45.47825        35.40925  23310711.53024     -2761.85224        35.29424        28.34724
E30  25359775.89225    149327.28125     -2354.35125        32.54925  25359620.00023    114009.29323     -1757.21523        21.79723
> 2023 11 07 23 43 35.0002729  0 20                      
G04  23452918.38225    221340.13125     -3542.02825        33.71625                                                                
G05  24243351.47723    -59882.15623      1150.14423        19.90823                                                                
G07  20927689.76225     -3260.90825        44.68425        30.36525                                                                
G08  21967571.76727    -14027.28327       200.93927        41.80427  21967408.67925    -11036.89325       149.43325        33.68925
G09  21076738.77726    153718.67826     -2420.64826        39.39826  21076574.79125    120312.43125     -1806.72925        33.86025
G14  22099359.03227   -159642.92227      2493.16427        43.96427  22099201.04125   -124989.88425      1860.23825        29.71125
G20  23249936.10426     52246.11126      -830.03726        36.05626                                                                
G22  23368853.87927   -191049.88027      2991.24627        42.65327                                                                
G27  23583119.44626    128535.54326     -2039.39926        37.40826  23582956.05925    100972.12225     -1524.37825        35.19825
G30  21617683.98924    -88107.00224      1379.08724        28.93724  21617517.00423    -68973.13323      1027.48823        21.82123
R02  19456126.40426    112990.76926     -1796.71126        41.13326
R13  20036859.17124    -47135.51224       727.22724        29.24624
R12  20172569.52125    138140.65125     -2174.82625        31.85525
R01  22765961.35324    294797.54924     -4582.53824        28.70424
R21  23672772.38123    -52365.40223       800.70823        22.92423
R03  20571598.67924   -153842.41824      2396.45924        25.58824
E07  24231958.76426    125111.35526     -1928.34926        37.51526  24231801.37325     94558.43625     -1439.88725        32.83825
E19  27001833.02022   -144407.69822      2377.57122        16.48922                                                                
E27  23310836.24426     -2974.37926        46.95226        36.62726  23310672.85724     -2796.72024        35.23624        28.34724
E30  25360191.10525    151682.44725     -2354.28925        31.99525  25360026.21925    115768.98825     -1761.53525        32.76725
> 2023 11 07 23 43 36.0002728  0 19                      
G04  23453557.54025    224882.26525     -3542.75825        33.11325  23453394.45324    170566.76224     -2645.35624        23.91724
G05  24243103.24923    -61034.41323      1149.30223        21.49923                                                                
G07  20927661.28225     -3306.11125        45.27625        30.63625                                                                
G08  21967506.11226    -14227.89726       203.37026        37.38526  21967340.32725    -11182.69625       146.57225        31.74525
G09  21077168.08027    156138.26027     -2418.83427        41.98027  21077004.99325    122119.11225     -1806.07825        34.19125
G14  22098857.18026   -162135.77926      2492.84126        41.27026  22098695.29225   -126848.91425      1862.89125        30.75025
G20  23250063.81625     53077.52825      -830.63325        33.79125                                                                
G22  23368255.49327   -194040.08627      2990.23027        42.78927                                                                
G27  23583478.59725    130577.98225     -2042.68525        35.28825  23583315.51025    102497.54925     -1525.00925        35.08525
G30  21617398.88624    -89482.70524      1376.08424        28.77024  21617224.10724    -69999.43024      1027.56524        24.15824
R02  19456433.69126    114786.61126     -1794.97926        38.51126
R13  20036681.69424    -47861.40124       724.83024        26.18724
R12  20172944.26125    140316.22825     -2176.83825        33.20525
R01  22766771.39226    299382.00926     -4578.45926        36.11026
R21  23672591.00624    -53165.57624       800.18424        24.24924
R03  20571125.00623   -156234.48323      2395.08123        22.83223
E07  24232299.32826    127039.84726     -1928.73926        39.97526  24232138.34025     95998.68825     -1439.81625        32.82525
E27  23310793.97326     -3020.49426        46.30526        35.98526  23310632.68524     -2830.79424        35.04224        28.55624
E30  25360611.71425    154039.50625     -2355.48225        32.38825  25360448.02725    117530.91225     -1760.57725        34.16025
> 2023 11 07 23 43 37.0002727  0 19                      
G04  23454197.89725    228423.51925     -3541.92625        33.12125  23454041.40523    173214.43023     -2645.56423        23.19123
G05  24242855.62023    -62184.62423      1146.14523        23.27623                                                                
G07  20927619.91025     -3348.31725        45.85325        29.81825                                                                
G08  21967437.75925    -14426.13825       200.76925        35.07125  21967273.77324    -11331.02224       146.16924        28.11024
G09  21077597.98327    158558.74227     -2420.57627        42.09327  21077434.89525    123926.21825     -1807.62225        32.97525
G14  22098351.13026   -164632.53826      2492.85126        40.49926  22098190.14125   -128709.27625      1860.08125        32.26325
G20  23250183.73325     53911.99725      -834.57725        34.98025                                                                
G22  23367655.90827   -197028.61527      2988.80027        45.69927                                                                
G27  23583839.84725    132621.46425     -2045.81525        31.02425  23583675.26125    104025.60425     -1528.88425        31.38825
G30  21617107.18824    -90857.87624      1375.25324        29.01624  21616931.51024    -71027.87624      1024.23324        25.01424
R02  19456757.16726    116578.24226     -1797.32026        40.15226
R13  20036529.99925    -48585.99425       722.35925        30.06125
R12  20173326.79625    142496.27525     -2179.55525        31.59225
R01  22767592.82327    303959.33127     -4577.00727        41.71627
R21  23672415.32823    -53964.59623       798.58423        23.03023
R03  20570727.78124   -158630.59024      2398.78924        27.80324
E07  24232637.19426    128968.36626     -1929.07426        40.25826  24232474.70725     97439.01225     -1440.67325        31.64825
E27  23310758.89726     -3065.09326        44.46126        36.49726  23310594.61125     -2864.70625        32.16425        29.82025
E30  25361047.91225    156395.53925     -2356.70825        29.61125  25360867.13725    119297.53025     -1765.30025        32.24925
> 2023 11 07 23 43 38.0002725  0 19                      
G04  23454811.57225    231965.02725     -3541.95625        33.40825                                                                
G05  24242579.51123    -63327.92623      1146.47123        20.10523                                                                
G07  20927548.26025     -3391.77525        43.82125        32.73025                                                                
G08  21967340.62725    -14621.71725       199.23425        31.31725  21967176.34024    -11475.96524       145.00324        25.97224
G09  21077997.60626    160979.20026     -2420.24126        37.57926  21077835.71824    125732.46624     -1807.71424        28.34524
G14  22097810.90427   -167123.37127      2491.15627        45.22727  22097655.31226   -130569.87826      1860.66326        35.62826
G20  23250285.96226     54748.93126      -838.18826        36.80726                                                                
G22  23367027.24427   -200015.88927      2987.55927        42.93427                                                                
G27  23584168.72025    134664.21425     -2044.71825        29.57525  23584005.03324    105553.86424     -1526.32224        26.71724
G30  21616779.81525    -92231.42025      1372.36225        34.24325  21616609.83225    -72053.23425      1025.13825        29.94225
R02  19457015.28927    118376.88027     -1799.02827        43.35427
R13  20036341.42924    -49309.55524       720.63624        28.26024
R12  20173663.46325    144676.86225     -2180.94925        31.21925
R01  22768383.07627    308536.78227     -4577.34627        43.98027
R21  23672206.07323    -54763.98823       798.75923        23.10023
R03  20570163.87224   -161030.05124      2400.33924        27.97624
E07  24232933.68926    130896.90926     -1928.32726        36.36926  24232781.09524     98878.93424     -1441.05224        26.57324
E27  23310689.64526     -3109.59326        44.37826        37.27726  23310525.65925     -2892.29425        33.72125        30.51425
E30  25361421.75324    158750.37124     -2357.87824        28.88324  25361256.86725    121068.44825     -1762.03725        30.82025
> 2023 11 07 23 43 39.0002724  0 19                      
G04  23455458.82425    235503.30825     -3540.40325        30.73025  23455322.11825    178507.50125     -2646.47925        31.09625
G05  24242332.48223    -64471.54823      1146.78923        21.51223                                                                
G07  20927510.18625     -3437.60825        43.49125        31.63825                                                                
G08  21967270.77525    -14818.78225       197.98425        30.94025  21967107.68824    -11622.11424       146.19724        23.92024
G09  21078433.80426    163398.40626     -2420.44026        37.13726  21078271.01724    127536.99324     -1807.09024        23.66624
G14  22097318.34527   -169614.60927      2491.88527        44.66527  22097151.66025   -132429.87125      1859.97525        35.43125
G20  23250415.17325     55587.19125      -837.97625        35.03725                                                                
G22  23366427.35926   -203003.73426      2987.87026        41.11926                                                                
G27  23584528.17124    136709.73524     -2044.28024        28.65924  23584363.88524    107080.95824     -1527.42324        24.49924
G30  21616486.61826    -93603.21426      1371.56226        37.94426  21616318.13426    -73077.73226      1025.04926        36.87826
R02  19457328.87226    120176.53326     -1799.96826        40.23026
R13  20036160.05524    -50032.46824       721.22024        29.23624
R12  20174034.90625    146857.81525     -2177.82525        30.34225
R01  22769207.20627    313113.29927     -4576.24327        43.66427
R21  23672027.39623    -55564.78223       798.44723        21.02423
R03  20569684.50424   -163429.36824      2399.29724        27.91724
E07  24233275.75225    132825.37425     -1929.19725        34.48325  24233119.26124    100318.89124     -1440.10624        23.82824
E27  23310649.17326     -3155.66726        44.71426        37.52226  23310486.68624     -2912.43424        32.91624        26.43924
E30  25361839.66425    161109.18925     -2359.68025        30.64225  25361675.07825    122845.00525     -1763.02325        31.94325
> 2023 11 07 23 43 40.0002723  0 19                      
G04  23456104.87624    239039.89424     -3542.01924        29.27124  23455960.97625    181154.84525     -2647.02425        30.41925
G05  24242085.45323    -65614.02123      1145.68023        22.81923                                                                
G07  20927469.11525     -3485.08825        44.66125        30.86325                                                                
G08  21967197.32626    -15017.58526       193.53126        35.58326  21967027.34324    -11767.68924       144.78324        28.91724
G09  21078865.20525    165818.17825     -2419.49025        33.82025  21078697.62124    129342.81024     -1808.59024        24.90324
G14  22096802.70227   -172105.06727      2490.24127        45.84327  22096647.70926   -134290.28726      1859.86826        36.38926
G20  23250543.48425     56427.15825      -837.29225        35.36325                                                                
G22  23365832.57127   -205990.81027      2987.80327        42.42427                                                                
G27  23584885.22425    138755.53025     -2045.56425        35.20825  23584722.13726    108608.55126     -1526.55726        36.91026
G30  21616190.42326    -94974.15026      1369.78126        39.18026  21616027.03627    -74102.31027      1024.52127        44.30127
R02  19457636.75826    121975.86026     -1800.24426        39.85326
R13  20036009.25925    -50757.19425       724.25925        30.38325
R12  20174437.22824    149040.04124     -2178.66024        29.17824
R01  22770031.03627    317690.46627     -4576.85727        43.67027
R21  23671852.91724    -56366.04624       797.45324        24.96024
R03  20569185.64924   -165826.36824      2396.16224        29.46324
E07  24233625.01125    134752.12025     -1929.37425        32.00025                                                                
E27  23310610.20026     -3199.70926        44.11226        37.83326  23310447.71324     -2945.39424        32.45324        26.63424
E30  25362255.47625    163470.01525     -2360.92725        34.07725  25362092.98825    124607.43525     -1762.07925        32.63725
> 2023 11 07 23 43 41.0002722  0 19                      
G04  23456746.73225    242582.50025     -3541.36125        30.26525  23456606.42924    183801.55224     -2645.91124        27.10724
G05  24241836.02623    -66753.84623      1145.22923        22.96823                                                                
G07  20927425.94425     -3527.72425        42.95625        29.61325                                                                
G08  21967128.67326    -15209.15226       190.28226        40.00326  21966961.38926    -11910.66226       144.41426        37.77926
G09  21079291.21025    168241.06525     -2422.38525        34.59925  21079128.42324    131153.87324     -1808.31724        25.93924
G14  22096302.04827   -174595.00727      2490.34727        45.78127  22096143.45826   -136149.23226      1859.80126        36.74526
G20  23250678.09025     57264.58125      -837.33125        35.07925                                                                
G22  23365235.98426   -208973.00626      2985.66926        39.68126                                                                
G27  23585246.77325    140798.23225     -2045.88825        32.17125  23585081.28826    110136.58526     -1528.12926        36.15126
G30  21615907.11926    -96346.23726      1372.24726        37.45526  21615735.63827    -75126.42327      1025.11727        43.99227
R02  19457939.54926    123776.54126     -1800.71426        40.46426
R13  20035843.47425    -51480.02225       725.71425        29.89625
R12  20174833.85324    151219.52124     -2178.82824        28.37324
R01  22770862.06027    322269.33027     -4578.80827        42.98427
R21  23671681.43624    -57165.59324       796.24624        25.41524
R03  20568702.68325   -168221.05125      2392.99425        30.62925
E07  24233954.48225    136681.22425     -1929.62425        29.97725                                                                
E27  23310574.22526     -3242.75126        42.95126        38.08226  23310409.93924     -2977.07524        32.56924        28.12824
E30  25362673.38725    165831.07825     -2362.04425        33.91825  25362512.69825    126369.76125     -1762.33425        30.61125
> 2023 11 07 23 43 42.0002720  0 19                      
G04  23457355.01125    246124.47525     -3542.18025        34.43925  23457220.40424    186452.54724     -2646.54024        23.57124
G05  24241557.51923    -67897.81123      1145.16523        22.03923                                                                
G07  20927363.28825     -3565.27525        42.25725        31.13725                                                                
G08  21967030.94126    -15400.04526       189.56326        40.70526  21966866.35526    -12054.92126       143.29326        39.13626
G09  21079691.73326    170663.81426     -2423.99926        35.70726  21079527.44724    132962.50424     -1810.42924        29.23024
G14  22095769.01727   -177083.67027      2488.46827        45.17527  22095609.52826   -138007.70426      1857.95126        36.32726
G20  23250780.32025     58103.45325      -839.35725        33.33825                                                                
G22  23364605.82026   -211958.09726      2985.26426        40.83026                                                                
G27  23585576.84525    142840.54125     -2045.44325        29.93125  23585411.06025    111665.36125     -1529.71525        32.28925
G30  21615575.24926    -97719.23926      1373.38626        36.36326  21615414.26027    -76150.54627      1024.10127        43.69627
R02  19458227.05026    125579.06126     -1802.85326        40.77726
R13  20035651.00724    -52202.91324       723.85024        29.37524
R12  20175184.31125    153394.24325     -2176.44925        30.76325
R01  22771664.90427    326849.05027     -4580.20327        43.03127
R21  23671503.95924    -57962.12124       797.07924        27.39024
R03  20568188.24025   -170610.84725      2390.17125        32.43925
E07  24234260.87025    138613.30125     -1930.34625        31.57825                                                                
E27  23310504.67326     -3285.67826        42.24526        36.97926  23310341.28724     -3009.07024        30.95624        28.43224
E30  25363063.71625    168192.16225     -2362.24825        31.76525  25362901.22925    128132.83025     -1763.47525        33.24225
> 2023 11 07 23 43 43.0002719  0 19                      
G04  23457987.57326    249666.59926     -3541.59426        36.91926                                                                
G05  24241313.78823    -69040.04923      1143.93723        22.80923                                                                
G07  20927327.01324     -3608.10424        42.23124        28.45824                                                                
G08  21966964.68726    -15590.99526       191.45026        39.36426  21966798.60226    -12197.90726       143.65326        36.16026
G09  21080111.44327    173083.60827     -2424.51327        42.38427  21079958.24925    134773.19925     -1809.67225        30.95525
G14  22095264.46727   -179572.70827      2490.24727        43.50927  22095105.57725   -139865.82025      1858.83925        34.19225
G20  23250902.93525     58942.47025      -839.19325        34.36425                                                                
G22  23364007.43426   -214943.27526      2984.14226        40.58726                                                                
G27  23585943.19124    144884.07624     -2045.57924        28.32324  23585771.11024    113198.82224     -1530.03524        27.67024
G30  21615284.45025    -99091.98125      1373.37625        34.19325  21615121.96226    -77174.83826      1024.91526        40.19126
R02  19458528.34127    127382.43927     -1803.96327        42.11827
R13  20035489.12024    -52923.76724       719.55324        27.71224
R12  20175551.85625    155573.62225     -2177.61425        31.19925
R01  22772485.73627    331428.87527     -4580.63927        42.32227
R21  23671320.48624    -58754.95924       798.21924        24.05024
R03  20567712.46925   -173000.90925      2388.48025        30.07025
E07  24234596.63826    140544.51826     -1931.29426        39.96626  24234437.44824    106065.86924     -1441.62524        27.63324
E27  23310468.39925     -3327.77725        42.02725        35.27725  23310302.91324     -3040.41824        32.18624        29.42024
E30  25363483.12624    170551.05424     -2362.23224        28.27224  25363320.03925    129895.03125     -1762.77225        29.51825
> 2023 11 07 23 43 44.0002718  0 20                      
G04  23458639.92225    253209.95625     -3544.64525        34.46725                                                                
G05  24241065.56024    -70183.08624      1142.99524        25.34924                                                                
G07  20927295.53524     -3652.51624        42.53824        27.52924                                                                
G08  21966892.73726    -15782.00026       192.51026        37.28726  21966732.64725    -12338.93825       141.40625        35.30525
G09  21080558.43327    175507.79427     -2424.38827        41.69127  21080389.05025    136581.05425     -1811.35125        30.61125
G14  22094765.61227   -182062.18627      2489.44427        44.98727  22094601.62625   -141725.27725      1859.18225        35.42825
G20  23251030.64625     59779.63025      -838.59925        29.79725                                                                
G22  23363415.34426   -217925.86226      2983.64326        38.11326                                                                
G27  23586308.03924    146928.71424     -2045.28124        26.34124  23586130.86124    114730.07424     -1526.84024        24.30624
G30  21614994.85026   -100464.66826      1373.00026        37.36426  21614831.46427    -78202.96127      1024.97627        42.07727
R02  19458837.72727    129185.66127     -1802.40927        41.70727
R13  20035322.43524    -53647.11324       719.30124        28.03024
R12  20175934.09125    157754.23325     -2178.71825        29.64625
R01  22773314.96227    336008.82427     -4578.96927        46.11627
R21  23671089.34624    -59554.92124       796.08124        23.50924
R03  20567207.91826   -175390.25826      2385.56626        36.98626
E07  24234933.60526    142476.59426     -1932.36826        39.69326  24234774.11524    107494.42924     -1442.32024        28.60224
E19  26997404.48622   -165803.86622      2375.66722        15.32722                                                                
E27  23310425.22826     -3370.66026        42.43126        36.13626  23310265.43925     -3072.23925        31.75925        30.12225
E30  25363902.23625    172910.54025     -2361.09725        30.21925  25363738.24924    131652.46924     -1763.05824        26.81724
> 2023 11 07 23 43 45.0002717  0 20                      
G04  23459284.17625    256751.00625     -3546.30625        34.62725                                                                
G05  24240821.52824    -71328.53524      1145.01724        25.07124                                                                
G07  20927246.36924     -3696.30524        43.07224        28.49624                                                                
G08  21966835.17625    -15972.04825       190.39025        34.03425  21966666.09425    -12482.77525       141.65425        33.70425
G09  21080985.03827    177933.65427     -2427.00827        41.62827  21080819.85225    138391.78425     -1810.04225        32.55225
G14  22094254.46627   -184551.71127      2490.46127        44.19027  22094097.97425   -143583.74425      1858.78025        34.95225
G20  23251162.25525     60616.84825      -836.96025        33.46825                                                                
G22  23362816.65926   -220904.78826      2981.51326        37.38826                                                                
G27  23586659.69524    148978.42424     -2045.03624        24.49724  23586489.11324    116261.16824     -1529.50524        24.34824
G30  21614700.45426   -101836.99226      1371.14026        40.10926  21614539.76526    -79226.20526      1025.94326        38.81426
R02  19459139.01826    130989.84926     -1803.50226        41.22226
R13  20035149.75425    -54369.52825       721.60925        31.53325
R12  20176313.02925    159931.34125     -2180.38125        29.80725
R01  22774136.69327    340589.87027     -4580.23827        44.83727
R21  23670916.96523    -60343.50123       785.05723        20.63123
R03  20566734.24626   -177779.36526      2388.59526        40.70826
E07  24235272.07026    144408.92026     -1932.41526        38.50826  24235109.58325    108937.53025     -1441.84725        30.25825
E19  26996924.81822   -168179.39222      2375.58422        16.51122                                                                
E27  23310388.65426     -3412.99326        42.26226        36.36726  23310225.86624     -3101.73424        32.21424        28.88524
E30  25364321.64624    175272.22224     -2360.13224        27.32924  25364157.05924    133407.61924     -1764.00824        29.35124
> 2023 11 07 23 43 46.0002715  0 20                      
G04  23459898.75025    260296.98225     -3547.01425        33.43425  23459743.45824    197030.23424     -2647.75824        26.12624
G05  24240543.62123    -72471.83923      1145.14023        20.64323                                                                
G07  20927181.91324     -3736.99224        42.47824        27.45624                                                                
G08  21966742.54125    -16161.09925       188.27925        30.67625  21966570.76025    -12626.69625       138.42425        31.06725
G09  21081385.86026    180360.46626     -2427.10826        40.53926  21081221.57425    140204.17425     -1812.73625        33.33925
G14  22093722.03527   -187039.94327      2488.28627        43.72527  22093564.64325   -145441.93425      1858.25125        35.30925
G20  23251260.58726     61455.27526      -837.29626        37.75126                                                                
G22  23362181.69826   -223887.74926      2984.43026        38.87026                                                                
G30  21614378.47726   -103208.46026      1371.23726        39.22326  21614217.78825    -80246.61625      1024.13525        35.16825
G27                                                                  23586818.88523    117790.70023     -1529.25323        20.85623
R02  19459424.12126    132796.56526     -1807.14126        41.09426
R13  20034948.29425    -55094.22525       722.07225        30.32225
R12  20176635.90624    162109.88124     -2180.68624        27.84924
R01  22774945.23426    345173.68326     -4587.33026        38.33026
R21  23670717.30322    -61124.75222       784.41122        17.49422
R03  20566224.59926   -180168.67226      2390.62026        40.39826
E07  24235582.35526    146343.47526     -1935.06126        38.70526  24235417.76925    110382.21225     -1445.61925        31.30125
E19  26996411.27322   -170554.59822      2375.61222        17.20222                                                                
E27  23310322.10026     -3453.37126        40.43526        36.30426  23310157.81425     -3131.79325        30.61125        29.52525
E30  25364714.07424    177634.12924     -2360.18024        27.91924  25364547.08924    135160.10424     -1765.59724        27.99924
> 2023 11 07 23 43 47.0002714  0 20                      
G04  23460545.40226    263843.36926     -3547.15326        37.54326  23460383.51424    199678.89224     -2648.77624        28.36324
G05  24240294.79323    -73611.94023      1143.35423        22.32423                                                                
G07  20927143.84025     -3776.14225        40.44525        29.69025                                                                
G08  21966680.48424    -16350.48824       186.35724        28.76924  21966505.40524    -12771.40524       138.63024        27.35124
G09  21081816.36226    182787.91326     -2426.95326        41.26426  21081653.27525    142016.34525     -1812.45925        32.80025
G14  22093219.88227   -189528.48927      2488.60827        45.38627  22093060.99225   -147299.82425      1857.53425        34.06525
G20  23251387.99926     62295.59626      -838.72726        39.18126                                                                
G22  23361581.81327   -226873.02927      2985.41927        46.51427                                                                
G30  21614088.87826   -104581.53626      1373.44626        39.22626  21613926.99025    -81270.24925      1023.79025        31.90225
G27                                                                  23587179.23623    119320.21323     -1530.27223        22.77623
R02  19459724.21327    134604.71927     -1809.10827        43.00127
R13  20034777.41225    -55817.57525       722.43925        31.27525
R12  20177028.03424    164293.09724     -2179.87124        28.73324
R01  22775776.55826    349760.33226     -4582.65526        35.98426
R21  23670538.92722    -61906.62222       784.20122        17.36422
R03  20565744.33127   -182557.02727      2388.86827        41.73527
E07  24235911.22826    148278.69926     -1935.08726        39.36626  24235755.33625    111827.25325     -1444.08325        30.74825
E19  26995933.70423   -172930.58923      2375.60323        17.85223                                                                
E27  23310281.92825     -3494.03525        40.14025        34.74325  23310119.74025     -3162.57625        30.76925        29.85425
E30  25365131.38524    179996.55324     -2360.37324        29.10524  25364967.69824    136916.00824     -1764.64024        23.91224
> 2023 11 07 23 43 48.0002713  0 20                      
G04  23461185.15926    267390.78526     -3547.89926        39.81526  23461029.86725    202327.55825     -2648.33625        34.63825
G05  24240045.66623    -74751.04723      1141.39223        22.27823                                                                
G07  20927104.56725     -3818.65425        40.51125        31.52325                                                                
G08  21966617.82724    -16541.45724       191.98224        27.16424  21966440.94924    -12916.19624       139.27824        28.49324
G09  21082251.36126    185215.67726     -2427.68326        41.38726  21082084.67625    143829.18825     -1812.62125        33.48725
G14  22092718.62926   -192015.59226      2486.98526        40.95626  22092557.64125   -149158.10025      1857.29925        30.28225
G20  23251520.80726     63134.13826      -839.23226        38.07526                                                                
G22  23360982.52827   -229857.55127      2984.61727        44.16527                                                                
G27  23587723.65924    155124.48524     -2041.51524        24.13024  23587538.98723    120853.63423     -1528.39923        21.64223
G30  21613796.88026   -105955.50326      1373.04126        38.84726  21613635.59125    -82295.44525      1025.90325        30.81025
R02  19460037.19727    136412.86827     -1808.63327        43.47527
R13  20034618.82225    -56538.98525       721.99725        30.61025
R12  20177399.17725    166474.23825     -2180.08825        30.87025
R01  22776601.28726    354351.05726     -4586.37326        35.90926
R21  23670360.55023    -62690.38323       783.64623        18.78223
R03  20565269.76026   -184945.08226      2386.44926        40.64826
E07  24236261.38526    150214.20326     -1935.20126        39.11326  24236094.40125    113272.39325     -1444.33225        30.86825
E19  26995459.73223   -175306.45023      2375.73123        19.10323                                                                
E27  23310240.55626     -3534.33626        40.21326        37.21526  23310081.06724     -3193.20524        30.55624        29.30024
E30  25365551.99424    182358.76824     -2360.94124        29.04824  25365385.30924    138682.00924     -1765.34424        27.21824
> 2023 11 07 23 43 49.0002711  0 20                      
G04  23461802.13226    270937.95326     -3546.71326        38.33426  23461645.64125    204976.78525     -2648.38125        34.90625
G05  24239769.55723    -75887.64923      1140.03523        21.72223                                                                
G07  20927031.41825     -3862.47825        43.01225        29.89225                                                                
G08  21966527.58924    -16732.42424       192.35324        26.12924  21966345.31624    -13057.81724       135.73724        26.68324
G09  21082653.68326    187643.49326     -2428.15626        38.13326  21082486.99826    145642.23926     -1812.55526        35.71026
G14  22092182.00127   -194503.56727      2487.94527        44.09927  22092025.20925   -151015.29125      1857.66725        30.13725
G20  23251619.13926     63972.87926      -839.62826        39.83926                                                                
G22  23360355.96227   -232836.79627      2980.75227        43.51927                                                                
G27  23588069.31923    157169.10123     -2040.22523        22.59023                                                                
G30  21613478.20026   -107329.22426      1372.46826        40.09426  21613313.91425    -83322.41025      1026.84725        31.66025
R02  19460319.90127    138220.81427     -1807.62927        42.14827
R13  20034423.95725    -57261.35225       722.00925        29.59925
R12  20177752.03325    168651.96525     -2175.91225        31.03325
R01  22777390.64126    358936.54226     -4583.16126        40.17726
R21  23670164.18623    -63474.46323       786.03823        19.24723
R03  20564764.61027   -187333.99927      2387.89227        41.68227
E07  24236564.17626    152148.47726     -1933.92326        36.67726  24236402.28825    114717.44625     -1444.67525        32.74325
E19  26994954.88223   -177681.69123      2375.88323        23.16423                                                                
E27  23310176.10126     -3576.31726        41.43126        36.66426  23310013.61324     -3224.33824        31.16124        28.62524
E30  25365945.32124    184721.26224     -2360.92524        27.99824  25365771.44225    140445.74325     -1763.34325        32.25125
> 2023 11 07 23 43 50.0002710  0 20                      
G04  23462443.08926    274487.81226     -3549.79426        35.72526  23462291.39425    207627.29125     -2650.79125        34.12825
G05  24239521.32923    -77022.21723      1139.77823        21.70323                                                                
G07  20926990.94625     -3906.60725        44.35425        33.82325                                                                
G08  21966453.54124    -16921.32624       190.15124        26.56124  21966281.76023    -13192.57323       137.28923        22.46923
G09  21083082.08626    190073.32626     -2429.88326        39.15226  21082919.29925    147456.88125     -1814.54025        35.16825
G14  22091678.64926   -196990.94526      2488.02826        40.74226  22091521.25824   -152875.95624      1857.31324        26.79924
G20  23251746.55126     64810.30226      -838.02026        36.42526                                                                
G22  23359756.37727   -235817.93627      2984.39927        46.83127                                                                
G27  23588416.77923    159204.79523     -2033.81123        20.02823                                                                
G30  21613186.20326   -108703.62226      1373.42126        40.31526  21613022.21625    -84349.99125      1027.47225        32.96425
R02  19460626.88826    140029.47226     -1807.97526        38.48626
R13  20034251.57625    -57984.65125       723.68025        32.16325
R12  20178121.67726    170829.78826     -2176.01626        36.26426
R01  22778223.76426    363521.16226     -4582.19426        36.22426
R21  23670006.19623    -64257.39023       787.15023        20.64723
R03  20564289.13927   -189725.08327      2391.63427        41.63627
E07  24236900.54326    154085.28026     -1936.48526        36.20626  24236740.15425    116163.94325     -1446.03325        33.04625
E19  26994469.81724   -180058.45324      2376.78124        24.99424                                                                
E27  23310138.62726     -3625.01426        42.37426        35.80326  23309976.73925     -3254.41025        30.84425        29.85525
E30  25366361.73324    187081.03624     -2359.74624        27.59824  25366191.15125    142209.53625     -1762.94925        30.64225
> 2023 11 07 23 43 51.0002709  0 20                      
G04  23463091.84026    278038.55926     -3551.68526        37.19226  23462935.94725    210278.05125     -2651.16725        33.57725
G05  24239273.10023    -78162.41923      1138.99523        20.77923                                                                
G07  20926952.57225     -3955.49825        44.87825        34.13825                                                                
G08  21966384.58824    -17111.80324       188.99624        25.41724  21966217.00424    -13327.98824       141.04324        23.88724
G09  21083513.48726    192503.65526     -2429.69326        38.14226  21083351.89925    149272.30925     -1815.77125        33.61325
G14  22091174.39826   -199476.60526      2483.99526        38.29126  22091018.50624   -154732.31924      1853.93824        25.76124
G20  23251882.65726     65644.29326      -837.98226        35.77026                                                                
G22  23359159.19127   -238799.94127      2982.16627        47.15627                                                                
G27  23588775.03123    161239.08523     -2034.98023        21.91623                                                                
G30  21612895.40426   -110077.53426      1373.25926        39.38826  21612730.51825    -85376.14425      1026.58925        33.61625
R02  19460934.47526    141837.29926     -1813.15526        40.89526
R13  20034089.68825    -58708.02725       722.86225        30.52225
R12  20178485.62525    173008.53325     -2179.14425        33.60225
R01  22779045.19526    368106.66526     -4584.17726        35.62726
R21  23669840.71023    -65041.12423       785.91923        19.95723
R03  20563817.26626   -192120.84126      2390.64826        40.41826
E07  24237239.60826    156023.18726     -1938.05626        36.00026  24237078.62025    117611.10825     -1447.85225        31.66725
E19  26993991.34924   -182436.95524      2377.43024        27.11724                                                                
E27  23310099.65426     -3679.47326        42.29526        35.58226  23309938.96525     -3283.60925        28.61725        29.50525
E30  25366782.04224    189439.14624     -2358.34524        26.23724  25366610.26125    143973.16825     -1764.35925        34.65425
> 2023 11 07 23 43 52.0002708  0 20                      
G04  23463738.79226    281589.04426     -3550.36726        38.39926  23463582.00025    212929.20525     -2650.84225        35.25625
G05  24239025.47223    -79302.17123      1137.54223        21.16223                                                                
G07  20926915.09825     -4000.16925        45.23225        30.81025                                                                
G08  21966325.52924    -17299.90424       185.52024        27.74224  21966152.24923    -13464.05723       137.61223        22.59823
G09  21083946.98726    194934.03426     -2429.08726        38.07726  21083783.60025    151087.37125     -1814.63225        32.89325
G14  22090671.64626   -201961.27226      2483.13826        40.31426  22090515.75424   -156589.68524      1855.53624        26.37924
G20  23252004.67226     66480.89026      -839.61126        39.39626                                                                
G22  23358557.80727   -241782.51427      2982.63527        46.19927                                                                
G27  23589130.88524    163272.67624     -2044.66524        25.17524                                                                
G30  21612599.20926   -111450.63326      1372.19626        39.00926  21612438.52025    -86398.93725      1026.05425        33.57225
R02  19461243.86126    143649.09526     -1813.38426        41.29326
R13  20033923.90324    -59426.26124       721.74524        28.56324
R12  20178872.35725    175187.36125     -2181.38525        32.69725
R01  22779872.92226    372693.05926     -4587.03626        39.29326
R21  23669681.82023    -65826.67223       786.69623        21.79123
R03  20563341.49526   -194508.39926      2386.60826        39.49626
E07  24237577.17426    157960.61726     -1938.06126        35.75726  24237417.08525    119057.72925     -1446.46525        30.68425
E19  26993503.58624   -184814.91724      2377.89024        26.90524  26993341.39924   -136263.59524      1776.23224        23.90424
E27  23310061.88026     -3720.28826        41.07926        36.18926  23309900.29225     -3313.68625        30.69425        30.67325
E30  25367202.65124    191796.80124     -2357.93924        27.48724  25367029.97125    145738.06425     -1763.90325        33.67525
> 2023 11 07 23 43 53.0002706  0 20                      
G04  23464349.76926    285139.21426     -3550.05626        37.86526  23464197.47425    215580.13425     -2651.39325        34.40425
G05  24238743.06724    -80438.28724      1138.14724        25.29324                                                                
G07  20926846.74525     -4042.52725        42.93425        30.50925                                                                
G08  21966236.49124    -17487.48924       184.24524        26.54524  21966055.11624    -13602.76124       136.08324        27.36024
G09  21084350.20826    197365.18226     -2429.33926        36.94726  21084185.92225    152903.27625     -1815.62625        32.20225
G14  22090139.51526   -204446.37826      2484.81226        41.12426  22089981.82424   -158451.77524      1856.73924        27.42324
G20  23252101.50526     67321.64726      -841.90126        37.44226                                                                
G22  23357934.83827   -244765.00427      2983.27127        46.39227                                                                
G27  23589460.05724    165313.25024     -2043.61824        25.41524  23589277.48324    128490.19724     -1533.26024        24.19924
G30  21612280.23026   -112824.21926      1373.77026        40.33926  21612117.44225    -87419.15625      1025.64325        33.09825
R02  19461525.36627    145462.17527     -1813.21127        41.52627
R13  20033735.93324    -60146.09524       718.81224        27.13124
R12  20179236.00625    177364.69025     -2183.53825        31.30925
R01  22780674.56725    377279.56925     -4586.76225        35.36025
R21  23669467.76823    -66613.10323       786.84623        18.53923
R03  20562823.15426   -196897.24826      2385.73526        38.33926
E07  24237888.95926    159898.40126     -1937.55726        35.61226  24237726.47125    120507.71725     -1447.51225        30.81825
E19  26992977.75025   -187194.38325      2377.81725        30.28925  26992829.05324   -138039.06524      1775.29024        25.72024
E27  23309994.72625     -3759.19225        39.73325        35.46925  23309832.53925     -3342.89725        28.83525        30.21525
E30  25367590.88224    194155.80724     -2358.11024        25.38924  25367420.00125    147503.23425     -1764.57125        33.23725
> 2023 11 07 23 43 54.0002705  0 20                      
G04  23464996.72126    288689.29726     -3550.11526        35.51026  23464842.92725    218231.57125     -2650.31325        35.34725
G05  24238484.34624    -81572.56724      1138.98224        27.52324                                                                
G07  20926805.67425     -4086.07525        42.11325        30.55325                                                                
G08  21966168.13824    -17672.08524       182.25524        26.95424  21965990.96124    -13738.68524       136.00924        28.02324
G09  21084789.10426    199795.91726     -2429.08426        36.83926  21084618.22325    154719.12225     -1816.08825        33.40925
G14  22089634.06526   -206932.34226      2485.34626        38.06426  22089477.57324   -160311.98824      1858.51524        24.89924
G20  23252232.21526     68161.78626      -840.64326        40.00926                                                                
G22  23357336.15326   -247745.97426      2979.46426        40.74426                                                                
G27  23589828.50224    167364.08124     -2049.13924        25.11524  23589638.13324    130020.92924     -1533.49424        23.83724
G30  21611988.83126   -114201.50026      1374.67026        37.80226  21611824.84525    -88445.83425      1026.51325        32.39725
R02  19461823.36026    147275.15526     -1813.98926        39.57426
R13  20033573.44625    -60866.52525       719.70825        29.55425
R12  20179607.44825    179545.38025     -2181.79625        30.43925
R01  22781499.59626    381867.16126     -4588.24626        39.43626
R21  23669298.38623    -67400.95223       786.73823        18.54123
R03  20562351.58027   -199284.22627      2386.77027        43.80627
E07  24238227.72425    161830.40025     -1936.27725        34.31325  24238064.03725    121954.88625     -1446.94125        31.85925
E19  26992502.57925   -189573.29525      2378.63125        31.21925  26992347.28724   -139815.70724      1776.27924        25.06824
E27  23309958.75126     -3798.13926        38.36826        36.24426  23309795.36424     -3372.27724        29.29724        28.04124
E30  25368010.59224    196516.98724     -2358.63524        27.86224  25367839.41025    149267.47325     -1764.20225        31.04825
> 2023 11 07 23 43 55.0002704  0 20                      
G04  23465644.57225    292240.00725     -3549.89825        34.38325  23465488.68025    220882.74425     -2651.06325        34.75925
G05  24238234.32024    -82711.43224      1138.82424        27.08524                                                                
G07  20926770.59825     -4128.34925        41.71325        30.40725                                                                
G08  21966103.08324    -17854.04524       181.87724        26.91724  21965927.70524    -13873.94724       135.87024        27.99324
G09  21085216.90826    202227.11826     -2430.48926        37.74326  21085050.52325    156535.32825     -1815.33425        33.47525
G14  22089128.91426   -209417.22426      2484.94526        39.15226  22088974.52124   -162170.64924      1857.58824        24.09024
G20  23252362.02526     69001.54726      -839.44926        39.92226                                                                
G22  23356736.56827   -250727.76327      2982.14327        45.24727                                                                
G27  23590182.25724    169422.87624     -2053.48124        26.81924  23589997.58424    131554.38624     -1533.60824        28.32424
G30  21611698.33326   -115579.76026      1375.04526        37.40926  21611533.14725    -89471.94925      1026.92925        32.71225
R02  19462137.54326    149088.74926     -1813.82826        39.42626
R13  20033406.46125    -61587.13625       719.99325        30.03225
R12  20179984.58725    181721.66625     -2179.93625        34.01525
R01  22782323.72526    386455.16426     -4588.00526        38.91526
R21  23669116.11223    -68192.31923       787.45423        20.42223
R03  20561877.30927   -201671.76727      2388.43127        42.05927
E07  24238564.09125    163755.02925     -1936.14625        33.59325  24238402.80325    123402.66825     -1446.73225        31.31025
E19  26992019.61425   -191952.69225      2379.25825        31.41225  26991864.62124   -141591.89024      1776.49724        26.13424
E27  23309923.07626     -3836.59626        39.16726        35.58726  23309758.49025     -3401.12025        29.37925        29.50925
E30  25368424.60524    198877.76224     -2358.58324        28.23724  25368259.12025    151031.83925     -1762.73825        32.72325
> 2023 11 07 23 43 56.0002703  0 20                      
G04  23466294.52225    295786.79325     -3548.27625        31.91025  23466134.13325    223534.64225     -2651.95325        31.43425
G05  24237992.08724    -83846.01824      1136.67024        26.63524                                                                
G07  20926731.92525     -4174.31325        41.47925        32.36725                                                                
G08  21966034.73124    -18040.39424       184.11624        25.86324  21965863.84924    -14010.07524       135.95024        26.42724
G09  21085648.30926    204659.45026     -2432.65426        36.83726  21085482.82425    158348.95925     -1816.64825        31.45625
G14  22088630.35926   -211901.72926      2485.97326        40.76826  22088471.17024   -164025.57524      1853.99424        23.61024
G20  23252494.53326     69842.44326      -838.92426        36.87226                                                                
G22  23356137.28327   -253709.39627      2982.00627        42.13027                                                                
G27  23590532.71424    171475.56424     -2055.10524        28.40824  23590357.63525    133088.90525     -1534.77525        33.26425
G30  21611406.03526   -116956.62226      1374.78326        38.81626  21611240.54925    -90499.59525      1027.08725        32.99325
R02  19462447.52826    150899.17826     -1814.05026        41.05826
R13  20033239.77725    -62311.98225       720.29025        30.86325
R12  20180350.93425    183896.70725     -2178.73725        34.52625
R01  22783142.45926    391043.05826     -4587.71126        37.94726
R21  23668938.33523    -68981.84123       787.05923        18.68423
R03  20561398.54027   -204059.07827      2387.79027        44.20927
E07  24238903.15725    165692.55025     -1936.49425        34.04425  24238741.56825    124847.10425     -1448.60425        30.33625
E19  26991537.24825   -194332.30225      2379.84925        31.80425  26991378.05824   -143368.26624      1776.42824        26.39424
E27  23309884.70325     -3879.14725        40.39825        35.28525  23309720.41624     -3430.08324        29.05524        28.35724
E30  25368844.61424    201239.15124     -2359.38024        27.75224  25368678.23025    152796.27225     -1764.13325        34.43525
> 2023 11 07 23 43 57.0002701  0 20                      
G04  23466907.59825    299331.79625     -3548.21325        32.85325  23466749.30825    226185.54025     -2651.04225        31.32125
G05  24237712.98024    -84977.58624      1135.44324        25.94424                                                                
G07  20926661.77425     -4219.19525        41.77725        33.64625                                                                
G08  21965938.19724    -18228.23824       185.45224        27.09124  21965768.81524    -14144.31124       134.69324        24.43124
G09  21086051.53026    207092.52226     -2433.88626        35.53526  21085886.64425    160162.43125     -1816.19425        31.30025
G14  22088094.63026   -214386.51626      2484.17726        40.28826  22087938.73824   -165880.16024      1853.76824        25.45124
G20  23252593.76425     70682.79425      -840.41025        35.07825                                                                
G22  23355510.11726   -256691.01126      2981.05326        39.94226                                                                
G27  23590858.28924    173527.78924     -2054.54524        28.45424  23590688.90625    134623.47525     -1534.60325        33.69525
G30  21611081.36026   -118330.41526      1373.89026        39.57326  21610918.57225    -91526.18325      1026.41425        33.51125
R02  19462731.13226    152714.06726     -1814.72526        40.01226
R13  20033035.91825    -63032.21525       720.58325        31.79325
R12  20180702.29126    186072.32426     -2179.08626        35.70326
R01  22783942.90526    395630.04326     -4585.89326        36.08526
R21  23668734.47623    -69770.85423       788.47523        21.18723
R03  20560890.69227   -206445.06327      2385.65627        43.94127
E07  24239211.64325    167630.37225     -1937.48125        33.33925  24239050.35525    126289.23025     -1447.45625        29.66725
E19  26991023.70325   -196711.82625      2379.74125        31.96425  26990864.21424   -145145.03724      1776.54324        28.74524
E27  23309816.35026     -3919.88526        40.12626        36.85926  23309652.66325     -3460.06425        30.56925        29.78825
E30  25369231.34725    203600.77125     -2361.67925        31.18525  25369067.66026    154560.06626     -1763.53426        36.66326
> 2023 11 07 23 43 58.0002700  0 20                      
G04  23467553.65125    302878.39425     -3548.77225        35.04025  23467394.16125    228837.04525     -2651.42325        34.40925
G05  24237461.75424    -86115.36024      1133.02024        26.23224                                                                
G07  20926624.00025     -4261.18425        43.29625        32.75525                                                                
G08  21965873.44224    -18410.71124       185.15524        26.21524  21965702.86024    -14278.40024       133.67724        27.57424
G09  21086487.72826    209523.22526     -2432.60126        36.63526  21086318.64525    161977.70425     -1816.78225        31.64225
G14  22087591.57927   -216870.26427      2483.32027        42.43727  22087436.58624   -167735.27624      1856.35924        25.60124
G20  23252724.47425     71520.77025      -842.09025        35.00525                                                                
G22  23354924.92226   -259671.58026      2977.49926        37.02626                                                                
G27  23591218.93925    175583.31125     -2054.66625        29.71525  23591049.85626    136158.41926     -1534.79926        37.42026
G30  21610789.36226   -119704.36826      1373.54126        40.58326  21610626.87425    -92552.40425      1026.22425        35.30925
R02  19463040.21826    154529.94626     -1815.34326        40.78026
R13  20032868.33424    -63752.88424       719.93624        29.30724
R12  20181082.12826    188253.71626     -2180.15326        35.87526
R01  22784777.82725    400215.06625     -4583.74625        33.93725
R21  23668566.29323    -70562.08223       787.82423        19.49223
R03  20560414.92127   -208829.97827      2385.04727        43.46027
E07  24239551.30825    169569.00425     -1938.35625        33.68125  24239389.42025    127728.43925     -1447.26025        31.48725
E19  26990541.03725   -199090.53425      2379.43625        31.22225  26990381.24825   -146921.30925      1777.46825        31.20125
E27  23309775.57826     -3958.02026        37.66926        37.11426  23309615.78925     -3487.94525        29.02825        30.98725
E30  25369648.65825    205964.06225     -2363.29025        31.62525  25369487.07026    156324.10326     -1764.02226        38.33826
> 2023 11 07 23 43 59.0002699  0 20                      
G04  23468199.70326    306427.79426     -3549.42126        35.90126  23468040.21426    231489.40326     -2651.90126        37.81226
G05  24237211.72724    -87251.08224      1134.75224        26.59824                                                                
G07  20926585.92625     -4304.38025        44.05125        34.91925                                                                
G08  21965808.98724    -18594.78324       182.56224        23.74824  21965638.40524    -14412.12524       133.97724        27.84724
G09  21086920.32926    211955.98226     -2432.43526        37.55226  21086752.14525    163798.01025     -1818.15025        31.48125
G14  22087092.12426   -219358.41426      2483.58526        41.17026  22086932.63523   -169589.55123      1856.94723        23.19623
G20  23252855.18325     72363.55425      -843.74625        33.63325                                                                
G22  23354326.83626   -262651.14826      2977.83726        36.02426                                                                
G27  23591576.29225    177642.06125     -2054.72125        32.12825  23591410.20726    137693.64326     -1535.36426        40.01926
G30  21610495.56526   -121078.84826      1374.77926        40.29726  21610335.47626    -93578.99826      1026.53726        35.69626
R02  19463347.50526    156346.64526     -1816.50326        40.88426
R13  20032697.75224    -64469.69824       720.73024        27.49124
R12  20181461.66525    190435.48625     -2181.94825        34.69125
R01  22785610.05025    404794.50725     -4584.74625        31.44525
R21  23668387.91623    -71352.46623       786.22623        20.38923
R03  20559936.45227   -211215.12727      2384.72127        42.36827
E07  24239890.67325    171508.67025     -1939.28825        33.91325  24239727.28625    129164.15625     -1449.26625        29.58125
E19  26990058.97124   -201470.39324      2379.16524        28.74424  26989899.18225   -148697.79925      1776.82925        32.97225
E27  23309740.50225     -3995.57725        37.00725        35.15625  23309578.31525     -3517.17225        28.06325        30.39325
E30  25370067.76825    208327.04725     -2364.12825        30.33525  25369906.77926    158087.94726     -1763.87826        38.98926
> 2023 11 07 23 44 00.0002698  0 20                      
G04  23468841.85926    309979.95226     -3551.96126        36.14626  23468685.06726    234141.52026     -2651.63726        37.07626
G05  24236963.79924    -88384.99624      1131.93624        26.72924                                                                
G07  20926551.15025     -4346.36525        44.17725        32.99725                                                                
G08  21965749.02824    -18778.61524       183.96024        25.26124  21965576.04824    -14545.51524       132.50924        26.67424
G09  21087351.43026    214391.14026     -2436.71026        37.44726  21087185.34525    165616.04225     -1817.57425        33.66125
G14  22086586.97426   -221841.12126      2483.70426        38.85426  22086428.08424   -171443.39624      1854.04224        25.64624
G20  23252983.49426     73206.77526      -843.45026        36.38226                                                                
G22  23353725.75226   -265630.44226      2978.51726        36.41326                                                                
G27  23591938.74125    179698.52225     -2054.86925        32.48425  23591771.15725    139229.46325     -1535.72725        35.47225
G30  21610207.16526   -122452.18526      1373.26826        39.03926  21610043.77825    -94604.73625      1025.43625        34.00825
R02  19463655.09226    158166.04226     -1819.96726        38.51526
R13  20032543.05925    -65184.76125       718.74225        30.77125
R12  20181838.50425    192617.88825     -2183.10525        34.60625
R01  22786446.77125    409383.76225     -4588.19825        34.55125
R21  23668205.64223    -72138.31523       785.54623        19.71323
R03  20559467.27727   -213598.73027      2383.06927        44.55427
E07  24240230.03825    173448.52325     -1940.27725        35.14625  24240065.75225    130612.59725     -1448.56925        32.40825
E19  26989576.60525   -203846.65825      2378.34125        30.42825  26989416.51625   -150474.36725      1776.29025        31.67825
E27  23309701.82926     -4032.17026        37.09626        36.47626  23309540.84124     -3544.59424        27.94624        28.42724
E30  25370488.97625    210690.57725     -2364.31625        29.52725  25370325.88926    159852.59326     -1765.22026        36.36826
> 2023 11 07 23 44 01.0002696  0 20                      
G04  23469459.43125    313531.46325     -3550.13825        33.61625  23469302.04025    236794.52025     -2653.77025        34.89225
G05  24236687.69025    -89518.33325      1133.30725        33.06825                                                                
G07  20926486.69525     -4391.62625        44.47225        31.02525                                                                
G08  21965648.89824    -18958.05924       180.92124        25.58424  21965481.91324    -14679.09624       133.45224        25.35724
G09  21087754.05226    216826.21326     -2436.14926        36.14926  21087587.66725    167434.33725     -1819.11825        34.16625
G14  22086056.34126   -224324.30726      2483.24426        40.25126  22085895.95224   -173297.40524      1853.85724        29.14124
G20  23253082.72626     74051.09526      -845.77826        39.27326                                                                
G22  23353088.99326   -268610.35926      2979.32326        38.98326                                                                
G27  23592271.21125    181753.83725     -2055.51125        31.65425  23592102.72725    140763.09425     -1536.33825        31.40725
G30  21609878.59225   -123825.02225      1372.02425        35.26525  21609722.40025    -95630.40825      1025.16125        34.24225
R02  19463937.79626    159984.90626     -1818.39526        38.35126
R13  20032354.19025    -65898.68125       717.25325        31.23225
R12  20182182.36626    194801.07926     -2183.32226        37.26726
R01  22787239.72225    413974.10325     -4589.14325        33.37425
R21  23668003.58223    -72923.67323       784.56323        22.68623
R03  20558962.42627   -215980.51827      2381.55327        44.17027
E07  24240538.22525    175388.91725     -1940.78825        33.29025  24240374.83825    132061.06225     -1448.77625        32.48025
E19  26989064.55925   -206224.63625      2377.49525        30.43725  26988904.47025   -152249.81925      1774.73825        30.16425
E27  23309633.47726     -4069.02026        37.73626        35.97426  23309472.78825     -3572.20525        26.80025        29.65425
E30  25370877.50724    213051.66624     -2363.86224        28.30924  25370713.82026    161617.50226     -1764.32026        35.73726
> 2023 11 07 23 44 02.0002695  0 20                      
G04  23470105.18425    317080.05625     -3549.90625        32.12925  23469944.49625    239446.77025     -2652.31225        34.47925
G05  24236441.56125    -90649.40925      1135.31625        31.12925                                                                
G07  20926445.62325     -4439.04525        42.50625        32.11225                                                                
G08  21965587.44025    -19131.09525       176.18425        29.81325  21965417.75824    -14815.18024       133.11824        24.46724
G09  21088189.35026    219260.96426     -2435.30426        36.99826  21088020.86725    169252.85325     -1817.91525        33.96625
G14  22085552.39026   -226806.95226      2482.96326        38.46726  22085393.80024   -175145.91024      1853.02624        27.48024
G20  23253213.13626     74895.79626      -844.67026        39.32526                                                                
G22  23352496.30326   -271591.14826      2981.45426        41.31226                                                                
G27  23592633.95925    183810.16225     -2055.82625        30.24525  23592464.87624    142295.46624     -1537.05524        28.55224
G30  21609592.29126   -125197.87626      1373.78426        38.71226  21609430.70225    -96655.36925      1025.86625        33.96625
R02  19464249.58026    161804.75926     -1819.93726        40.65926
R13  20032181.80925    -66615.26525       715.59925        29.89125
R12  20182572.39625    196981.33925     -2183.77925        35.08525
R01  22788070.74725    418562.94125     -4588.35425        35.38925
R21  23667826.40523    -73707.46423       783.06323        20.17323
R03  20558489.35427   -218362.11027      2381.53527        42.58827
E07  24240875.79125    177329.28325     -1941.10625        34.12225  24240713.90325    133510.34025     -1448.25725        31.98725
E19  26988582.49324   -208598.98324      2376.68424        26.32024  26988421.20525   -154025.52525      1775.71625        30.05525
E27  23309596.90225     -4106.14825        38.19325        34.93625  23309435.91324     -3599.23324        27.58724        28.74724
E30  25371301.71325    215407.29825     -2363.04625        29.69125  25371134.72926    163382.90526     -1765.56526        37.22226
> 2023 11 07 23 44 03.0002694  0 20                      
G04  23470748.53926    320629.21026     -3548.97726        36.28726  23470591.44825    242097.69225     -2649.92025        33.37425
G05  24236199.02925    -91782.62125      1135.01125        31.10125                                                                
G07  20926404.25225     -4482.00525        41.60425        31.12925                                                                
G08  21965527.48224    -19303.20824       178.59124        28.13224  21965354.20225    -14949.18525       132.98025        30.82425
G09  21088614.75626    221695.69226     -2434.18726        39.20426  21088454.36725    171070.00125     -1817.17725        33.58025
G14  22085050.53826   -229289.48426      2484.11926        40.47526  22084891.64824   -176999.35824      1854.78124        26.56024
G20  23253346.24326     75740.80426      -844.77826        37.06526                                                                
G22  23351898.81727   -274572.60627      2981.72327        42.70727                                                                
G27  23592995.50924    185869.27024     -2052.92124        29.08724  23592826.72624    143829.65424     -1536.39724        25.11724
G30  21609304.79026   -126569.40626      1371.11926        37.81426  21609139.60425    -97679.21425      1023.52325        33.40325
R02  19464561.66426    163624.05626     -1818.46926        39.16326
R13  20032012.12725    -67331.20725       715.68725        30.97425
R12  20182950.73425    199167.91525     -2182.66425        34.91325
R01  22788919.45926    423149.44626     -4586.96726        36.73626
R21  23667641.43324    -74490.60924       782.70824        25.32824
R03  20558010.58527   -220741.59627      2379.61627        43.30527
E07  24241208.86026    179269.25526     -1939.38626        36.82726  24241052.66825    134960.08725     -1447.80825        30.95025
E19  26988098.02924   -210969.84224      2375.52724        26.66924  26987937.93925   -155800.05825      1773.43825        30.97925
E27  23309560.02726     -4143.32126        37.86226        36.11726  23309398.43924     -3628.06624        26.54024        28.81924
E30  25371722.92224    217762.19024     -2362.40724        28.97124  25371555.03825    165151.75125     -1765.81225        34.99425
> 2023 11 07 23 44 04.0002692  0 20                      
G04  23471360.41526    324175.58726     -3545.94626        37.60626  23471206.32225    244746.40825     -2647.74825        30.49025
G05  24235923.21925    -92912.91425      1130.61825        33.57125                                                                
G07  20926336.79825     -4521.00525        40.68425        31.40625                                                                
G08  21965433.34725    -19483.04125       181.31025        31.06225  21965258.56825    -15081.36525       132.04525        33.01125
G09  21089018.87626    224128.04426     -2431.77226        41.47126  21088856.38925    172885.77025     -1815.36025        33.92225
G14  22084514.20926   -231776.61326      2485.25126        39.95426  22084356.81825   -178852.81325      1854.13325        30.04025
G20  23253440.67826     76587.92126      -845.63626        37.17126                                                                
G22  23351268.65326   -277555.09826      2982.76226        41.25726                                                                
G27  23593331.57625    187919.95025     -2050.71025        30.17925  23593160.69523    145365.01523     -1535.91223        22.05323
G30  21608984.31126   -127939.29726      1370.06626        39.60426  21608817.92725    -98702.26425      1022.52825        35.06125
R02  19464841.37126    165442.74026     -1818.05226        39.94826
R13  20031821.15925    -68045.64225       714.25125        32.48325
R12  20183300.29225    201349.71225     -2180.88025        34.21925
R01  22789688.12726    427732.91826     -4584.21726        36.13626
R21  23667430.97824    -75271.21524       785.63024        24.38524
R03  20557503.63626   -223118.40426      2376.59326        41.28626
E07  24241519.44526    181210.36826     -1936.29426        37.91126  24241361.15525    136406.50925     -1445.53125        31.41525
E19  26987589.28124   -213338.97824      2373.92124        25.85524  26987426.79325   -157571.16125      1771.22025        32.76725
E27  23309493.47326     -4179.36426        36.09326        36.67526  23309330.98624     -3655.23624        27.53324        28.58224
E30  25372110.25424    220119.21824     -2360.33124        28.79224  25371944.76825    166924.43825     -1766.26325        30.86225
> 2023 11 07 23 44 05.0002691  0 20                      
G04  23472007.96726    327721.45626     -3545.37726        39.87626  23471851.17625    247395.60125     -2648.86425        32.38425
G05  24235680.68725    -94039.03225      1126.48025        33.03625                                                                
G07  20926300.22425     -4558.63625        38.12625        30.74725                                                                
G08  21965359.89825    -19662.18025       178.81425        35.27025  21965194.71225    -15212.75925       132.99725        34.38825
G09  21089452.97626    226559.34326     -2431.24526        40.85526  21089289.88825    174702.84625     -1816.78225        32.21925
G14  22084011.45727   -234259.67227      2483.15727        41.75927  22083854.96525   -180707.00625      1855.32825        32.08325
G20  23253573.18626     77437.84626      -849.46126        37.35226                                                                
G22  23350666.97026   -280532.90926      2981.58326        37.21926                                                                
G27  23593696.42424    189967.57024     -2051.09524        25.17924                                                                
G30  21608693.81326   -129307.01226      1366.24026        38.47826  21608526.82826    -99724.34426      1021.93426        37.29926
R02  19465151.35627    167262.90327     -1819.86727        41.86527
R13  20031651.47625    -68758.51425       713.87825        31.35125
R12  20183672.93425    203531.90525     -2178.83325        32.17525
R01  22790514.65525    432317.48125     -4581.11325        34.65725
R21  23667256.19924    -76058.67424       786.87724        24.01824
R03  20557030.56426   -225493.35826      2375.82026        39.97726
E07  24241866.90526    183147.45026     -1935.99826        38.96226  24241699.62125    137853.75025     -1447.04325        30.79725
E19  26987104.51624   -215712.19324      2372.13024        25.19924  26986945.32725   -159341.70725      1770.59325        31.75525
E27  23309455.99926     -4214.13126        35.13326        36.15326  23309294.41124     -3681.01424        26.57424        28.03724
E30  25372529.36324    222485.64524     -2359.24724        29.21824  25372365.07724    168703.20724     -1766.62924        26.32024
> 2023 11 07 23 44 06.0002690  0 20                      
G04  23472644.42626    331262.32626     -3545.90926        36.55726  23472496.92924    250044.46724     -2649.71724        28.98624
G05  24235438.45525    -95160.99025      1124.11925        31.50225                                                                
G07  20926260.65125     -4593.23525        38.29625        31.88525                                                                
G08  21965297.84126    -19838.52426       176.61826        38.99426  21965130.85626    -15345.48126       130.72726        37.38926
G09  21089884.37726    228989.10426     -2433.33826        38.97126  21089721.88925    176519.27025     -1816.89725        34.14525
G14  22083509.90427   -236741.33927      2481.76427        42.52927  22083349.51525   -182558.94225      1850.50025        33.56925
G20  23253711.69025     78286.77025      -851.98925        33.98625                                                                
G22  23350074.28026   -283511.16026      2979.37326        41.06126                                                                
G27  23594052.27724    192018.50724     -2053.24224        26.21224                                                                
G30  21608401.81526   -130672.84926      1361.94226        36.29326  21608236.02927   -100741.01227      1019.61627        41.56027
R02  19465461.94127    169084.89127     -1822.47127        42.08127
R13  20031487.49024    -69469.30324       710.39124        28.34624
R12  20184056.66825    205710.87325     -2178.96925        33.72125
R01  22791340.88326    436904.04326     -4581.56726        36.14426
R21  23667082.91923    -76847.87823       784.66223        22.87423
R03  20556559.29026   -227870.37626      2375.72226        37.67526
E07  24242196.67626    185085.64026     -1938.94426        37.09326  24242037.18725    139300.82525     -1446.94125        32.29425
E19  26986630.24524   -218087.40924      2370.61124        29.41824  26986464.16025   -161110.60325      1770.29625        32.91025
E27  23309422.42326     -4248.55526        34.18826        36.88226  23309256.03824     -3706.51224        24.95824        29.27424
E30  25372949.97225    224848.10525     -2358.66925        31.49425  25372785.38624    170473.11524     -1763.30324        25.86224
> 2023 11 07 23 44 07.0002689  0 20                      
G04  23473291.97826    334808.95426     -3546.73526        35.50626  23473141.48224    252693.46224     -2648.77324        25.72424
G05  24235201.01924    -96280.78924      1122.32424        28.43224                                                                
G07  20926224.37625     -4637.96725        40.39225        31.91125                                                                
G08  21965228.88826    -20012.93226       173.78526        39.24926  21965067.00126    -15476.39526       130.90426        37.55026
G09  21090320.27526    231420.02726     -2431.09226        35.50526  21090154.79025    178339.36925     -1817.74025        30.43825
G14  22083007.75227   -239222.35927      2480.18927        42.71927  22082849.16225   -184411.52225      1852.56225        32.29025
G20  23253846.29725     79140.46925      -851.32525        33.30625                                                                
G22  23349483.08926   -286490.68026      2978.90426        38.27626                                                                
G27  23594416.22624    194074.27524     -2055.87724        26.46524  23594246.84324    149991.96724     -1538.71324        24.79224
G30  21608109.81725   -132038.21425      1366.22725        34.78125  21607946.73026   -101757.07826      1020.93526        40.96126
R02  19465773.12627    170908.74027     -1825.22927        43.91327
R13  20031319.00624    -70178.53124       708.71124        28.25824
R12  20184486.57125    207887.81025     -2180.43625        33.32725
R01  22792170.40926    441487.15126     -4581.25126        37.58326
R21  23666912.93724    -77632.52924       782.70024        26.42724
R03  20556087.71725   -230249.61225      2375.33625        35.40925
E07  24242538.44025    187023.47525     -1938.93925        34.82825  24242375.95224    140749.48124     -1447.29224        28.94924
E19  26986153.27524   -220458.67924      2369.32424        26.25824  26985982.99325   -162880.47225      1768.74725        30.44325
E27  23309383.74926     -4280.60126        33.31026        37.33626  23309218.86425     -3731.82225        25.59325        29.65525
E30  25373366.08425    227205.19325     -2359.88625        32.53525  25373205.99524    172242.46524     -1768.91424        27.17124
> 2023 11 07 23 44 08.0002687  0 20                      
G04  23473909.55125    338355.74925     -3546.77725        35.31325  23473755.45724    255339.19624     -2649.43824        25.31424
G05  24234920.41425    -97403.25925      1121.70725        29.91425                                                                
G07  20926157.22325     -4676.72625        39.61525        32.86225                                                                
G08  21965136.55226    -20189.24326       173.18726        36.25826  21964973.16525    -15607.37425       131.21725        35.47325
G09  21090726.79425    233851.74725     -2432.64925        32.39925  21090558.01125    180158.79725     -1817.25925        31.44525
G14  22082473.82126   -241702.61126      2479.71026        40.88326  22082315.83125   -186264.19325      1853.36025        34.55825
G20  23253948.52625     79992.08225      -851.97525        33.89825                                                                
G22  23348843.63226   -289469.93526      2979.17026        41.41526                                                                
G27  23594757.09025    196128.24125     -2055.30425        30.13425  23594579.61224    151532.61024     -1540.22724        26.62924
G30  21607786.94026   -133410.96126      1368.72826        39.79326  21607626.55126   -102777.43226      1022.06826        37.65026
R02  19466058.52826    172732.49426     -1824.45226        40.88126
R13  20031134.63425    -70891.56425       708.27625        30.86925
R12  20184796.55625    210069.31225     -2180.96525        32.59025
R01  22792965.75826    446070.90326     -4584.19126        41.04726
R21  23666726.16625    -78413.58525       780.97525        29.58625
R03  20555583.16626   -232621.75326      2373.02926        39.52026
E07  24242848.42525    188961.90725     -1938.33925        31.52725  24242685.03825    142197.54725     -1446.48825        29.62625
E19  26985626.53925   -222827.03125      2368.56925        29.75725  26985471.84725   -164649.40725      1769.04625        30.44925
E27  23309318.39525     -4314.74625        34.58425        35.41325  23309153.20925     -3757.21425        25.95825        31.15725
E30  25373756.71425    229571.17525     -2362.04525        31.21325  25373595.42524    174018.28624     -1765.81424        28.27324
> 2023 11 07 23 44 09.0002686  0 20                      
G04  23474554.70426    341903.33726     -3547.81826        40.81826  23474399.11226    257987.65326     -2649.32026        36.15326
G05  24234677.28225    -98531.22725      1127.48825        35.18825                                                                
G07  20926116.15125     -4715.11925        39.23425        32.17025                                                                
G08  21965073.89625    -20368.08525       174.29025        34.32725  21964910.20925    -15737.22425       129.80025        32.67225
G09  21091156.39626    236288.47426     -2434.47526        40.16026  21090990.01125    181976.03525     -1817.45425        31.44825
G14  22081975.86626   -244182.44926      2479.18926        39.32426  22081813.67826   -188116.76726      1852.28926        38.07926
G20  23254077.43725     80845.24925      -853.30825        33.39225                                                                
G22  23348253.64026   -292449.89226      2980.16426        36.77826                                                                
G27  23595123.13624    198182.29524     -2056.04324        28.72224  23594943.86024    153074.07824     -1539.38024        25.91124
G30  21607499.73927   -134779.19627      1368.51227        42.76627  21607335.45326   -103798.38226      1020.64626        40.86026
R02  19466362.51826    174556.70026     -1823.68526        41.31926
R13  20030974.24525    -71604.13525       707.89825        29.96125
R12  20185165.00125    212252.68725     -2181.58625        30.58625
R01  22793793.78526    450655.79326     -4582.81926        37.20426
R21  23666550.18824    -79194.25524       779.48024        27.88924
R03  20555103.49826   -234993.62726      2371.51626        40.30926
E07  24243185.69225    190899.68125     -1938.20625        34.98225  24243023.80425    143644.91525     -1446.94125        31.29525
E19  26985153.76724   -225197.37224      2368.39724        27.09924  26984990.38025   -166419.61725      1770.14225        32.75625
E27  23309281.82026     -4349.22626        33.96526        37.75626  23309116.33525     -3782.37625        25.14025        31.67225
E30  25374179.42124    231944.44524     -2364.04824        29.03424  25374015.13524    175784.28924     -1765.82924        27.34524
> 2023 11 07 23 44 10.0002685  0 20                      
G04  23475199.25827    345453.97827     -3551.39227        42.16527  23475044.56526    260639.08226     -2651.82926        38.77726
G05  24234433.25125    -99655.99225      1128.29625        33.31025                                                                
G07  20926079.87625     -4754.67625        39.44525        30.35425                                                                
G08  21965016.33625    -20545.78725       175.84925        31.27725  21964847.85224    -15869.34324       130.73224        28.36124
G09  21091589.59626    238726.12826     -2437.56326        41.49426  21091424.11125    183796.92725     -1819.82525        32.03525
G14  22081471.61526   -246660.22826      2476.91326        39.49926  22081312.12625   -189965.85025      1850.50125        33.70225
G20  23254207.84725     81699.32725      -855.27525        33.36725                                                                
G22  23347656.45425   -295429.54725      2978.94525        34.27125                                                                
G27  23595492.18125    200240.75325     -2056.80925        31.06425  23595306.30924    154609.63124     -1537.80124        25.92824
G30  21607208.34127   -136146.23327      1367.34027        42.42027  21607045.55426   -104819.29126      1021.73226        40.53026
R02  19466680.89726    176383.84926     -1827.98426        40.95626
R13  20030808.46025    -72316.80625       708.35125        30.82225
R12  20185552.03325    214434.92525     -2182.29425        34.29925
R01  22794614.01725    455241.53025     -4586.52925        35.16025
R21  23666376.60824    -79968.52824       775.84324        29.25924
R03  20554635.52226   -237365.30026      2371.81026        39.74926
E07  24243526.55626    192841.49826     -1941.66226        38.32226  24243361.97025    145095.44125     -1450.24025        30.80125
E19  26984673.19924   -227575.16624      2369.57924        28.68224  26984509.21325   -168189.46825      1769.45625        29.79025
E27  23309241.94826     -4380.42926        31.07826        36.34726  23309079.46025     -3805.77425        23.91825        34.09125
E30  25374599.13124    234319.30324     -2365.82024        25.40024  25374436.94324    177547.64424     -1764.77024        25.22124
> 2023 11 07 23 44 11.0002684  0 20                      
G04  23475851.60626    349007.06026     -3553.95626        37.92626  23475691.21725    263292.55825     -2654.39925        35.07725
G05  24234182.62426   -100781.34826      1122.66926        36.40426                                                                
G07  20926047.79925     -4793.17125        38.11725        30.64325                                                                
G08  21964969.26824    -20718.88324       176.82024        29.33124  21964784.89624    -16001.62624       130.65424        25.10224
G09  21092025.19526    241164.50026     -2438.57926        39.63726  21091857.91125    185617.77725     -1821.41325        31.59825
G14  22080972.46126   -249138.23626      2477.04026        40.44226  22080809.67425   -191809.93325      1850.89025        34.65525
G20  23254341.85427     82552.86527      -853.33827        41.98527                                                                
G22  23347065.26326   -298404.37326      2976.55126        36.22726                                                                
G27  23595846.83525    202305.49225     -2063.48125        30.85725  23595668.45924    156150.74224     -1544.07224        27.32224
G30  21606916.34327   -137513.66527      1366.30627        41.65227  21606754.15526   -105840.17526      1021.10526        39.21226
R02  19466987.28526    178212.06126     -1829.06026        38.24826
R13  20030645.37325    -73026.94725       708.70025        31.51825
R12  20185928.87225    216614.98325     -2185.58725        33.67225
R01  22795450.73826    459829.94326     -4588.16226        38.83926
R21  23666200.93024    -80740.13424       775.71124        27.10024
R03  20554164.24826   -239736.90326      2370.23326        39.99226
E07  24243865.92126    194784.91126     -1943.90926        36.50426  24243701.63524    146546.24124     -1451.02524        29.28724
E19  26984182.13925   -229952.31725      2371.58925        32.75625  26984027.74624   -169958.80624      1770.24424        25.69224
E27  23309207.17226     -4412.74926        31.38326        36.01426  23309043.18525     -3829.37725        23.43725        35.13725
E30  25375043.72324    236684.39824     -2365.55124        27.98924  25374856.65224    179319.08624     -1767.29024        26.20224
> 2023 11 07 23 44 12.0002682  0 20                      
G04  23476463.48325    352561.48225     -3552.93525        34.93325  23476307.59025    265946.63325     -2654.72425        31.30525
G05  24233905.01726   -101905.01326      1124.26726        36.86826                                                                
G07  20925978.24725     -4829.03125        36.25025        33.79225                                                                
G08  21964874.23425    -20893.77625       174.63925        29.74325  21964693.15924    -16129.96824       126.62424        26.98324
G09  21092429.91526    243605.07626     -2440.77126        38.64126  21092262.33124    187440.30824     -1822.31124        28.46924
G14  22080439.13027   -251615.69127      2477.06227        43.22127  22080278.14225   -193660.76425      1850.97925        34.47525
G20  23254441.98527     83405.34227      -851.15827        43.13127                                                                
G22  23346435.99926   -301379.87826      2974.82126        39.66226                                                                
G27  23596173.30925    204370.14125     -2066.42225        29.60225  23596000.02924    157695.90524     -1542.05724        27.64624
G30  21606597.36427   -138880.69227      1367.06227        41.93527  21606433.97726   -106861.10626      1020.60926        38.75326
R02  19467279.58326    180041.72926     -1828.65326        38.31726
R13  20030458.90225    -73735.99225       709.20525        30.36825
R12  20186272.13525    218804.79325     -2188.82425        34.65325
R01  22796244.28826    464420.57326     -4591.47526        35.86126
R21  23665945.80724    -81510.26324       772.10424        26.04124
R03  20553648.90526   -242107.85226      2371.40126        40.58126
E07  24244172.00926    196730.20226     -1945.62926        36.14526  24244011.62024    147995.88624     -1449.88324        26.85724
E19  26983674.59125   -232324.91125      2373.35325        34.64125  26983515.70124   -171728.56424      1771.97924        23.73324
E27  23309141.21726     -4443.45926        30.54726        37.32526  23308977.53125     -3852.22325        22.06825        35.26025
E30  25375417.26424    239047.43724     -2365.10224        26.95924  25375245.18324    181100.00724     -1768.84524        27.62324
> 2023 11 07 23 44 13.0002681  0 20                      
G04  23477114.33225    356114.19625     -3551.96225        31.50325  23476953.94324    268604.70524     -2653.94724        27.41524
G05  24233660.68626   -103028.59526      1123.11326        40.31926                                                                
G07  20925944.07026     -4864.95126        34.73226        35.60126                                                                
G08  21964813.97625    -21069.30925       173.49725        30.33425  21964630.50324    -16255.10324       125.58724        26.75724
G09  21092868.81125    246043.78725     -2439.19525        34.60925  21092697.03024    189268.07124     -1820.57424        29.19924
G14  22079936.67826   -254093.41926      2477.08126        39.75626  22079775.68926   -195514.21426      1851.58026        36.95426
G20  23254575.69226     84258.69726      -853.04226        39.47726                                                                
G22  23345836.71426   -304356.04626      2975.25426        38.91526                                                                
G27  23596537.25725    206437.36825     -2066.23725        30.37025  23596363.37825    159236.07725     -1543.20525        29.85725
G30  21606306.86526   -140249.60026      1367.47326        38.80726  21606143.47826   -107883.15926      1022.81526        38.01526
R02  19467600.66126    181870.63426     -1829.81726        35.65326
R13  20030303.60925    -74446.24025       710.25725        31.48425
R12  20186637.28226    220995.25326     -2191.57626        36.06826
R01  22797073.81425    469012.17325     -4593.79225        34.99825
R21  23665797.70924    -82277.41924       771.64324        24.29224
R03  20553183.62727   -244479.17227      2371.28027        44.03827
E07  24244513.77225    198674.92825     -1946.34625        33.51225  24244351.28524    149444.80924     -1451.56024        27.11924
E19  26983193.72425   -234698.68325      2374.66525        35.16725  26983033.63523   -173500.08323      1771.33823        21.71823
E27  23309106.74126     -4474.39226        31.36326        36.12126  23308941.55625     -3873.98625        23.75825        33.29225
E30  25375837.87324    241417.83124     -2364.38124        27.51924  25375665.19325    182868.59825     -1767.32925        30.89025
> 2023 11 07 23 44 14.0002680  0 20                      
G04  23477754.38925    359665.81625     -3553.99125        34.86425  23477599.39625    271261.01225     -2655.00025        32.69125
G05  24233418.15426   -104150.70026      1120.47226        36.84026                                                                
G07  20925908.39525     -4900.47925        34.91725        34.39925                                                                
G08  21964752.21825    -21244.92025       169.84325        29.93525  21964567.54624    -16378.79324       124.21224        29.08424
G09  21093291.21826    248484.00126     -2439.98826        36.67626  21093130.23025    191092.41025     -1824.88825        31.02325
G14  22079434.52627   -256571.26527      2477.73227        43.44027  22079274.73626   -197363.63226      1851.12426        38.17826
G20  23254705.20326     85111.36426      -852.24626        40.74026                                                                
G22  23345238.92726   -307332.75526      2977.09326        36.79526                                                                
G27  23596895.50925    208506.21525     -2068.11925        32.21825  23596726.72625    160777.52225     -1544.53025        31.69825
G30  21606016.66626   -141617.26626      1367.03626        37.99926  21605852.38026   -108904.41026      1021.71426        36.78426
R02  19467901.95226    183701.61326     -1831.21426        40.02726
R13  20030140.22225    -75156.67625       712.42625        30.91225
R12  20187043.50125    223182.99425     -2187.05025        34.87125
R01  22797906.93725    473603.10325     -4592.00325        35.32425
R21  23665616.93424    -83044.51124       772.70024        25.57024
R03  20552714.75226   -246849.97226      2371.51326        40.00926
E07  24244853.73725    200620.11025     -1946.00525        34.92325  24244690.95024    150896.87724     -1452.07924        28.85324
E19  26982712.25725   -237072.69225      2375.61225        32.09425  26982552.16824   -175272.62424      1772.64924        25.96124
E27  23309066.26925     -4505.23825        30.82725        35.39025  23308905.58025     -3896.69725        22.32425        31.06425
E30  25376257.58224    243791.36224     -2364.10724        28.63924  25376086.10125    184636.95825     -1768.62925        32.70025
> 2023 11 07 23 44 15.0002678  0 20                      
G04  23478373.76026    363220.55326     -3556.13026        37.80626  23478215.76924    273915.48024     -2653.01424        29.29924
G05  24233140.84625   -105273.68625      1117.11225        33.48025                                                                
G07  20925838.84325     -4936.49525        36.97825        30.91825                                                                
G08  21964658.38325    -21416.45525       165.92825        30.56625  21964477.30925    -16503.53125       125.78225        32.71725
G09  21093701.03526    250925.69226     -2442.45526        37.43426  21093536.74824    192919.63724     -1821.75424        28.82024
G14  22078903.29326   -259048.14326      2477.25326        38.12026  22078742.90425   -199213.95925      1848.43725        34.81825
G20  23254807.73226     85966.45226      -856.20426        39.12326                                                                
G22  23344610.26325   -310304.56925      2972.86325        33.82425                                                                
G27  23597230.97724    210577.12824     -2068.07324        29.17224  23597060.39524    162319.95224     -1544.83324        28.36024
G30  21605687.19425   -142983.63425      1364.72025        35.27925  21605532.80126   -109925.42326      1020.90926        39.18326
R02  19468185.85526    185532.14326     -1830.17226        39.14626
R13  20029954.05125    -75865.99625       710.11425        30.39325
R12  20187387.96225    225371.64225     -2184.36425        31.89625
R01  22798701.38726    478192.30926     -4589.16126        36.65926
R21  23665439.45724    -83814.26324       773.49624        27.04324
R03  20552208.40227   -249218.68527      2368.60727        42.25027
E07  24245165.22125    202565.99325     -1945.45525        33.65825  24245001.83424    152348.30624     -1450.48224        25.50924
E19  26982199.91225   -239448.52225      2375.78025        29.60725  26982039.52325   -177043.67525      1771.32625        32.05925
E27  23309001.51426     -4534.85226        29.05826        35.55026  23308839.92625     -3919.20725        22.50325        29.77625
E30  25376664.40124    246160.38024     -2362.78824        29.36624  25376477.63025    186410.42825     -1769.20125        30.22725
> 2023 11 07 23 44 16.0002677  0 20                      
G04  23479018.01426    366774.66526     -3554.07126        37.50926  23478862.42224    276565.25924     -2653.18324        27.97524
G05  24232902.21125   -106390.64625      1116.26225        34.35625                                                                
G07  20925804.66725     -4977.92125        37.68725        29.68025                                                                
G08  21964591.23025    -21585.25625       166.00325        29.91325  21964416.45125    -16629.61625       123.12325        30.51225
G09  21094135.13426    253367.22326     -2441.19226        39.93626  21093969.04925    194742.24425     -1821.68925        31.82925
G14  22078399.94226   -261524.11126      2475.82626        41.28726  22078241.35225   -201065.42525      1849.71125        32.60325
G20  23254938.14126     86823.42626      -861.79426        36.18126                                                                
G22  23344014.27525   -313279.79525      2971.35925        30.86825                                                                
G27  23597602.72024    212646.82724     -2069.10724        28.08724  23597423.74325    163860.62825     -1545.99125        30.25625
G30  21605398.49426   -144348.61526      1362.88626        37.50526  21605242.60226   -110945.73226      1020.29126        41.11426
R02  19468497.34026    187364.61826     -1832.57426        40.53426
R13  20029777.77324    -76572.25724       706.94924        28.23224
R12  20187772.89625    227560.68325     -2184.59825        30.92525
R01  22799524.31826    482780.77026     -4587.66526        37.62426
R21  23665241.29425    -84587.87325       773.92625        29.87125
R03  20551742.22527   -251585.94427      2366.60627        41.61627
E07  24245499.49026    204510.31626     -1943.63026        37.91426  24245340.30024    153799.87924     -1451.44424        29.15324
E19  26981717.24624   -241827.39724      2372.07424        27.28624  26981558.35625   -178813.66125      1769.55125        29.75525
E27  23308967.63725     -4563.19025        27.89125        35.17125  23308805.45025     -3941.25425        21.51325        31.82525
E30  25377074.81724    248532.88724     -2362.53124        27.95124  25376898.23924    188186.70924     -1768.83724        27.41124
> 2023 11 07 23 44 17.0002676  0 20                      
G04  23479661.36926    370323.76826     -3552.66026        39.25826  23479508.17524    279218.11424     -2653.25924        27.03324
G05  24232661.47825   -107507.87625      1116.17925        33.46725                                                                
G07  20925771.69024     -5016.48324        36.34624        29.39724                                                                
G08  21964530.37224    -21753.05424       167.36024        29.32924  21964355.29324    -16756.75724       123.73524        25.88324
G09  21094568.63426    255808.91826     -2440.97326        40.74626  21094404.04825    196565.25525     -1823.18025        33.38225
G14  22077901.68727   -263999.87127      2475.99327        41.76027  22077739.19926   -202915.14926      1848.88026        35.68926
G20  23255072.14925     87682.75325      -861.34725        34.85325                                                                
G22  23343423.98424   -316252.56424      2970.12224        28.90524                                                                
G27  23597961.57124    214713.40924     -2066.38424        29.27024  23597787.69225    165404.62725     -1547.01125        32.11725
G30  21605114.89026   -145714.18926      1365.56226        39.08826  21604952.10326   -111965.18626      1019.25026        39.59726
R02  19468809.42426    189197.42126     -1834.74026        40.74126
R13  20029601.49524    -77278.55924       705.26424        27.63124
R12  20188151.23425    229749.81525     -2187.58025        32.44625
R01  22800354.14326    487369.11926     -4588.75726        37.52826
R21  23665074.31024    -85364.75424       771.93324        29.13724
R03  20551266.75426   -253953.52426      2364.96326        40.32926
E07  24245842.45326    206453.99926     -1944.06426        38.43926  24245679.96525    155251.49025     -1451.50025        31.70325
E19  26981233.38124   -244208.70524      2373.42124        28.08324  26981078.08824   -180583.27224      1769.79424        29.29224
E27  23308931.96225     -4591.83625        27.25125        35.28225  23308769.47525     -3963.43625        22.21125        30.83825
E30  25377496.62524    250908.73224     -2363.27524        26.84624  25377318.54824    189966.52524     -1769.87024        26.90224
> 2023 11 07 23 44 18.0002675  0 20                      
G04  23480309.22026    373873.70126     -3551.15826        38.67026  23480154.52724    281874.35024     -2651.65824        27.57624
G05  24232422.54325   -108624.25625      1116.07825        34.59725                                                                
G07  20925730.31825     -5049.90725        35.22925        30.53025                                                                
G08  21964471.91324    -21922.22724       166.82124        29.24224  21964293.83624    -16881.33624       124.29224        25.91724
G09  21095000.93527    258250.93527     -2441.45827        42.71627  21094838.44725    198389.14225     -1823.80025        33.30825
G14  22077393.23926   -266474.41526      2476.86126        39.67826  22077237.64626   -204764.70126      1850.36726        35.69526
G20  23255205.55626     88544.03626      -859.34926        35.79526                                                                
G22  23342828.89624   -319222.04224      2969.78124        28.52124                                                                
G27  23598321.02224    216781.12424     -2065.47824        29.37224  23598152.53925    166952.23525     -1547.79025        30.28825
G30  21604828.28926   -147079.40926      1366.53426        40.82626  21604662.50326   -112984.81526      1020.52126        40.42626
R02  19469126.90427    191032.12027     -1835.87227        41.82627
R13  20029454.59724    -77983.22824       702.85724        29.28924
R12  20188529.27225    231939.32525     -2189.32125        32.69125
R01  22801186.36725    491962.29825     -4590.48025        33.40725
R21  23664901.92924    -86134.87524       770.47724        26.40924
R03  20550786.18727   -256318.38527      2363.84427        41.75527
E07  24246181.81826    208399.11726     -1944.86926        41.07626  24246019.63025    156702.95025     -1451.94525        31.62325
E19  26980754.01324   -246591.24924      2369.99324        28.58424  26980597.22124   -182352.18024      1769.56324        29.00924
E27  23308897.48625     -4622.85525        26.82825        34.69125  23308733.50025     -3984.73025        22.53525        31.60825
E30  25377917.53324    253277.60224     -2364.06724        27.89224  25377738.85725    191748.74725     -1769.27125        30.61325
> 2023 11 07 23 44 19.0002673  0 20                      
G04  23480925.29426    377426.80526     -3553.35726        38.01626  23480768.50225    284527.03525     -2652.80625        31.73425
G05  24232146.73425   -109740.44825      1116.00625        33.34025                                                                
G07  20925659.86725     -5082.12625        33.64625        30.60925                                                                
G08  21964384.37325    -22092.26625       168.99825        29.98325  21964199.70125    -17003.43725       122.14225        29.91825
G09  21095406.55427    260693.02327     -2441.09827        43.84527  21095243.76725    200212.87725     -1823.88725        33.67725
G14  22076867.70326   -268950.56926      2476.97326        40.48726  22076705.81525   -206613.60725      1848.37725        34.67425
G20  23255308.68525     89402.33625      -857.62425        33.50625                                                                
G22  23342201.13025   -322196.59725      2974.05925        33.85625                                                                
G27  23598656.79024    218845.20924     -2064.15824        28.41724  23598486.50824    168499.79724     -1547.34224        29.41724
G30  21604507.51126   -148444.31726      1365.54826        39.44226  21604342.02526   -114004.67526      1019.88126        41.26426
R02  19469408.70926    192866.71026     -1835.36426        41.20726
R13  20029267.82624    -78687.96824       701.02724        27.95324
R12  20188875.53225    234127.18325     -2192.48225        32.49525
R01  22801975.42125    496550.93025     -4589.78525        32.85125
R21  23664709.16324    -86905.45024       771.06224        26.85124
R03  20550291.52926   -258683.66926      2365.43826        40.34826
E07  24246484.90827    210344.04327     -1944.75127        41.67527  24246329.01625    158155.50125     -1453.33525        30.43225
E19  26980241.96725   -248969.12925      2367.54825        29.74825  26980086.37524   -184118.53324      1768.53824        26.10424
E27  23308832.43125     -4650.55125        27.39325        35.39525  23308666.94625     -4011.41425        20.09825        30.63025
E30  25378303.66624    255645.80024     -2365.67824        26.67924  25378130.08624    193522.99624     -1768.72224        28.72224
> 2023 11 07 23 44 20.0002672  0 20                      
G04  23481570.14726    380979.78026     -3553.68226        38.21926  23481414.55525    287179.79825     -2653.45925        30.92625
G05  24231902.40325   -110856.16025      1116.42225        29.60725                                                                
G07  20925627.49025     -5112.85925        33.88125        31.16825                                                                
G08  21964298.03326    -22261.33626       166.81526        36.35226  21964137.94425    -17125.68125       123.14425        33.55425
G09  21095838.85527    263135.03327     -2441.34327        43.56427  21095677.86625    202036.25825     -1822.85725        34.36825
G14  22076367.04926   -271425.81026      2475.49726        40.73226  22076204.86125   -208461.77725      1848.57625        34.61525
G20  23255442.09225     90257.94725      -858.21825        32.95925                                                                
G22  23341603.04425   -325171.98125      2976.87625        35.44725                                                                
G27  23599025.83424    220907.46224     -2063.06924        26.64124  23598850.75624    170047.42324     -1547.00124        26.16324
G30  21604217.01226   -149807.27826      1361.93426        39.65126  21604052.42627   -115023.34527      1018.79427        42.21027
R02  19469720.79326    194700.45626     -1834.90226        40.18626
R13  20029110.73525    -79391.85625       703.53025        29.65625
R12  20189263.16425    236320.79725     -2194.17325        32.18325
R01  22802797.45225    501143.15625     -4589.21125        31.82525
R21  23664537.08224    -87679.97024       769.73424        24.17424
R03  20549824.45326   -261047.62326      2363.54926        38.40826
E07  24246833.56626    212288.97826     -1944.69026        41.27826  24246669.28025    159607.12825     -1450.84225        30.76925
E19  26979763.19924   -251335.80824      2365.64324        26.21724  26979606.70724   -185883.26224      1765.26324        26.36524
E27  23308794.65726     -4678.67826        27.99426        36.25726  23308630.67125     -4043.40325        21.34125        30.46625
E30  25378722.17624    258014.68324     -2367.67924        26.86924  25378551.29524    195292.06324     -1769.44224        29.17224
> 2023 11 07 23 44 21.0002671  0 20                      
G04  23482214.40126    384534.53526     -3557.17226        37.58026  23482061.20725    289833.37825     -2653.88125        32.07125
G05  24231668.86524   -111967.93424      1115.38324        25.49624                                                                
G07  20925587.31725     -5145.15925        34.04025        31.08025                                                                
G08  21964244.97026    -22424.21526       162.62526        38.31426  21964077.68526    -17246.78726       121.77726        37.44226
G09  21096275.05327    265578.75127     -2443.90827        43.66927  21096111.96625    203854.98825     -1824.52525        31.86525
G14  22075864.89726   -273899.79226      2473.51826        38.97626  22075704.20825   -210309.19225      1846.94925        33.84625
G20  23255576.69925     91114.59025      -861.47825        31.71025                                                                
G22  23341009.45525   -328144.38725      2974.89425        32.83025                                                                
G27  23599393.98024    222973.34924     -2064.06124        28.24024  23599215.60324    171595.07224     -1547.38424        24.46724
G30  21603924.11526   -151169.51726      1361.51926        39.46226  21603762.82627   -116041.49027      1017.88827        43.28427
R02  19470035.27526    196537.21226     -1835.97926        39.00826
R13  20028926.06324    -80099.01124       704.47124        28.49024
R12  20189649.59625    238517.08625     -2188.55425        31.74825
R01  22803629.37624    505734.26524     -4589.31524        29.02324
R21  23664378.49223    -88446.51423       765.29623        23.30323
R03  20549355.57726   -263410.96926      2362.19626        35.79926
E07  24247170.23327    214234.61327     -1945.75127        41.65427  24247009.54525    161059.47225     -1453.12725        29.97725
E19  26979284.73023   -253701.95323      2364.15223        22.97323  26979125.84024   -187653.28224      1767.89424        23.94324
E27  23308756.88325     -4708.28425        27.26725        35.16725  23308595.59525     -4069.14925        19.06325        30.43825
E30  25379138.28824    260379.00624     -2369.26224        28.41024  25378973.40224    197062.97124     -1769.16324        26.24124
> 2023 11 07 23 44 22.0002669  0 20                      
G04  23482831.07426    388089.42726     -3555.74926        38.64726  23482677.28125    292487.54725     -2653.21525        35.33225
G05  24231389.75823   -113083.37623      1115.96723        22.40123                                                                
G07  20925525.56025     -5177.76725        31.97825        30.83925                                                                
G08  21964148.73626    -22584.57926       158.33026        40.64726  21963985.34926    -17367.52026       120.09626        36.12426
G09  21096679.77327    268023.62827     -2445.43727        44.39327  21096517.28525    205679.67925     -1824.83725        32.28325
G14  22075336.36326   -276372.26926      2470.84426        35.94526  22075172.67625   -212155.94125      1846.95525        33.26425
G20  23255678.92824     91976.27424      -863.75224        28.82124                                                                
G22  23340381.39025   -331116.12625      2973.28625        35.39425                                                                
G27  23599732.14524    225043.21824     -2067.49524        27.40424  23599551.37124    173143.39424     -1549.14524        25.66424
G30  21603606.93426   -152531.55726      1361.52926        40.08126  21603443.24727   -117059.36027      1017.44227        41.75227
R02  19470320.07827    198375.64827     -1838.80827        42.66127
R13  20028737.79325    -80803.15825       703.93625        31.06525
R12  20190001.85325    240705.92825     -2188.67625        30.65425
R01  22804434.61825    510323.89125     -4590.55625        30.10725
R21  23664171.63524    -89212.33124       764.77324        25.16624
R03  20548854.92426   -265771.97226      2359.94426        36.94426
E07  24247479.91927    216180.72527     -1946.48027        41.85627  24247319.83025    162512.81925     -1453.67525        29.69225
E19  26978775.08323   -256066.15023      2363.14423        20.80523  26978614.39424   -189429.45724      1766.96424        27.26424
E27  23308693.62726     -4733.65626        26.59726        36.02526  23308530.54024     -4088.36024        19.22924        29.27124
E30  25379529.81725    262739.60325     -2370.92625        29.56925  25379363.43224    198836.16824     -1770.98524        27.21824
> 2023 11 07 23 44 23.0002668  0 20                      
G04  23483475.02926    391637.89926     -3552.62826        35.51526  23483323.03425    295141.16525     -2652.70525        34.48125
G05  24231148.12523   -114197.75823      1115.88623        23.46723                                                                
G07  20925489.88525     -5211.16325        32.66125        32.13525                                                                
G08  21964090.87626    -22745.07426       160.21926        39.77226  21963924.79126    -17488.09726       121.14026        36.29226
G09  21097115.97127    270468.93427     -2445.81027        43.61827  21096952.58425    207505.25025     -1824.79825        31.25825
G14  22074835.70925   -278844.19125      2471.22425        34.19525  22074672.62225   -214002.74125      1847.77025        31.89525
G20  23255810.53724     92837.53724      -865.29024        26.02424                                                                
G22  23339782.10526   -334088.25126      2971.04126        37.46626                                                                
G27  23600091.29724    227116.60624     -2071.36824        27.73124  23599918.31724    174692.15024     -1546.93824        27.05524
G30  21603320.03326   -153894.08126      1362.79826        41.44726  21603153.94827   -118076.58527      1018.13727        42.58827
R02  19470630.66326    200214.69026     -1838.60526        41.06826
R13  20028585.49925    -81510.34825       702.87525        30.11325
R12  20190389.18425    242891.90325     -2189.57825        30.69425
R01  22805261.44625    514915.37425     -4592.81525        34.17825
R21  23664007.64824    -89979.58024       764.45524        24.82124
R03  20548382.75126   -268133.99426      2360.86126        35.52326
E07  24247819.88426    218127.01226     -1946.05826        41.31226  24247660.39425    163964.11525     -1452.58125        30.59825
E19  26978295.41523   -258430.96223      2366.57423        23.37023  26978132.92724   -191200.92824      1767.47124        24.76924
E27  23308658.55126     -4763.16826        26.40126        35.95326  23308495.76425     -4107.53025        19.56625        30.22725
E30  25379950.12624    265100.72424     -2371.47524        27.60024  25379784.34124    200606.63224     -1768.79324        26.61424
> 2023 11 07 23 44 24.0002667  0 20                      
G04  23484120.48225    395190.09325     -3552.01825        34.78525  23483969.38625    297793.68725     -2653.31925        33.97925
G05  24230907.39224   -115311.32924      1115.35524        24.81624                                                                
G07  20925453.31025     -5244.58625        34.10925        31.36225                                                                
G08  21964027.02026    -22906.75026       162.08026        38.91226  21963864.23325    -17608.55925       120.47525        35.01025
G09  21097551.56927    272913.35827     -2444.24727        43.56727  21097386.98325    209330.94025     -1825.61125        29.94925
G14  22074333.55725   -281316.90025      2472.10025        33.70125  22074171.66925   -215850.34425      1847.05225        33.16425
G20  23255955.03723     93696.06023      -852.95423        21.59823                                                                
G22  23339181.32126   -337059.98826      2971.36226        36.17526                                                                
G27  23600451.04824    229193.49124     -2071.86924        27.28224  23600281.06524    176237.58724     -1550.62724        26.96624
G30  21603025.03726   -155260.14826      1362.96826        38.49726  21602863.74926   -119094.50126      1017.33126        41.06526
R02  19470949.64226    202053.97326     -1838.61626        40.89826
R13  20028435.90225    -82215.02325       702.63425        31.16425
R12  20190780.41425    245083.05225     -2188.06225        31.63325
R01  22806092.47126    519505.53026     -4591.08226        36.22426
R21  23663820.87824    -90746.17224       763.34124        24.19824
R03  20547905.48126   -270500.73726      2361.90826        35.76026
E07  24248161.34727    220072.83827     -1945.81027        42.12427  24248000.65824    165418.44024     -1453.45824        29.34324
E19  26977822.34224   -260796.85724      2364.21724        23.65524  26977652.06024   -192967.71824      1767.65224        28.64624
E27  23308622.87626     -4798.80726        26.02226        37.49026  23308461.58825     -4126.72425        19.66225        30.66625
E30  25380377.63024    267472.15124     -2370.90124        27.65124  25380204.65024    202376.80624     -1771.05324        28.25124
> 2023 11 07 23 44 25.0002665  0 20                      
G04  23484746.14926    398743.92026     -3554.06326        39.84026  23484584.86025    300447.43925     -2653.92825        34.82925
G05  24230633.68123   -116422.07623      1115.34323        21.27923                                                                
G07  20925384.05825     -5279.00125        33.98125        30.98925                                                                
G08  21963936.18326    -23069.30226       161.13226        38.32426  21963773.99625    -17728.37325       120.18825        35.16825
G09  21097956.58926    275358.41626     -2444.31526        40.28926  21097792.60224    211156.31724     -1825.53624        29.19324
G14  22073802.02525   -283789.01725      2471.76225        32.58925  22073641.63625   -217696.63025      1846.11925        30.66325
G20  23256058.46623     94550.72823      -859.17723        20.04323                                                                
G22  23338558.35226   -340031.87526      2971.40726        37.22226                                                                
G27  23600787.11524    231263.98724     -2071.81324        28.32724  23600615.63425    177788.82025     -1550.37225        29.56125
G30  21602709.35626   -156621.08926      1360.44026        37.69926  21602545.06927   -120111.34727      1016.86727        42.36427
R02  19471229.64826    203894.16626     -1839.65526        40.50526
R13  20028237.14025    -82915.04125       700.09025        30.90025
R12  20191118.87925    247268.72725     -2188.31625        30.21025
R01  22806895.31525    524095.48825     -4589.99925        34.41925
R21  23663592.13624    -91511.54624       763.83724        26.91124
R03  20547406.32725   -272860.67225      2360.75225        33.50525
E07  24248472.83226    222019.10226     -1946.67826        38.16026  24248310.64424    166872.64724     -1453.47324        28.30224
E19  26977310.59623   -263162.47623      2366.73623        21.50523  26977141.21424   -194731.15624      1766.76324        28.60824
E27  23308559.32026     -4828.64826        24.44126        37.00126  23308395.33425     -4145.42825        19.06725        31.32825
E30  25380770.05924    269843.41424     -2368.58124        28.80424  25380596.77824    204146.51624     -1769.75024        28.97324
> 2023 11 07 23 44 26.0002664  0 20                      
G04  23485385.60626    402298.62026     -3554.55126        39.65226  23485230.61325    303102.15625     -2654.29925        33.75525
G05  24230394.14723   -117532.04423      1115.16223        23.04823                                                                
G07  20925345.68524     -5315.26824        34.01924        28.92624                                                                
G08  21963881.62126    -23229.87826       160.78726        36.84726  21963712.83825    -17850.02625       119.06825        33.26925
G09  21098393.68626    277803.80626     -2444.23526        41.13326  21098225.80225    212982.09925     -1826.53325        30.76525
G14  22073300.17225   -286260.62425      2471.45025        31.62825  22073140.38325   -219542.19325      1845.34225        31.77825
G20  23256192.77323     95410.38523      -860.19323        21.60123                                                                
G22  23337961.16625   -343000.49025      2970.94725        33.37825                                                                
G27  23601155.26025    233335.31025     -2069.43725        30.31625  23600981.98024    179340.34624     -1551.82124        27.20624
G30  21602422.45426   -157981.91126      1361.32326        37.92726  21602256.06927   -121127.20127      1016.38727        41.85027
R02  19471545.03027    205735.86427     -1843.85327        42.29727
R13  20028073.75325    -83614.43125       699.29525        32.24125
R12  20191520.60124    249453.83524     -2188.90524        29.48424
R01  22807726.04025    528684.57925     -4589.34925        32.09925
R21  23663422.75324    -92273.63524       762.68124        28.57324
R03  20546927.25825   -275221.19525      2359.51025        33.68725
E07  24248809.19926    223966.53926     -1947.24826        37.78426  24248651.20824    168326.29224     -1454.69324        29.21024
E19  26976824.93323   -265529.86223      2368.55323        21.92723  26976659.74725   -196497.42425      1766.06125        29.89725
E27  23308528.14226     -4852.79826        24.05926        37.12226  23308360.25824     -4163.83024        17.87924        29.39024
E30  25381185.27125    272211.66725     -2366.91725        29.91425  25381016.78824    205917.54724     -1771.44824        28.34024
> 2023 11 07 23 44 27.0002663  0 20                      
G04  23486031.35926    405854.27526     -3555.81126        40.38426  23485877.26525    305757.64525     -2655.07525        34.99525
G05  24230151.01623   -118640.74823      1114.34723        21.06123                                                                
G07  20925307.91125     -5349.58025        32.75725        31.92625                                                                
G08  21963818.66526    -23387.28326       156.80826        38.60626  21963652.88025    -17969.48825       118.39325        32.59125
G09  21098826.58627    280250.69727     -2447.21827        43.66827  21098665.89825    214808.22325     -1826.22225        31.77125
G14  22072800.41826   -288731.73726      2470.44026        35.58126  22072640.62925   -221384.01525      1844.06925        29.80425
G20  23256327.67923     96270.63423      -860.47123        21.47923                                                                
G22  23337364.57925   -345967.31725      2969.81825        35.01625                                                                
G27  23601519.20825    235407.07525     -2070.04625        29.74825  23601348.32724    180892.61424     -1551.95524        27.64624
G30  21602131.95526   -159341.43326      1358.70526        39.45826  21601967.36926   -122143.25426      1016.10826        40.80426
R02  19471865.20827    207579.29327     -1844.10627        42.08427
R13  20027911.56525    -84312.55425       697.66225        31.85125
R12  20191886.04825    251639.82625     -2189.94525        30.44325
R01  22808550.46925    533275.14925     -4590.22025        33.85825
R21  23663255.16925    -93035.68025       761.42425        30.51125
R03  20546464.97825   -277577.34825      2356.53225        35.18225
E07  24249151.56226    225915.01826     -1948.41526        40.80426  24248991.17324    169783.25924     -1454.37124        27.28124
E19  26976344.36524   -267902.99024      2368.38824        23.84124  26976180.07924   -198263.60324      1766.85824        28.40624
E27  23308482.57326     -4875.78426        23.04526        38.05526  23308325.78224     -4180.87224        17.95724        29.39524
E30  25381608.27824    274578.39924     -2365.78124        29.38424  25381438.89524    207690.09924     -1772.42024        28.30124
> 2023 11 07 23 44 28.0002662  0 20                      
G04  23486683.10826    409410.10826     -3556.92126        39.09626  23486523.31826    308412.62426     -2654.11426        37.76226
G05  24229911.18223   -119754.77123      1114.01923        20.99923                                                                
G07  20925276.13325     -5380.65025        31.67825        30.39025                                                                
G08  21963755.40926    -23545.87126       159.50026        37.66426  21963592.02225    -18085.91225       117.37225        31.07525
G09  21099260.68627    282697.95227     -2447.11027        44.81027  21099098.79825    216636.19325     -1827.60425        30.99125
G14  22072295.56826   -291201.43326      2469.18826        36.10426  22072139.37625   -223228.72325      1845.50125        31.81525
G20  23256464.38524     97132.86524      -861.27324        24.59024                                                                
G22  23336774.58725   -348936.53225      2969.27125        34.42225                                                                
G27  23601882.55724    237479.70124     -2072.62624        29.02924  23601712.87424    182444.95924     -1551.98924        26.12024
G30  21601844.75426   -160701.40726      1359.00826        38.90026  21601675.67126   -123159.21226      1016.10526        39.93626
R02  19472173.69526    209422.83326     -1843.47726        40.13826
R13  20027746.97924    -85011.96824       697.94024        29.05524
R12  20192253.89425    253834.31025     -2192.49525        31.98425
R01  22809379.39525    537866.03025     -4590.53325        34.02525
R21  23663080.39024    -93796.83924       760.39524        28.40324
R03  20545994.30425   -279935.45325      2355.48125        35.31525
E07  24249490.02726    227863.02426     -1948.44226        41.37726  24249331.73724    171242.99824     -1454.36224        28.04124
E19  26975863.49824   -270280.87824      2367.58524        25.01424  26975700.71124   -200029.35824      1766.32324        28.72324
E27  23308453.49325     -4898.62725        22.59725        35.34025  23308290.40624     -4198.06424        17.22424        28.20024
E30  25382030.38625    276947.53125     -2365.83225        29.60225  25381857.70624    209459.72324     -1771.22424        28.86624
> 2023 11 07 23 44 29.0002660  0 20                      
G04  23487287.18926    412967.71126     -3558.80926        37.42826  23487139.39226    311067.60126     -2655.19026        36.93426
G05  24229640.46923   -120869.07423      1112.80423        23.46023                                                                
G07  20925212.27725     -5412.97625        31.29625        31.56025                                                                
G08  21963665.77125    -23704.07325       156.92125        34.32825  21963502.08425    -18203.48425       116.67925        29.96825
G09  21099667.20427    285146.76127     -2449.83527        41.74227  21099501.41925    218464.98925     -1827.01525        34.10425
G14  22071773.02925   -293670.01425      2467.80325        33.49425  22071609.94225   -225074.15425      1845.45825        30.04225
G20  23256569.91224     97997.67824      -861.97024        23.85724                                                                
G22  23336148.62025   -351911.86225      2970.28025        34.54225                                                                
G27  23602220.72324    239550.26924     -2074.99224        28.26024  23602048.64224    183996.94424     -1550.52324        26.65724
G30  21601524.27626   -162061.58926      1360.31126        38.75926  21601360.28926   -124175.00726      1015.99426        39.91926
R02  19472469.89026    211265.94026     -1842.95226        38.28826
R13  20027578.79624    -85712.27424       697.88624        26.31724
R12  20192610.04725    256030.97725     -2195.54525        32.21725
R01  22810172.04625    542457.57025     -4591.30525        34.16025
R21  23662878.93024    -94553.98724       758.10024        29.48424
R03  20545491.55226   -282293.56326      2354.00926        36.12226
E07  24249802.11126    229810.94026     -1947.87026        37.78926  24249640.52325    172700.26125     -1455.26525        31.51725
E19  26975352.65224   -272652.84824      2366.92424        25.40424  26975190.46424   -201797.40824      1766.20024        25.02824
E27  23308388.43826     -4921.96726        23.21426        37.72626  23308227.15024     -4214.45524        17.57824        28.58024
E30  25382420.11624    279320.30224     -2366.66624        29.29624  25382250.13424    211230.81524     -1770.85824        26.15324
> 2023 11 07 23 44 30.0002659  0 20                      
G04  23487932.34325    416524.84625     -3558.16425        35.42525  23487785.14526    313722.10826     -2652.36026        35.53026
G05  24229398.83623   -121983.08123      1112.28223        20.82523                                                                
G07  20925175.70225     -5445.36625        30.80925        32.69325                                                                
G08  21963612.10825    -23862.67825       157.55025        35.12125  21963442.72524    -18321.06324       117.65124        29.00224
G09  21100098.30626    287594.75226     -2448.27026        40.67026  21099937.91725    220287.62225     -1828.03925        32.10925
G14  22071269.67825   -296139.09425      2468.51425        33.83025  22071110.18824   -226917.53724      1845.07624        28.80324
G20  23256704.21923     98863.60123      -862.22023        23.44323                                                                
G22  23335555.93125   -354879.15125      2969.48825        32.44225                                                                
G27  23602586.76924    241627.11924     -2072.41024        28.47624  23602413.48924    185549.02524     -1551.81224        23.95224
G30  21601233.17726   -163422.75126      1360.01826        37.06526  21601070.39026   -125187.32426      1013.05026        35.84426
R02  19472774.77926    213110.34526     -1843.72926        37.15126
R13  20027419.00623    -86409.41923       695.15923        23.11623
R12  20192983.88825    258229.62825     -2197.75725        30.32825
R01  22811006.96825    547049.42725     -4592.43025        30.72125
R21  23662705.05024    -95313.05924       756.18724        28.19124
R03  20545023.27625   -284647.74225      2354.18225        34.89825
E07  24250142.07626    231759.11526     -1948.30626        39.63026  24249981.68725    174155.74925     -1454.95225        31.14225
E19  26974872.98424   -275019.50024      2366.74924        24.31324  26974710.49723   -203570.05523      1765.23823        21.38723
E27  23308352.46326     -4945.07326        22.89726        36.46726  23308191.77524     -4231.67624        16.50124        28.25024
E30  25382837.42725    281689.20025     -2368.85925        29.50625  25382670.44324    212999.33324     -1768.54024        24.44124
> 2023 11 07 23 44 31.0002658  0 20                      
G04  23488594.88426    420080.98526     -3555.80826        38.06426  23488431.49725    316376.10625     -2655.93625        33.09725
G05  24229158.40323   -123098.52123      1110.58823        21.33823                                                                
G07  20925136.72925     -5479.90825        30.99425        30.63025                                                                
G08  21963554.24825    -24020.60225       158.78725        33.86125  21963380.96825    -18437.98725       117.18025        32.45325
G09  21100535.70327    290043.62027     -2449.29727        42.13527  21100373.81525    222115.89225     -1828.29325        33.07025
G14  22070765.72726   -298606.66926      2468.90426        38.35026  22070610.13524   -228764.57524      1843.75824        25.90124
G20  23256839.12524     99725.35724      -863.13624        23.57724                                                                
G22  23334957.54526   -357848.79826      2970.40926        38.39026                                                                
G27  23602950.11824    243704.29124     -2075.76124        29.29424  23602779.53624    187102.77124     -1553.31424        24.32824
G30  21600945.97625   -164783.83425      1357.08525        33.58425  21600781.99025   -126196.86325      1014.36125        32.38425
R02  19473093.75826    214956.03026     -1846.22926        40.29826
R13  20027258.91723    -87103.01623       694.81923        20.82223
R12  20193369.12125    260424.35025     -2197.09825        30.84425
R01  22811834.69526    551641.72626     -4592.73026        38.06826
R21  23662529.67224    -96071.76824       756.56924        28.87124
R03  20544575.98626   -287002.39026      2355.80126        36.74126
E07  24250474.84626    233710.73326     -1949.71326        38.91326  24250322.85125    175611.05025     -1455.98825        31.71825
E19  26974393.01623   -277385.92023      2366.66023        23.03223  26974229.62923   -205349.46923      1768.77923        20.84323
E27  23308321.28526     -4967.25926        22.47826        36.81226  23308156.09924     -4248.68724        18.06824        27.65424
E30  25383259.53525    284054.76525     -2370.74525        30.74525  25383092.25123    214773.34723     -1774.68723        23.18523
> 2023 11 07 23 44 32.0002656  0 20                      
G04  23489203.16326    423636.64026     -3555.40226        39.98826  23489048.17025    319031.75025     -2655.65125        31.86925
G05  24228889.48923   -124209.54623      1110.98523        21.49223                                                                
G07  20925071.67425     -5515.93525        31.26225        31.13525                                                                
G08  21963460.11325    -24177.13125       157.86525        34.77825  21963292.22925    -18554.31425       115.94525        31.19825
G09  21100946.41927    292492.73527     -2449.17027        42.24927  21100780.33425    223943.87325     -1828.39525        31.08525
G14  22070235.09426   -301076.16026      2469.18426        40.09726  22070079.80224   -230606.93624      1844.82024        23.92924
G20  23256945.55224    100585.61224      -863.43324        23.65624                                                                
G22  23334333.07726   -360817.89126      2969.40426        36.81826                                                                
G27  23603286.48525    245778.43925     -2075.13025        29.78425  23603117.70223    188656.65623     -1552.32123        20.77323
G30  21600629.99525   -166145.14525      1358.34125        31.91225  21600463.31024   -127207.40624      1015.80824        27.91224
R02  19473384.25726    216803.69826     -1848.98226        41.41226
R13  20027070.04823    -87793.50423       695.65423        19.99423
R12  20193716.28124    262623.02624     -2194.96024        27.58424
R01  22812630.04526    556234.34026     -4594.35526        39.50826
R21  23662343.20124    -96831.20824       757.76824        28.66024
R03  20544071.73525   -289360.45825      2356.51925        33.46625
E07  24250792.62626    235660.28026     -1949.08326        38.08526  24250633.73625    177066.40725     -1454.64825        30.50925
E19  26973882.47023   -279752.07423      2367.08223        20.59823                                                                
E27  23308255.93026     -4984.61726        21.95626        36.07426  23308092.84324     -4265.28824        17.07524        26.51724
E30  25383655.26124    286417.87924     -2371.55324        27.97024  25383484.37924    216552.21124     -1771.23824        25.57624
> 2023 11 07 23 44 33.0002655  0 20                      
G04  23489848.61626    427192.11926     -3554.88626        41.47526  23489693.92325    321687.04625     -2655.49625        31.30225
G05  24228652.95323   -125318.79923      1109.81123        21.96923                                                                
G07  20925034.20025     -5547.83725        31.84925        31.50425                                                                
G08  21963400.45425    -24333.21925       156.66025        33.47125  21963232.87024    -18670.07424       115.17524        28.83324
G09  21101379.31926    294941.79526     -2448.92926        39.79026  21101215.63225    225773.28925     -1828.97825        29.59025
G14  22069734.74126   -303545.35626      2468.69026        37.91826  22069580.04823   -232450.43623      1845.62523        21.11823
G20  23257084.65524    101446.75024      -866.47024        25.36924                                                                
G22  23333735.29126   -363787.17026      2968.40526        41.13626                                                                
G27  23603652.83124    247853.03024     -2074.99924        26.98124                                                                
G30  21600344.29324   -167502.56824      1360.42924        29.29324  21600174.31024   -128223.92924      1016.27724        26.10324
R02  19473700.53826    218652.36726     -1850.65226        39.64026
R13  20026910.55823    -88489.14723       695.00723        18.76223
R12  20194096.41824    264818.40124     -2192.56524        28.83124
R01  22813450.27726    560826.66926     -4592.11026        36.93126
R21  23662160.92724    -97592.82124       757.80824        27.37424
R03  20543598.66325   -291718.31925      2354.63125        31.60825
E07  24251131.69126    237608.40426     -1948.76226        36.77126  24250974.30024    178522.16224     -1455.73224        29.04924
E19  26973403.40123   -282118.02123      2367.08423        19.22023                                                                
E27  23308224.75226     -4996.53326        20.98726        36.47326  23308058.96724     -4285.43824        13.47524        23.51324
E30  25384079.16824    288776.41124     -2371.81524        25.94524  25383906.48724    218337.21924     -1771.07224        26.18324
> 2023 11 07 23 44 34.0002654  0 20                      
G04  23490501.26426    430748.17026     -3556.48226        40.88726  23490340.87525    324342.25225     -2655.28025        33.84925
G05  24228413.71823   -126425.88923      1108.72223        21.80423                                                                
G07  20924999.72425     -5580.35825        32.21425        31.71925                                                                
G08  21963338.69725    -24487.76125       154.28325        35.35925  21963172.91225    -18784.98925       115.64325        32.15325
G09  21101811.02026    297391.25826     -2449.45126        40.26126  21101652.43025    227601.97125     -1828.72825        31.64025
G14  22069235.88626   -306013.19826      2467.38626        39.10326                                                                
G20  23257232.15324    102316.45324      -870.19424        26.15024                                                                
G22  23333141.40226   -366755.11826      2968.30226        40.26026                                                                
G27  23604023.37524    249930.86224     -2073.73924        29.36124                                                                
G30  21600052.59524   -168865.71124      1363.09324        26.37824  21599885.31124   -129236.15324      1013.92924        24.74024
R02  19474008.42526    220500.12726     -1846.29826        38.36426
R13  20026750.16923    -89183.65323       694.04023        20.16223
R12  20194490.34524    267012.14624     -2190.54624        27.71424
R01  22814286.99826    565419.18526     -4592.53326        40.24126
R21  23661977.75424    -98349.90524       758.40024        28.83024
R03  20543113.89825   -294076.64925      2354.18725        29.90925
E07  24251474.95326    239558.87426     -1950.59826        38.01126  24251315.46425    179978.62425     -1456.13125        29.74925
E19  26972922.83423   -284483.39923      2366.67823        17.94523                                                                
E27  23308187.57826     -5008.37626        21.65626        35.50426  23308025.09024     -4308.87624        14.20824        25.59624
E30  25384502.77424    291147.94124     -2371.07624        25.25524  25384326.49624    220107.66624     -1769.74524        23.71424
> 2023 11 07 23 44 35.0002653  0 20                      
G04  23491140.12226    434306.48326     -3559.74226        37.11126  23490987.52825    326998.92125     -2657.00425        33.07725
G05  24228177.18223   -127529.16223      1108.69423        21.02423                                                                
G07  20924959.25225     -5609.06625        30.56225        32.05925                                                                
G08  21963277.53925    -24642.74625       154.15625        35.35225  21963112.95325    -18899.14125       113.62225        34.82225
G09  21102251.41526    299840.27426     -2448.47426        39.46726  21102088.32825    229432.20125     -1830.00525        32.45725
G14  22068734.33326   -308479.77326      2465.25526        38.40726                                                                
G20  23257370.35824    103184.43824      -871.12624        23.99224                                                                
G22  23332541.21826   -369723.21826      2968.57726        39.32526                                                                
G27  23604387.62225    252004.27925     -2073.27925        30.44625                                                                
G30  21599761.19624   -170231.10324      1360.73524        25.40824  21599595.41124   -130246.22424      1015.99824        24.74424
R02  19474332.50026    222349.49926     -1847.58726        40.43126
R13  20026584.08423    -89875.02123       693.21623        22.34223
R12  20194876.77825    269206.47425     -2193.06725        30.54125
R01  22815116.52326    570012.38226     -4592.37326        38.93826
R21  23661813.46725    -99108.52625       757.68525        29.80425
R03  20542655.81524   -296433.18024      2354.20424        29.28624
E07  24251813.11926    241509.69026     -1951.47526        36.77626  24251655.72825    181435.04925     -1456.42525        31.98525
E19  26972442.26723   -286848.45123      2367.04223        19.28823                                                                
E27  23308143.20826     -5028.85626        21.24826        35.92226  23307988.21624     -4337.49224        15.87924        28.59924
E30  25384922.78424    293519.13024     -2369.84924        25.74524  25384750.70324    221877.53524     -1771.03924        23.77224
> 2023 11 07 23 44 36.0002651  0 20                      
G04  23491761.89226    437865.91526     -3560.86226        35.69526  23491603.90125    329656.23225     -2656.98425        32.55825
G05  24227916.66223   -128637.63623      1109.25623        21.77723                                                                
G07  20924894.19725     -5638.83825        29.74325        31.84325                                                                
G08  21963190.00025    -24794.01225       152.81825        35.40825  21963024.21525    -19011.98425       112.77025        34.03025
G09  21102660.03227    302291.82927     -2451.08027        41.75527  21102494.54725    231266.49325     -1830.93125        33.86425
G14  22068206.99826   -310947.43926      2467.47826        41.38726  22068047.20925   -237990.05825      1843.36125        33.54125
G20  23257478.28323    104052.75923      -871.67023        23.31223                                                                
G22  23331922.14626   -372691.25426      2968.29426        41.34926                                                                
G27  23604725.48924    254079.10924     -2074.84024        27.28524  23604552.80823    194876.71523     -1554.27123        21.88523
G30  21599449.11324   -171593.69124      1362.41124        29.16724  21599275.53325   -131262.28925      1015.85825        30.22125
R02  19474608.60926    224201.11126     -1852.82826        40.57226
R13  20026384.72224    -90565.40924       694.15724        24.97324
R12  20195222.43825    271400.49325     -2194.88425        30.58825
R01  22815911.27326    574605.04426     -4592.27426        39.22926
R21  23661618.60224    -99863.02524       755.99624        28.72624
R03  20542160.55824   -298791.50924      2354.30724        26.85124
E07  24252131.49926    243461.28126     -1951.51326        40.15126  24251967.21225    182892.29925     -1457.70725        32.35425
E19  26971933.81922   -289213.05622      2367.50922        13.95622                                                                
E27  23308094.64225     -5047.88825        21.14325        35.48925  23307925.85925     -4359.63825        15.76025        31.07225
E30  25385318.21025    295889.12625     -2367.88825        30.15825  25385144.03023    223639.34523     -1771.56923        21.59723
> 2023 11 07 23 44 37.0002650  0 19                      
G04  23492412.14125    441424.14725     -3560.99725        31.87525  23492250.85325    332312.32625     -2656.38725        30.55225
G05  24227680.12623   -129743.22623      1107.81123        20.42423                                                                
G07  20924860.32125     -5669.17025        29.63225        31.77125                                                                
G08  21963128.24325    -24946.28625       152.08125        34.82525  21962965.75525    -19125.55025       113.32825        32.84625
G09  21103093.83226    304742.98126     -2451.62026        40.70026  21102931.34525    233102.32525     -1831.45725        30.04325
G14  22067710.54226   -313414.91126      2469.30126        40.47526  22067548.65425   -239832.43525      1841.97925        32.33625
G20  23257613.18924    104922.40024      -871.61224        23.63024                                                                
G22  23331320.76326   -375657.20826      2964.77226        37.22126                                                                
G27  23605087.93824    256160.45924     -2079.54024        27.22224                                                                
G30  21599157.11525   -172954.16125      1360.90625        32.32225  21598986.83325   -132276.65025      1013.56325        32.57525
R02  19474931.48526    226053.09426     -1852.56626        40.75526
R13  20026206.04625    -91260.01525       692.93925        31.15125
R12  20195596.28025    273597.12225     -2197.96625        31.92725
R01  22816749.79326    579199.39326     -4596.21526        36.87526
R21  23661446.22224   -100612.41824       751.84324        26.67224
R03  20541725.85924   -301148.41224      2352.79324        26.43524
E07  24252468.76526    245412.45726     -1950.94726        39.97426  24252308.37624    184347.29324     -1456.57824        29.21324
E27  23308053.57025     -5068.17025        20.57325        34.34325  23307891.38325     -4375.20025        14.75425        30.08725
E30  25385737.02024    298257.26924     -2366.19524        27.50824  25385565.23923    225407.31823     -1778.11323        21.77123
> 2023 11 07 23 44 38.0002649  0 19                      
G04  23493056.39525    444985.07925     -3558.44225        33.45725  23492897.80524    334966.55124     -2657.05424        26.26924
G05  24227435.79523   -130846.55823      1107.28723        18.43323                                                                
G07  20924824.64525     -5700.91125        31.37325        31.24525                                                                
G08  21963071.28225    -25098.57625       151.86425        33.58225  21962906.39625    -19238.88025       113.49425        30.88825
G09  21103527.93227    307194.58927     -2452.00227        41.61527  21103367.24325    234938.95825     -1830.18125        30.21625
G14  22067205.69126   -315882.07426      2467.37826        41.29226  22067049.20025   -241674.89325      1842.50325        31.27825
G20  23257748.09623    105794.75923      -871.54723        21.86923                                                                
G22  23330732.27026   -378623.61326      2965.16826        36.52026                                                                
G27  23605460.58024    258248.28224     -2082.76424        26.91824                                                                
G30  21598864.21725   -174311.45225      1359.00925        34.82725  21598696.93325   -133290.86725      1015.64625        35.41225
R02  19475241.77126    227904.70726     -1852.28526        40.68726
R13  20026048.05525    -91953.66725       691.03225        30.80525
R12  20195972.51925    275794.47725     -2198.98925        30.35225
R01  22817581.11726    583793.26426     -4594.88226        35.58926
R21  23661294.52724   -101358.62624       750.84324        25.22324
R03  20541245.29224   -303498.47924      2351.01424        27.72524
E07  24252808.13026    247363.22326     -1950.28726        39.23826  24252649.84024    185802.43724     -1456.82424        28.93424
E27  23308020.29325     -5088.01525        19.60925        34.75225  23307856.90625     -4382.73725        15.72925        30.77425
E30  25386155.83024    300628.61824     -2366.03924        26.57324                                                                
> 2023 11 07 23 44 39.0002647  0 19                      
G04  23493673.66825    448547.55825     -3557.85025        29.64425  23493514.47824    337622.26324     -2655.76124        26.60024
G05  24227168.98023   -131948.04723      1106.79423        20.24023                                                                
G07  20924754.49425     -5730.55825        29.80325        29.98525                                                                
G08  21962982.84325    -25250.44625       151.03225        33.57125  21962817.35824    -19352.94624       114.84124        28.53024
G09  21103935.64926    309647.88826     -2454.54226        38.03326  21103772.26225    236775.81225     -1828.92625        31.05025
G14  22066678.95626   -318348.26226      2465.28426        41.15026  22066519.16725   -243517.33525      1841.91825        30.59925
G20  23257855.42223    106669.27923      -871.04523        21.92523                                                                
G22  23330101.80726   -381590.89626      2967.35926        37.51426                                                                
G27  23605798.44624    260330.77524     -2084.18624        26.56924  23605623.06723    199539.88323     -1552.31923        21.32723
G30  21598541.64126   -175669.49226      1358.34926        38.27226  21598378.55426   -134305.27826      1013.53526        39.47026
R02  19475536.46726    229757.33626     -1852.61726        41.19926
R13  20025844.19725    -92647.18425       692.38325        30.65625
R12  20196324.77525    277990.92125     -2197.72625        29.61225
R01  22818376.76626    588385.68026     -4592.49726        37.33826
R21  23661079.57524   -102107.70124       751.93924        26.92424
R03  20540753.33224   -305849.60424      2351.17424        28.40424
E07  24253124.71126    249314.56726     -1952.26226        36.80126  24252960.42524    187259.43624     -1456.79224        27.72124
E27  23307956.43825     -5107.65625        19.22125        35.18625  23307792.75125     -4388.57925        14.54325        30.63725
E30  25386545.26024    303004.56524     -2366.69824        26.60824                                                                
> 2023 11 07 23 44 40.0002646  0 19                      
G04  23494321.22025    452103.41825     -3555.39225        32.43625  23494161.43023    340277.90823     -2656.03723        23.09023
G05  24226933.34323   -133051.02523      1106.32323        20.53823                                                                
G07  20924723.61525     -5759.47525        29.08125        30.84825                                                                
G08  21962925.28325    -25403.62825       150.81425        31.58725  21962758.89824    -19467.19424       114.00224        26.56724
G09  21104366.75126    312100.15326     -2452.81526        39.43426  21104209.36025    238607.45325     -1832.43125        29.76025
G14  22066179.50227   -320815.36227      2466.52827        41.68827  22066019.41324   -245354.32824      1841.47324        27.68324
G20  23257990.32823    107542.64423      -871.69823        23.21323                                                                
G22  23329511.21526   -384559.48826      2970.05926        37.01426                                                                
G27  23606156.99824    262413.82524     -2086.44924        24.92024                                                                
G30  21598250.54226   -177027.40226      1357.02926        38.66426  21598089.25426   -135320.01826      1015.62826        39.16526
R02  19475852.44827    231609.98027     -1853.03727        41.91227
R13  20025689.50425    -93340.24825       693.08325        31.68225
R12  20196706.41125    280186.16625     -2194.26325        30.41025
R01  22819206.89225    592978.69025     -4590.80425        33.94925
R21  23660904.19724   -102859.51124       749.27124        25.43524
R03  20540238.28925   -308198.39525      2348.71325        34.33925
E07  24253458.68026    251265.81926     -1951.48826        37.01226  24253301.28924    188715.23724     -1457.17124        27.92124
E27  23307922.56125     -5127.16625        18.92025        34.69625  23307759.17425     -4403.35425        15.13525        29.66325
E30  25386967.36824    305384.36524     -2367.73724        24.81624  25386798.28523    230758.23223     -1771.60023        22.92823
> 2023 11 07 23 44 41.0002645  0 20                      
G04  23494962.17625    455660.60625     -3556.22925        32.72625  23494808.98225    342935.01525     -2656.37225        30.28525
G05  24226694.70822   -134160.79222      1106.98722        16.22422                                                                
G07  20924684.64225     -5788.67725        28.30925        31.51425                                                                
G08  21962867.12325    -25555.78125       151.90325        29.54125  21962700.13924    -19579.14524       112.66524        28.06624
G09  21104808.64527    314548.55927     -2452.33427        42.73427  21104646.75725    240439.14125     -1830.79625        32.73325
G14  22065679.44827   -323280.85027      2465.27727        43.53727  22065519.95825   -247195.00125      1840.51325        29.99425
G20  23258124.63524    108417.91324      -873.19324        24.00324                                                                
G22  23328912.83026   -387525.60026      2966.63026        36.03926                                                                
G27  23606527.24125    264495.19925     -2083.63925        29.66025                                                                
G30  21597966.03926   -178384.78826      1357.79926        38.80826  21597800.85426   -136333.85426      1013.96526        37.99726
R02  19476170.82827    233464.52327     -1856.18027        42.37127
R13  20025528.21525    -94031.78925       692.22825        31.45825
R12  20197092.24424    282383.23824     -2194.92424        29.46424
R01  22820044.51225    597571.63825     -4592.03025        32.69025
R21  23660749.80424   -103614.08724       748.74124        26.18224
R03  20539765.81626   -310545.16226      2348.00026        39.65626
E07  24253802.24226    253217.81426     -1951.91226        39.40626  24253642.45325    190171.91725     -1456.56125        30.34625
E19  26969519.59022   -300997.62722      2368.38522        17.39522                                                                
E27  23307888.68426     -5153.33726        18.23926        37.15726  23307724.69825     -4416.95625        13.20425        31.68025
E30  25387392.17424    307766.89624     -2369.06224        26.79024  25387218.89423    232528.02823     -1772.60823        23.06223
> 2023 11 07 23 44 42.0002643  0 20                      
G04  23495584.24525    459219.50925     -3558.76725        33.96725  23495425.35524    345591.13024     -2656.38424        28.82224
G05  24226456.97322   -135271.58022      1106.72422        16.50522                                                                
G07  20924623.78425     -5816.18425        27.68825        32.85525                                                                
G08  21962776.88625    -25706.29425       152.67025        32.30725  21962611.40124    -19687.64024       110.69824        27.41224
G09  21105216.06327    316999.24427     -2453.08027        43.50827  21105052.07625    242271.25725     -1832.19725        33.33725
G14  22065144.31826   -325746.28526      2465.18326        40.66026  22064990.52525   -249035.77725      1841.59625        30.84025
G20  23258229.86324    109293.80424      -873.99024        23.73324                                                                
G22  23328289.56125   -390489.55725      2961.01825        35.39325                                                                
G27  23606864.50824    266577.77124     -2080.71324        27.65024                                                                
G30  21597648.55926   -179743.51026      1357.76926        39.86426  21597481.57526   -137347.82126      1015.03126        37.64426
R02  19476460.12727    235319.92327     -1856.15327        42.95027
R13  20025339.64625    -94722.44625       690.99425        29.92125
R12  20197441.80225    284576.96225     -2195.90625        29.70525
R01  22820834.76525    602166.46625     -4594.30025        31.53725
R21  23660553.44024   -104362.84824       748.72424        29.47224
R03  20539276.85526   -312891.52726      2346.34826        40.15626
E07  24254112.82726    255169.40026     -1951.67926        40.44626  24253953.03825    191629.97425     -1458.30625        30.56225
E19  26969006.04623   -303365.96223      2368.35923        18.11623                                                                
E27  23307815.53526     -5179.77526        19.15226        37.12526  23307661.44225     -4430.44725        13.83025        29.97625
E30  25387780.10624    310142.80424     -2370.45724        29.22324  25387610.72324    234299.80924     -1771.89224        24.02524
> 2023 11 07 23 44 43.0002642  0 20                      
G04  23496229.69926    462777.38226     -3558.50426        36.92126  23496071.40825    348247.94125     -2655.06525        30.61625
G05  24226209.34423   -136331.14023      1106.89323        18.15623                                                                
G07  20924588.70925     -5846.84025        28.38125        31.78225                                                                
G08  21962718.42625    -25857.12925       150.99625        32.10725  21962555.04024    -19799.28824       113.71224        27.14924
G09  21105649.86327    319452.68527     -2453.73127        43.54827  21105489.17425    244103.44425     -1833.28625        31.86725
G14  22064643.06526   -328211.35526      2465.66226        38.44726  22064490.17125   -250876.78825      1840.83125        31.10625
G20  23258364.76923    110169.08923      -873.23823        23.22423                                                                
G22  23327700.46926   -393454.10126      2961.90326        37.16726                                                                
G27  23607227.85624    268660.57224     -2081.58724        28.67924                                                                
G30  21597359.55926   -181101.78226      1360.69226        36.52126  21597194.07426   -138361.00726      1013.11026        36.64326
R02  19476777.00826    237175.76026     -1855.57026        41.06226
R13  20025189.15025    -95417.36225       689.18125        30.37825
R12  20197826.73624    286772.41424     -2197.72324        27.91624
R01  22821661.59225    606764.84525     -4595.24925        32.88325
R21  23660377.76124   -105110.95424       746.65024        29.10224
R03  20538805.88126   -315237.03526      2346.90026        39.78626
E07  24254453.69126    257122.18326     -1952.62626        39.50926  24254294.80125    193086.90125     -1457.32525        31.46325
E19  26968522.48023   -305734.48223      2368.37923        18.01423                                                                
E27  23307788.85426     -5197.75026        18.26526        35.58626  23307626.66624     -4446.39724        13.87524        28.96224
E30  25388199.51524    312515.10224     -2371.73124        27.78024  25388031.93123    236074.89323     -1772.99623        22.34323
> 2023 11 07 23 44 44.0002641  0 20                      
G04  23496875.75126    466334.68226     -3556.88626        41.36326  23496717.76126    350904.57526     -2656.13426        36.66026
G05  24225974.60723   -137438.62123      1106.69123        18.21523                                                                
G07  20924550.93525     -5877.19825        30.13825        32.65925                                                                
G08  21962659.36725    -26005.63325       147.63725        33.66325  21962495.68125    -19911.21625       111.79625        31.14225
G09  21106088.75927    321906.88527     -2454.29327        44.06427  21105924.77225    245935.06325     -1830.42825        34.26025
G14  22064145.41026   -330673.73626      2464.53226        36.96126  22063990.71725   -252718.81825      1842.04725        31.39825
G20  23258504.17323    111044.24723      -874.64723        23.12223                                                                
G22  23327108.97825   -396416.86125      2964.91725        32.69425                                                                
G27  23607589.10624    270741.52424     -2081.12124        27.47224                                                                
G30  21597074.45626   -182461.37626      1359.63426        39.03426  21596902.97526   -139376.51726      1015.73926        38.71526
R02  19477092.68926    239031.81226     -1857.67026        40.00326
R13  20025033.85825    -96106.41625       690.35325        30.99925
R12  20198218.26425    288976.04725     -2198.14125        29.68825
R01  22822490.81825    611358.84125     -4594.37425        34.53425
R21  23660205.38124   -105856.05924       743.87524        27.61324
R03  20538332.80826   -317583.82826      2348.00226        37.07626
E07  24254798.15326    259074.04026     -1951.65026        40.67226  24254634.46625    194544.00225     -1456.40125        31.46125
E19  26968043.11223   -308102.83323      2368.39523        17.78223                                                                
E27  23307757.07626     -5216.31326        18.82726        35.81426  23307593.08925     -4456.37025        14.68925        30.99425
E30  25388620.42424    314888.46724     -2372.82924        29.13124  25388453.43924    237853.13324     -1771.87024        26.32624
> 2023 11 07 23 44 45.0002640  0 20                      
G04  23497517.60726    469893.29726     -3558.61926        40.52326  23497363.51426    353561.67426     -2657.44926        39.56126
G05  24225731.77523   -138545.60623      1107.18123        19.21523                                                                
G07  20924515.85925     -5911.98025        31.10125        31.52025                                                                
G08  21962601.50726    -26153.26826       147.16026        37.66826  21962435.72225    -20020.85525       108.75625        30.26625
G09  21106522.25927    324361.78227     -2455.02327        42.44527  21106361.27025    247768.28825     -1832.69325        35.20725
G14  22063649.55326   -333136.88526      2462.85026        38.30226  22063491.86224   -254559.94524      1840.56224        28.59324
G20  23258642.07723    111918.38623      -875.12123        22.15623                                                                
G22  23326516.88825   -399378.20125      2963.74525        30.16825                                                                
G27  23607951.85524    272822.90124     -2082.82024        27.19724  23607792.06624    208865.81624     -1558.13224        26.19724
G30  21596780.96026   -183823.33626      1358.01226        37.44126  21596616.07426   -140390.34926      1013.95926        36.52726
R02  19477411.06927    240889.82727     -1858.50427        42.00127
R13  20024863.27624    -96798.32324       689.66924        29.10024
R12  20198558.52925    291173.48825     -2197.20425        32.00225
R01  22823318.54525    615951.91625     -4593.35825        34.02625
R21  23660089.66124   -106602.39924       745.24624        27.94624
R03  20537878.92225   -319934.78925      2346.85825        34.64625
E07  24255133.02126    261026.49126     -1953.27626        40.56926  24254975.33025    196002.42825     -1458.04525        32.56325
E19  26967570.63922   -310471.21022      2368.40522        17.27122                                                                
E27  23307725.29826     -5233.01126        17.27726        38.32726  23307560.41225     -4456.20425        12.00125        31.77825
E30  25389039.53425    317262.93425     -2373.87325        29.56925  25388874.94824    239633.91424     -1771.15524        25.08124
> 2023 11 07 23 44 46.0002638  0 20                      
G04  23498134.58026    473451.36626     -3557.61126        40.10726  23497981.38626    356218.79626     -2657.67626        35.95526
G05  24225474.25323   -139652.68123      1107.11423        19.29623                                                                
G07  20924447.20725     -5941.16225        29.54325        32.05125                                                                
G08  21962515.16725    -26300.18925       145.50325        35.27525  21962347.28324    -20130.48624       110.01124        29.27624
G09  21106930.57627    326816.98327     -2455.28327        42.71427  21106765.69025    249602.94925     -1833.81725        35.12825
G14  22063122.81826   -335600.42326      2463.57626        38.92626  22062963.02925   -256399.65525      1839.98825        29.63825
G20  23258749.70323    112790.83623      -875.57223        21.90023                                                                
G22  23325883.42725   -402341.25325      2963.88825        30.87625                                                                
G27  23608296.31724    274906.36224     -2082.77724        29.33824  23608128.73324    210423.91924     -1558.59024        24.48024
G30  21596463.18025   -185181.25125      1357.97225        35.45225  21596297.39426   -141404.08326      1013.89226        36.86826
R02  19477700.06927    242748.42127     -1859.15227        43.59627
R13  20024677.10525    -97488.46525       689.69725        30.46925
R12  20198940.46425    293365.41025     -2195.68125        31.12725
R01  22824116.89326    620545.62126     -4593.21426        36.51526
R21  23659867.81425   -107349.39125       743.76525        29.87425
R03  20537376.17025   -322283.53825      2344.57725        34.51725
E07  24255447.80327    262979.71427     -1953.10427        41.62127  24255286.81425    197460.82025     -1458.08825        33.19025
E19  26967061.29222   -312839.79522      2368.31322        17.29822                                                                
E27  23307660.24326     -5250.20426        17.10726        36.48326  23307495.95625     -4469.17025        13.34725        33.70525
E30  25389429.26424    319637.33924     -2374.79324        28.06124  25389266.17724    241419.24924     -1772.25724        24.48424
> 2023 11 07 23 44 47.0002637  0 19                      
G04  23498784.83026    477010.50826     -3559.71226        38.66926  23498627.13926    358875.82926     -2657.28926        37.32026
G05  24225233.82023   -140759.58623      1106.94923        19.69523                                                                
G07  20924415.12925     -5968.27925        26.83225        33.39825                                                                
G08  21962454.60925    -26446.25425       145.17925        33.96925  21962287.92425    -20239.11825       108.24525        30.44725
G09  21107369.47227    329272.67827     -2455.54027        42.57527  21107204.88625    251432.46225     -1832.94925        33.14225
G14  22062622.76426   -338064.10626      2463.22726        36.21326  22062464.17424   -258238.84724      1838.72924        28.68924
G20  23258886.40824    113661.24124      -875.47024        23.85024                                                                
G22  23325288.33925   -405305.96725      2963.82925        35.03725                                                                
G27  23608662.96324    276990.29224     -2083.79324        27.52424                                                                
G30  21596173.58026   -186537.65926      1356.67226        38.04126  21596009.89326   -142416.93626      1013.37526        38.08426
R02  19478014.55127    244608.22927     -1859.98027        42.95927
R13  20024517.91525    -98177.33225       688.97525        30.98225
R12  20199314.60525    295559.86225     -2195.41725        31.82725
R01  22824943.42025    625139.80925     -4593.10125        35.34925
R21  23659690.93724   -108093.32824       742.14624        27.56724
R03  20536912.09225   -324628.22125      2343.63125        35.07825
E07  24255791.36527    264933.59627     -1953.76027        41.82027  24255628.57825    198917.59225     -1458.30225        30.23725
E27  23307626.96626     -5266.47626        16.55026        38.87826  23307462.97925     -4481.29925        12.03625        31.87125
E30  25389862.46424    322007.62424     -2373.86124        28.44024  25389687.68524    243196.90624     -1772.51724        23.67524
> 2023 11 07 23 44 48.0002636  0 20                      
G04  23499428.78426    480570.15626     -3560.62926        37.62826  23499275.59025    361533.09325     -2657.70925        34.33425
G05  24224948.41724   -141866.68424      1103.02824        23.61124                                                                
G07  20924380.95225     -5991.40425        27.22125        32.49725                                                                
G08  21962396.74925    -26592.21625       146.25125        35.08225  21962229.76524    -20346.32424       108.18924        29.29924
G09  21107805.37027    331728.85227     -2456.45427        43.80127  21107642.88325    253263.91125     -1835.85725        33.40725
G14  22062121.21126   -340527.43826      2463.58726        35.60926  22061965.01924   -260078.90424      1840.29624        29.31124
G20  23259020.71524    114536.78224      -876.67924        25.34924                                                                
G22  23324696.84825   -408270.52425      2963.33325        32.71025                                                                
G27  23609024.51224    279075.08124     -2083.71324        27.16224                                                                
G30  21595891.17626   -187895.54626      1358.13226        36.58226  21595719.69426   -143431.09226      1015.76426        36.20026
R02  19478330.83227    246467.95327     -1859.26527        42.86627
R13  20024359.62424    -98866.62324       688.87224        28.46424
R12  20199697.44025    297752.34525     -2196.87625        29.85625
R01  22825777.14325    629730.85925     -4593.80025        31.37225
R21  23659502.36724   -108835.23224       738.68524        28.75924
R03  20536424.32926   -326972.02826      2343.92426        35.63226
E07  24256131.03026    266887.49726     -1953.71726        40.81526  24255971.24125    200376.62025     -1458.91625        31.36125
E19  26966095.66022   -317576.37222      2368.39322        16.96122                                                                
E27  23307592.78926     -5283.49826        17.02226        37.04926  23307428.80325     -4494.17325        13.00925        30.00425
E30  25390280.97424    324377.18024     -2372.88024        27.06524  25390109.19323    244968.91823     -1772.71723        22.04123
> 2023 11 07 23 44 49.0002634  0 20                      
G04  23500048.75526    484129.79726     -3560.37426        37.68826  23499893.16225    364190.62425     -2657.39625        33.11925
G05  24224685.49923   -142970.91023      1104.05023        21.96723                                                                
G07  20924313.49925     -6017.23325        28.91225        32.11225                                                                
G08  21962307.11125    -26737.45325       146.43125        34.83425  21962143.12524    -20454.09624       108.84824        28.71824
G09  21108213.38827    334185.00027     -2455.02927        45.12127  21108050.60125    255097.17825     -1832.98925        32.02125
G14  22061591.47826   -342991.89026      2464.07726        36.39226  22061435.58625   -261919.07825      1840.19725        31.81825
G20  23259118.44724    115414.78824      -876.91024        23.62224                                                                
G22  23324074.77925   -411235.34825      2964.05325        32.62725                                                                
G27  23609365.07725    281155.45025     -2083.26925        29.78325  23609203.18923    215102.20823     -1559.92323        21.28623
G30  21595570.39826   -189254.08526      1359.09126        36.16426  21595401.61525   -144444.17725      1013.11225        35.17225
R02  19478619.83227    248328.74827     -1860.84227        43.53527
R13  20024169.85624    -99554.12724       686.01824        28.83024
R12  20200044.60025    299950.12825     -2201.29625        34.05225
R01  22826572.79226    634322.82226     -4595.24726        35.83026
R21  23659291.91324   -109571.13224       739.15624        26.73624
R03  20535937.46625   -329315.06725      2344.68825        34.45725
E07  24256442.51427    268841.20327     -1953.64627        42.45427  24256283.02524    201835.51824     -1458.11124        29.28224
E19  26965582.71622   -319944.82922      2368.40622        17.37922                                                                
E27  23307528.93326     -5299.41926        16.32326        39.25226  23307364.94724     -4506.37724        12.42924        29.48924
E30  25390669.80524    326743.20624     -2371.33924        26.29224  25390500.72223    246742.41323     -1773.43523        22.43623
> 2023 11 07 23 44 50.0002633  0 20                      
G04  23500696.60626    487688.42426     -3557.70926        37.80526  23500539.21525    366848.10025     -2658.05725        34.32325
G05  24224450.76223   -144070.05123      1103.45123        20.83823                                                                
G07  20924277.52425     -6051.78625        31.09225        30.93625                                                                
G08  21962246.25326    -26883.73226       145.49726        35.84326  21962085.86425    -20562.04025       107.55425        31.78225
G09  21108644.19027    336641.07727     -2457.17427        43.24527  21108487.69824    256933.34924     -1836.29324        29.25124
G14  22061095.32227   -345454.95927      2463.47427        43.29127  22060936.43225   -263759.79625      1838.93725        33.00725
G20  23259246.15924    116291.58624      -874.84424        24.93924                                                                
G22  23323475.19425   -414199.71225      2964.25425        32.11725                                                                
G27  23609740.11724    283239.28924     -2083.96524        28.71024  23609573.43223    216658.47923     -1557.86323        21.58223
G30  21595286.79426   -190611.37026      1358.61726        36.57626  21595113.51426   -145457.51426      1012.81126        36.27026
R02  19478939.41127    250190.99527     -1861.87527        44.45327
R13  20024012.76424   -100243.27624       686.85324        27.24024
R12  20200426.23625    302156.39125     -2204.41525        32.53625
R01  22827402.01826    638918.08526     -4595.43726        38.20926
R21  23659123.13024   -110312.34224       740.28924        28.68624
R03  20535475.48625   -331662.87325      2345.69125        32.62825
E07  24256778.28227    270794.96427     -1954.09327        41.80427  24256625.38825    203294.02325     -1459.82525        29.71025
E19  26965103.64723   -322313.29423      2368.39923        18.19623                                                                
E27  23307495.35726     -5316.04426        16.28126        38.20226  23307333.16925     -4518.82325        11.62625        29.62825
E30  25391088.01624    329103.82424     -2369.86124        26.26424  25390922.23024    248514.84824     -1772.73524        25.22224
> 2023 11 07 23 44 51.0002632  0 20                      
G04  23501342.05927    491247.07627     -3557.71227        41.84627  23501186.46725    369506.02125     -2658.00825        32.83525
G05  24224213.32623   -145169.83723      1102.17323        23.25323                                                                
G07  20924241.54925     -6078.95925        30.21025        32.11025                                                                
G08  21962188.99326    -27027.92826       145.26226        37.07026  21962028.60425    -20669.20325       108.25125        31.62225
G09  21109089.38227    339098.16727     -2456.28027        44.90727  21108924.49625    258768.02825     -1834.05725        33.59725
G14  22060597.66627   -347917.68427      2462.86327        42.65127  22060437.27725   -265598.91325      1839.16425        32.64925
G20  23259380.16625    117170.43425      -878.65025        30.46325                                                                
G22  23322884.60324   -417162.98524      2962.77224        28.92324                                                                
G27  23610100.76724    285323.26924     -2083.41424        26.77524  23609938.28023    218213.18923     -1560.87223        22.00023
G30  21594989.10025   -191970.94425      1359.62525        35.11325  21594825.41326   -146470.75126      1013.57226        38.64426
R02  19479259.88927    252053.11127     -1861.53127        44.58027
R13  20023853.87424   -100930.74824       688.06824        27.10324
R12  20200811.46925    304357.59125     -2204.79725        30.32025
R01  22828230.04526    643513.39326     -4595.37826        40.83526
R21  23658963.64024   -111055.03924       742.89124        27.50824
R03  20535014.40525   -334007.46125      2342.13725        34.94225
E07  24257125.44126    272749.44126     -1954.62626        40.99126  24256966.55125    204753.46725     -1459.55225        31.17725
E19  26964627.27723   -324681.69923      2368.38423        17.82523                                                                
E27  23307462.67926     -5331.61026        15.48026        38.54226  23307299.29224     -4530.72024        12.47724        29.17224
E30  25391514.92024    331462.85424     -2368.69824        27.53624  25391343.73924    250285.80224     -1773.02624        24.62524
> 2023 11 07 23 44 52.0002631  0 20                      
G04  23501986.61326    494806.22726     -3559.55826        39.87626  23501833.71925    372164.23425     -2657.41025        33.92025
G05  24223973.79223   -146268.03123      1100.93623        20.07123                                                                
G07  20924205.87425     -6104.83525        28.05825        33.52125                                                                
G08  21962138.02826    -27171.85226       142.80726        38.19826  21961965.34825    -20776.79925       106.87825        32.91325
G09  21109522.28227    341555.46827     -2457.82827        43.52127  21109362.49225    260603.08925     -1835.71225        33.69925
G14  22060096.11327   -350380.57127      2462.93927        42.50527  22059938.42226   -267438.46426      1838.73226        36.38526
G20  23259515.07325    118051.24125      -881.54025        35.00325                                                                
G22  23322285.91726   -420127.06826      2963.69726        35.72326                                                                
G27  23610463.51624    287408.60224     -2084.76624        24.81224  23610304.92623    219766.20223     -1559.48923        21.21223
G30  21594707.59525   -193330.35325      1357.60025        35.18625  21594535.51426   -147483.86726      1012.97826        36.95626
R02  19479585.76327    253915.86027     -1862.87827        45.31427
R13  20023671.30124   -101613.88524       687.31024        28.72124
R12  20201202.09925    306555.06325     -2200.97525        31.60825
R01  22829058.97126    648107.52726     -4593.46326        38.95226
R21  23658803.85124   -111795.27924       744.57624        26.12724
R03  20534542.83225   -336342.85425      2340.20025        34.16225
E07  24257474.10027    274704.31127     -1954.63027        41.89827  24257308.61525    206213.95025     -1460.15725        31.32925
E19  26964141.61323   -327050.32023      2368.40523        18.23023                                                                
E27  23307430.30226     -5346.72126        14.77026        37.57926  23307266.01524     -4542.57924        11.14124        28.78024
E30  25391940.62524    333829.09424     -2368.21624        28.27824  25391765.84624    252055.23424     -1772.09724        24.36524
> 2023 11 07 23 44 53.0002629  0 20                      
G04  23502605.08526    498365.70026     -3558.87626        40.32126  23502450.69225    374821.85625     -2657.61925        33.75625
G05  24223704.57823   -147365.56323      1102.00523        23.24823                                                                
G07  20924140.51925     -6131.19825        25.46225        32.18325                                                                
G08  21962052.28826    -27317.25426       142.55726        35.95426  21961881.10624    -20881.05024       106.56424        29.35324
G09  21109928.50127    344013.45427     -2458.34627        42.46927  21109770.51025    262438.43225     -1835.10625        35.40525
G14  22059568.47927   -352843.32827      2462.88727        42.75427  22059408.38926   -269278.49126      1840.24226        35.53226
G20  23259624.49725    118932.07825      -882.12225        35.00825                                                                
G22  23321661.15026   -423091.35726      2963.80926        39.29126                                                                
G27  23610811.27524    289493.21424     -2085.43024        28.03124                                                                
G30  21594384.71926   -194687.41326      1356.71326        37.10726  21594218.03426   -148497.92026      1014.44226        39.75026
R02  19479868.76727    255779.25827     -1862.72127        42.74627
R13  20023485.42924   -102299.69224       686.68624        27.88424
R12  20201542.66325    308750.91525     -2198.14025        33.17125
R01  22829859.11726    652702.69626     -4596.00926        35.92626
R21  23658606.58724   -112539.49324       743.49924        26.71524
R03  20534049.97325   -338684.25225      2340.56825        33.83925
E07  24257781.68726    276659.24826     -1954.98326        39.30226  24257620.09925    207673.28925     -1458.81325        32.91225
E19  26963633.16523   -329418.28123      2368.41823        18.31823                                                                
E27  23307367.94526     -5362.53026        16.14426        37.79026  23307203.35925     -4553.92425        13.11725        29.68725
E30  25392331.85424    336191.66224     -2367.52924        25.54624  25392157.37523    253824.89623     -1773.16223        22.50923
> 2023 11 07 23 44 54.0002628  0 20                      
G04  23503255.33526    501925.08026     -3559.13926        41.38926  23503097.64425    377479.83525     -2658.56825        34.22025
G05  24223464.14523   -148464.73123      1100.27223        22.18223                                                                
G07  20924105.14325     -6157.29325        24.27625        32.99425                                                                
G08  21961997.42625    -27460.88025       142.89525        35.33425  21961824.74525    -20986.34525       105.92425        29.53125
G09  21110369.49527    346471.32527     -2456.74327        42.65827  21110207.60725    264273.58425     -1835.06325        33.91625
G14  22059069.62427   -355305.23427      2462.19727        44.37227  22058909.83426   -271116.28626      1837.87526        36.37226
G20  23259761.50225    119810.76725      -882.83425        32.15525                                                                
G22  23321067.86126   -426054.48326      2963.86626        37.60926                                                                
G27  23611184.21724    291578.86424     -2088.25724        26.30224                                                                
G30  21594094.81926   -196045.67226      1358.35926        38.18726  21593930.53326   -149511.03426      1012.18726        40.72626
R02  19480184.74927    257643.43127     -1863.91727        43.90327
R13  20023331.03624   -102986.36924       688.05924        26.69024
R12  20201920.10225    310945.07925     -2198.55625        33.47225
R01  22830694.93925    657297.80825     -4596.68425        34.94325
R21  23658439.30324   -113278.56124       736.97424        28.98624
R03  20533546.92125   -341025.48425      2339.69525        34.92425
E07  24258122.25126    278614.03526     -1954.78926        40.63326  24257963.06225    209134.91325     -1460.09725        32.18025
E19  26963158.89423   -331786.74323      2368.43623        18.31823                                                                
E27  23307332.86926     -5382.11926        14.65526        38.87126  23307169.48225     -4564.65125        10.11125        29.72225
E30  25392749.16624    338551.37424     -2368.98124        27.67124  25392579.18324    255595.53524     -1772.73324        26.42524
> 2023 11 07 23 44 55.0002627  0 20                      
G04  23503897.49026    505485.12226     -3559.70526        40.15126  23503745.49625    380138.02025     -2658.71525        33.27625
G05  24223230.30724   -149563.80324      1100.20524        23.97424                                                                
G07  20924070.06825     -6183.05625        25.67025        32.65025                                                                
G08  21961940.46525    -27600.48425       142.02425        34.87325  21961767.18524    -21096.23124       106.47224        27.83124
G09  21110806.29327    348929.77627     -2458.23527        43.52227  21110644.70525    266109.71425     -1836.06325        33.87825
G14  22058569.57026   -357766.70126      2461.21926        41.26226  22058411.28025   -272953.94125      1837.94725        35.06525
G20  23259896.70926    120693.36026      -882.16026        36.08626                                                                
G22  23320475.47126   -429018.00226      2964.60726        36.42126                                                                
G27  23611546.66624    293668.02224     -2089.62024        28.60024                                                                
G30  21593804.92026   -197401.90226      1356.59026        36.22126  21593641.23326   -150523.58626      1014.81726        37.31526
R02  19480505.82627    259509.25027     -1866.59727        44.30627
R13  20023180.84024   -103678.01224       691.95124        24.79524
R12  20202308.33325    313145.10425     -2200.94625        33.08525
R01  22831534.65725    661894.82625     -4599.90825        33.43425
R21  23658280.11324   -114010.86424       733.08724        26.84524
R03  20533106.22626   -343362.83826      2337.40326        37.99026
E07  24258461.91627    280569.54327     -1955.85527        41.69227  24258300.02825    210595.39325     -1460.22325        31.60925
E19  26962684.32223   -334154.99523      2368.40323        18.32623                                                                
E27  23307302.59026     -5403.02126        14.04426        38.21526  23307136.50525     -4575.08525        12.08825        31.88625
E30  25393171.57324    340911.72124     -2370.31024        28.89124  25393000.99124    257368.25724     -1773.78224        23.64124
> 2023 11 07 23 44 56.0002625  0 20                      
G04  23504521.05927    509046.10727     -3560.82927        42.40327  23504363.06825    382797.68625     -2659.62825        31.03825
G05  24222962.89223   -150663.00123      1098.54023        21.09623                                                                
G07  20924002.31525     -6211.72425        27.35125        33.36725                                                                
G08  21961848.12925    -27741.15725       141.94425        33.76725  21961687.44024    -21208.70724       105.01924        26.92224
G09  21111211.91227    351389.90427     -2460.36527        42.80627  21111051.82325    267945.85025     -1836.99125        34.13225
G14  22058043.43427   -360227.68827      2461.46227        41.82227  22057883.34525   -274792.46425      1837.19925        34.38825
G20  23260003.73425    121577.18325      -883.82425        33.62525                                                                
G22  23319848.00526   -431981.26726      2962.90726        40.72326                                                                
G27  23611889.02924    295755.00724     -2087.74424        27.66624  23611716.94823    226025.38123     -1561.46323        23.02723
G30  21593487.44025   -198761.33425      1355.87025        32.40425  21593323.45325   -151536.49325      1010.59425        35.04625
R02  19480796.92527    261376.81227     -1868.36327        43.65327
R13  20023006.96123   -104373.06423       689.85323        22.85723
R12  20202662.08825    315348.79025     -2203.97825        33.01525
R01  22832326.70925    666492.23525     -4599.59025        33.20325
R21  23658082.25024   -114741.66724       735.25824        26.45224
R03  20532613.36826   -345700.69126      2336.87026        36.88926
E07  24258775.79926    282525.66126     -1956.70126        39.94526  24258614.51125    212057.88325     -1460.48925        33.29025
E19  26962177.37323   -336523.58623      2368.35923        17.92623                                                                
E27  23307239.33426     -5425.76826        12.67526        37.16126  23307073.54925     -4587.42225         9.50625        30.41625
E30  25393561.60324    343280.72524     -2372.31524        26.78324  25393393.42024    259142.18324     -1773.74824        24.67224
> 2023 11 07 23 44 57.0002624  0 20                      
G04  23505165.31326    512607.28226     -3560.32526        37.58726  23505010.62025    385454.51625     -2659.80125        31.29325
G05  24222719.76023   -151762.82423      1097.37523        21.42523                                                                
G07  20923969.03825     -6240.28225        27.63825        32.26425                                                                
G08  21961794.76625    -27882.71525       141.40825        31.50925  21961627.48224    -21310.13524       104.73224        27.66524
G09  21111649.90927    353850.98827     -2461.31327        42.17827  21111489.52025    269783.29725     -1836.81725        35.14025
G14  22057544.87926   -362688.18226      2460.75126        41.35026  22057385.09025   -276629.62225      1837.82525        34.59425
G20  23260144.33725    122461.31525      -883.94025        32.11825                                                                
G22  23319252.61727   -434943.69227      2961.89727        43.07027                                                                
G27  23612265.56924    297838.31924     -2086.68224        28.93924                                                                
G30  21593202.03725   -200120.49225      1356.61825        31.40925  21593035.65225   -152543.16625      1011.76325        31.62325
R02  19481116.20427    263245.12427     -1868.47027        43.40227
R13  20022857.36424   -105059.73724       683.75324        27.09524
R12  20203039.82725    317555.18825     -2203.88625        32.68125
R01  22833161.03225    671089.31325     -4598.26325        33.71225
R21  23657915.86624   -115479.84624       736.93424        26.62124
R03  20532148.98925   -348037.35525      2339.64325        34.06125
E07  24259118.16226    284482.73526     -1957.29426        39.22326  24258956.27425    213519.27225     -1460.63925        32.98525
E19  26961693.80823   -338891.91223      2368.35923        18.06723                                                                
E27  23307197.66326     -5450.88726        12.46826        36.97526  23307040.27225     -4598.52825        10.72125        30.89525
E30  25393989.10724    345650.07224     -2373.62224        27.32124  25393814.92824    260916.56824     -1773.98124        24.11524
> 2023 11 07 23 44 58.0002623  0 20                      
G04  23505817.06126    516169.17326     -3561.58226        40.95026  23505657.27225    388111.11425     -2660.24025        32.42125
G05  24222481.72523   -152861.98923      1096.97923        20.40523                                                                
G07  20923932.16325     -6264.82625        26.18425        32.43025                                                                
G08  21961735.10725    -28021.50925       139.37725        31.75725  21961565.72424    -21414.33724       103.96024        28.66924
G09  21112088.80527    356312.67227     -2461.68927        42.70227  21111927.51725    271621.70625     -1838.06025        34.78125
G14  22057045.12526   -365147.67726      2459.61526        40.90626  22056886.53525   -278466.74325      1836.80625        35.33025
G20  23260283.44124    123343.81824      -883.41524        28.22124                                                                
G22  23318660.22727   -437904.60827      2960.76827        41.55327                                                                
G27  23612632.81424    299926.30324     -2087.93924        29.23624                                                                
G30  21592906.74226   -201475.96926      1356.13926        36.03926  21592746.95226   -153555.35026      1012.06726        39.19326
R02  19481432.78527    265114.56427     -1869.72127        43.61827
R13  20022699.67324   -105740.15424       683.05924        29.43324
R12  20203425.65925    319761.10125     -2201.40325        32.26125
R01  22833991.75625    675685.39125     -4597.79025        31.60625
R21  23657755.77624   -116219.80224       736.05124        28.28424
R03  20531677.41525   -350373.88525      2339.26625        33.29625
E07  24259459.32626    286441.10226     -1958.43326        40.92926  24259298.93725    214981.41625     -1461.76425        32.65825
E19  26961214.44023   -341260.31223      2368.39523        19.22123                                                                
E27  23307171.58126     -5463.24626        12.04026        36.90726  23307008.19425     -4607.73125         7.94625        31.73425
E30  25394409.41624    348027.73924     -2374.56624        28.13124  25394236.73624    262691.39224     -1773.64224        23.81424
> 2023 11 07 23 44 59.0002622  0 19                      
G04  23506461.31526    519730.69126     -3561.71126        40.38226  23506304.82425    390769.62725     -2660.01525        30.95525
G07  20923896.78825     -6289.62725        24.01625        31.39025                                                                
G08  21961675.14925    -28161.73625       137.73725        34.14125  21961511.16225    -21520.23225       104.16325        32.39825
G09  21112528.30127    358774.47527     -2462.51827        42.40327  21112365.51325    273459.04425     -1837.55425        34.68425
G14  22056546.27126   -367606.35226      2457.49526        36.72326  22056388.28025   -280303.62125      1835.80125        32.31125
G20  23260420.14624    124224.18424      -884.05224        25.14924                                                                
G22  23318065.73927   -440866.15227      2961.26327        44.09127                                                                
G27  23612994.66424    302016.83624     -2091.36924        26.63724                                                                
G30  21592624.63726   -202831.95626      1356.72626        37.39826  21592459.45127   -154567.71927      1012.87227        42.29327
R02  19481758.06027    266984.37827     -1870.59127        44.41027
R13  20022525.19424   -106420.03324       683.37224        27.67424
R12  20203811.19325    321962.96125     -2201.90225        31.87725
R01  22834822.18224    680282.70824     -4597.21624        29.07424
R21  23657599.88424   -116957.38124       735.96324        29.34524
R03  20531227.12725   -352710.00925      2339.10225        32.79525
E07  24259800.49026    288398.60526     -1957.67526        40.17026  24259640.70025    216442.73625     -1461.65325        33.25425
E19  26960732.37323   -343628.80623      2368.41023        19.74823                                                                
E27  23307139.80326     -5475.77426        12.57826        37.37426  23306975.81625     -4617.39525        10.57525        31.59625
E30  25394830.32524    350411.56924     -2374.67624        26.11624  25394659.14323    264465.59323     -1773.22223        21.85323
> 2023 11 07 23 45 00.0002619  0 20                      
G04  23507081.28626    523292.79326     -3563.09226        37.26626  23506922.39624    393435.54424     -2659.82024        28.02924
G05  24221985.26924   -155055.23224      1096.19324        24.65924                                                                
G07  20923838.02825     -6317.75425        24.66825        33.04625                                                                
G08  21961587.90925    -28303.39225       137.89025        32.94225  21961425.42225    -21623.18225       103.56225        31.02425
G09  21112936.31827    361235.79427     -2461.62827        43.43127  21112773.83125    275296.80825     -1837.56325        32.57325
G14  22056017.43726   -370065.60226      2458.92626        41.48526  22055860.64525   -282136.00725      1837.40625        31.48925
G20  23260545.75924    125105.60324      -884.31624        25.61024                                                                
G22  23317440.07227   -443828.01127      2962.60627        43.65727                                                                
G27  23613348.41924    304106.90724     -2089.78924        27.28524                                                                
G30  21592305.35826   -204187.37626      1353.98426        39.00626  21592139.57326   -155579.83326      1011.47126        40.85826
R02  19482045.56127    268853.86527     -1869.46627        43.14027
R13  20022343.22024   -107106.65324       684.85724        28.48524
R12  20204158.65225    324167.18025     -2202.50425        30.63625
R01  22835610.33624    684878.96524     -4596.96324        28.00124
R21  23657404.12025   -117694.61325       736.03725        29.53025
R03  20530723.47625   -355048.10925      2336.78425        35.02425
E07  24260113.77326    290356.15426     -1957.24626        39.83526  24259952.78425    217904.07525     -1461.33225        31.26425
E19  26960224.52523   -345997.11423      2368.40723        20.00223                                                                
E27  23307077.14626     -5487.92726        12.54226        37.68526  23306913.16025     -4625.00425         8.65425        30.24525
E30  25395223.35324    352796.23924     -2373.99224        27.17924                                                                
> 2023 11 07 23 45 01.0002619  0 20                      
G04  23507724.04126    526855.62926     -3564.50226        35.80826  23507569.64824    396096.49524     -2660.08824        27.40524
G05  24221754.12924   -156150.60424      1096.56824        23.54524                                                                
G07  20923801.15425     -6339.65125        24.18025        32.81725                                                                
G08  21961534.24625    -28442.20025       138.62825        34.11025  21961369.96024    -21722.46524       103.02124        28.27624
G09  21113373.71627    363698.37927     -2462.00327        42.14227  21113212.42725    277135.74025     -1838.79225        32.90125
G14  22055518.28226   -372524.78526      2458.99226        39.95726  22055361.79125   -283972.13425      1836.57925        29.75125
G20  23260679.46724    125988.22524      -881.55124        26.92624                                                                
G22  23316846.78327   -446789.24427      2961.11227        43.73227                                                                
G27  23613716.86425    306195.70925     -2089.40325        30.30125                                                                
G30  21592019.65626   -205541.29626      1354.04726        38.05026  21591852.67127   -156591.58627      1012.85427        42.80327
R02  19482369.33627    270724.96327     -1871.51927        43.31027
R13  20022181.33224   -107793.68224       685.00824        29.08524
R12  20204536.69025    326370.96725     -2202.44025        30.88725
R01  22836441.06126    689473.25326     -4597.72426        35.64626
R21  23657230.84024   -118431.01224       734.71624        27.96924
R03  20530254.90025   -357382.41625      2334.33325        35.06225
E07  24260458.53426    292315.15526     -1958.88526        39.36526  24260295.14725    219365.35425     -1462.08125        30.43825
E19  26959710.98023   -348365.52923      2368.17723        20.91523                                                                
E27  23307045.36826     -5499.58926        11.89626        38.29826  23306880.48225     -4634.33425        10.64925        29.95925
E30  25395645.76024    355166.07524     -2373.23424        27.86524                                                                
> 2023 11 07 23 45 02.0002618  0 20                      
G04  23508374.59126    530418.76026     -3563.32026        37.67326  23508217.20023    398763.12023     -2660.23523        23.13223
G05  24221521.78924   -157248.88524      1095.39624        24.08224                                                                
G07  20923766.97825     -6361.77325        25.49825        34.40625                                                                
G08  21961480.58325    -28575.11925       137.28325        33.49625  21961314.79825    -21828.27225       102.34525        29.84125
G09  21113810.81326    366161.58026     -2463.67026        40.85626  21113650.42425    278975.32825     -1838.96625        33.10125
G14  22055022.42627   -374983.16527      2458.32527        44.85827  22054863.83525   -285814.14125      1836.71625        33.04925
G20  23260817.97124    126870.95324      -884.10024        27.73124                                                                
G22  23316253.19427   -449749.45027      2959.76627        43.61827                                                                
G27  23614079.91324    308290.96924     -2091.06424        28.62124                                                                
G30  21591730.95626   -206895.44526      1355.01426        38.88726  21591565.17027   -157602.57827      1011.10527        42.61627
R02  19482683.81927    272597.79127     -1873.06727        44.11727
R13  20022018.84524   -108477.42324       683.77324        27.93824
R12  20204934.51525    328573.71925     -2203.68025        32.03625
R01  22837268.18826    694070.53026     -4597.30526        36.72626
R21  23657046.76724   -119167.63424       735.32024        27.38924
R03  20529780.92826   -359715.04826      2332.45126        36.14626
E07  24260799.99826    294273.54126     -1958.54726        40.02026  24260638.41025    220828.54425     -1462.42725        31.66025
E19  26959232.21223   -350733.96023      2367.59723        20.72023                                                                
E27  23307012.39126     -5510.12026        10.66426        36.51426  23306847.50525     -4642.35125         8.19625        30.54425
E30  25396065.47024    357530.37024     -2372.22124        27.42024  25395895.48723    269762.47423     -1776.69623        23.11623
> 2023 11 07 23 45 03.0002616  0 20                      
G04  23508993.36326    533982.67126     -3561.12426        35.67026  23508835.67223    401421.86823     -2659.71623        21.17223
G05  24221251.37724   -158342.75624      1092.57624        26.15024                                                                
G07  20923702.22225     -6389.42625        27.37825        32.43425                                                                
G08  21961392.44425    -28711.75725       135.43125        34.93325  21961227.85825    -21931.79425       101.65925        31.57925
G09  21114221.52926    368625.06226     -2463.65126        41.11726  21114058.74125    280814.13925     -1838.65225        32.02425
G14  22054498.08927   -377441.39227      2459.40927        44.57627  22054334.70226   -287649.40026      1836.02726        35.59726
G20  23260922.29924    127756.79424      -885.87524        28.81024                                                                
G22  23315632.32426   -452710.21126      2960.94126        41.09626                                                                
G27  23614413.28225    310382.29525     -2092.34225        29.52425                                                                
G30  21591409.87826   -208250.61226      1357.04326        39.03726  21591246.79127   -158613.97727      1013.04927        42.18527
R02  19482981.51327    274470.91427     -1873.50627        43.39627
R13  20021831.77425   -109159.83525       682.99425        29.94325
R12  20205290.66825    330776.46925     -2203.81425        32.57725
R01  22838075.23026    698668.25826     -4597.22826        38.98326
R21  23656862.09524   -119899.68824       732.91324        27.53224
R03  20529291.06826   -362048.84826      2332.90026        37.73326
E07  24261114.48026    296232.26526     -1958.87726        37.91026  24260951.39325    222290.87125     -1462.98425        30.76825
E19  26958724.66323   -353102.15223      2366.64023        18.39123                                                                
E27  23306948.53526     -5520.99226        12.09826        36.33126  23306785.44825     -4650.58525         9.26225        31.09325
E30  25396457.89824    359893.18824     -2371.31724        27.01024  25396288.81524    271539.63024     -1771.50024        24.72624
> 2023 11 07 23 45 04.0002615  0 20                      
G04  23509639.11625    537544.06025     -3561.44625        35.09625  23509484.72224    404081.82124     -2660.24824        25.64624
G05  24221019.33724   -159432.48724      1089.95724        24.57224                                                                
G07  20923664.44925     -6416.11425        27.58825        30.62725                                                                
G08  21961333.98526    -28847.34526       135.75826        36.03826  21961172.09725    -22030.37625       102.05125        31.96825
G09  21114660.72527    371088.10327     -2463.18527        42.71627  21114497.33825    282656.04225     -1839.25525        33.96225
G14  22053994.43727   -379900.32027      2458.81827        43.79727  22053836.74726   -289485.21926      1835.35026        36.34726
G20  23261058.40425    128644.32925      -887.74725        30.52725                                                                
G22  23315039.03427   -455671.06327      2960.93627        42.33227                                                                
G27  23614780.82724    312474.96124     -2093.72724        26.89624  23614615.34223    238527.18723     -1565.50123        22.10523
G30  21591122.97726   -209606.05626      1355.97726        37.10826  21590958.39126   -159628.53126      1010.77726        41.10826
R02  19483298.09327    276343.16827     -1872.34927        42.13827
R13  20021665.68924   -109846.59624       682.56924        26.46124
R12  20205676.20125    332980.91825     -2202.43825        32.96325
R01  22838899.35926    703265.65226     -4598.37226        37.09026
R21  23656696.61024   -120629.38524       733.69524        25.86524
R03  20528811.40026   -364385.84526      2331.83426        36.49326
E07  24261448.44926    298190.55526     -1958.20626        38.07226  24261292.85625    223753.51225     -1462.41625        31.88225
E19  26958249.49223   -355470.64223      2366.62523        20.55923                                                                
E27  23306917.65726     -5532.98026        11.41626        36.98926  23306753.07125     -4659.12825         7.79325        31.56725
E30  25396877.90724    362263.83724     -2371.10424        26.23624  25396710.92323    273310.41223     -1772.60323        22.89623
> 2023 11 07 23 45 05.0002614  0 20                      
G04  23510285.46826    541106.44126     -3562.15826        39.41626  23510129.57624    406741.22024     -2659.08524        29.32624
G05  24220763.61423   -160516.92323      1085.27923        22.46523                                                                
G07  20923635.36925     -6443.14425        25.71625        32.17525                                                                
G08  21961282.42125    -28984.91425       134.08625        34.15025  21961116.63524    -22127.56224        97.92724        28.87924
G09  21115099.32127    373554.45727     -2463.53227        43.64827  21114936.53425    284500.37825     -1839.39325        34.66725
G14  22053498.28127   -382357.91027      2457.09227        44.53427  22053338.79125   -291320.59425      1835.95425        34.15025
G20  23261200.20624    129532.37824      -889.10724        29.19224                                                                
G22  23314443.34726   -458631.53126      2959.76226        41.40626                                                                
G27  23615156.76724    314568.18924     -2093.65824        28.94724  23614985.28623    240091.55923     -1564.57223        23.15423
G30  21590842.97025   -210956.52125      1352.53925        34.86625  21590670.29026   -160643.13626      1012.29726        40.09226
R02  19483615.27427    278217.44127     -1874.16927        43.50227
R13  20021526.58624   -110528.79024       681.35924        25.51324
R12  20206057.53725    335185.48825     -2200.21925        33.16025
R01  22839732.18226    707863.40726     -4598.06826        38.86026
R21  23656510.73824   -121361.41624       734.02524        27.67024
R03  20528356.91426   -366717.07026      2329.20426        37.58426
E07  24261793.51026    300149.21426     -1958.91626        41.28426  24261635.21925    225216.25225     -1462.78525        31.59525
E19  26957771.62323   -357839.98623      2366.52623        22.02923                                                                
E27  23306881.98126     -5543.59326        10.35626        37.33826  23306720.09325     -4667.51125         8.97425        31.05625
E30  25397303.91224    364636.62724     -2371.81824        23.97624  25397132.43123    275075.68123     -1773.01023        22.53023
> 2023 11 07 23 45 06.0002612  0 20                      
G04  23510903.64026    544669.85526     -3564.68526        41.23026  23510747.14824    409401.72024     -2661.64524        28.13724
G05  24220495.60024   -161601.55624      1084.70724        24.66024                                                                
G07  20923568.81525     -6471.96325        25.08825        32.12225                                                                
G08  21961200.27726    -29118.65126       134.79326        36.64126  21961030.89524    -22222.16024        99.62424        25.78124
G09  21115510.03727    376020.94627     -2464.74527        44.50827  21115345.15125    286347.48325     -1840.24625        31.99625
G14  22052970.04727   -384815.08827      2457.50527        44.51327  22052810.85726   -293159.58326      1833.94226        36.74926
G20  23261309.03125    130418.07725      -889.11525        29.57825                                                                
G22  23313816.18126   -461590.63426      2958.89526        39.02226                                                                
G27  23615489.23724    316661.83924     -2093.82524        29.48024  23615319.55423    241652.26323     -1565.10123        22.01023
G30  21590524.29125   -212312.21225      1351.25525        32.77725  21590352.81026   -161653.46626      1010.28826        38.15926
R02  19483914.46727    280093.16127     -1876.00227        43.90427
R13  20021352.40624   -111210.76924       681.18924        25.04224
R12  20206390.00725    337385.25725     -2200.24325        31.46825
R01  22840530.53026    712461.94826     -4598.91026        39.84026
R21  23656327.86524   -122093.47524       731.53724        26.26224
R03  20527860.45826   -369046.44526      2329.39326        36.17926
E07  24262111.59027    302108.88827     -1959.91427        41.54927  24261948.20324    226681.29624     -1463.64324        29.25324
E19  26957262.57523   -360209.15923      2365.03623        23.09223                                                                
E27  23306822.02325     -5552.92925         9.14725        35.08525  23306658.63625     -4674.32825         6.30525        29.53425
E30  25397678.95324    367013.03424     -2373.88924        28.47024  25397520.96223    276851.11223     -1775.34123        21.43323
> 2023 11 07 23 45 07.0002611  0 20                      
G04  23511551.19227    548233.68327     -3564.99827        41.70027  23511394.70025    412062.57625     -2661.31425        30.78925
G05  24220261.76224   -162688.50724      1085.17624        24.91124                                                                
G07  20923534.33925     -6493.28725        23.61625        32.32425                                                                
G08  21961142.41725    -29252.81325       134.54725        33.74725  21960976.03324    -22316.24424       100.11424        27.27624
G09  21115944.43627    378485.65527     -2464.54027        43.99327  21115783.44725    288187.48425     -1839.89225        33.63925
G14  22052472.09127   -387271.62327      2456.73427        43.82127  22052314.10126   -294998.59126      1834.37026        39.24326
G20  23261446.33625    131307.12525      -888.63425        29.51625                                                                
G22  23313224.99026   -464549.36726      2958.35626        41.35426                                                                
G27  23615852.88524    318758.96224     -2095.98224        28.33824  23615687.10024    243216.24424     -1567.64724        25.58524
G30  21590234.99125   -213668.25025      1354.33125        33.64325  21590064.11026   -162664.61026      1010.71526        37.43226
R02  19484230.44827    281969.14627     -1875.79527        44.94927
R13  20021179.12624   -111894.24124       684.30424        24.75824
R12  20206783.33525    339585.79425     -2204.19125        32.95725
R01  22841357.05826    717060.40526     -4598.54926        37.19126
R21  23656181.26624   -122820.51924       729.70124        27.28724
R03  20527397.27926   -371376.82426      2332.10326        35.83826
E07  24262449.75627    304068.36327     -1959.78127        41.64427  24262290.86625    228144.39025     -1463.40525        30.77325
E19  26956783.50724   -362578.24124      2363.36124        26.52524                                                                
E27  23306791.44426     -5561.68226         8.08426        36.72826  23306625.95925     -4682.12825         7.72525        31.71225
E30  25398110.65425    369390.47725     -2376.37325        30.36725  25397943.07024    278626.81424     -1777.05224        27.19724
> 2023 11 07 23 45 08.0002610  0 20                      
G04  23512199.04326    551796.82026     -3562.70026        40.40126  23512042.55225    414722.99625     -2660.56625        35.27025
G05  24220019.82924   -163776.23224      1086.16224        26.54224                                                                
G07  20923495.36625     -6513.49325        23.96025        31.12125                                                                
G08  21961086.05625    -29384.89425       132.85725        34.66925  21960918.77225    -22415.21525        99.55225        31.06825
G09  21116387.22927    380950.77827     -2464.63327        43.54927  21116221.74426    290027.65826     -1840.16726        36.50526
G14  22051975.63527   -389727.68127      2456.26827        43.52327  22051811.94826   -296832.85126      1834.95526        37.31026
G20  23261583.04125    132196.90725      -889.62025        34.46825                                                                
G22  23312632.90026   -467508.09426      2958.27626        40.20526                                                                
G27  23616224.32824    320853.96924     -2098.46924        28.15424  23616056.14524    244782.76824     -1567.44424        26.08724
G30  21589945.99125   -215020.71725      1357.49025        30.48725  21589777.50826   -163674.41726      1010.36026        35.86626
R02  19484552.42527    283846.52227     -1877.23227        43.86827
R13  20021032.82724   -112575.06024       683.34624        25.16224
R12  20207182.05925    341790.47125     -2206.47925        31.17125
R01  22842187.78226    721658.44326     -4597.19326        37.37026
R21  23656009.48524   -123550.41724       728.31824        27.56924
R03  20526928.40326   -373707.27226      2333.25626        36.29826
E07  24262792.71826    306028.23726     -1959.98626        40.24126  24262633.52825    229608.38825     -1463.11625        33.21325
E19  26956303.83924   -364947.88224      2363.16224        24.84824  26956144.64924   -270659.23024      1763.30924        23.72824
E27  23306756.96826     -5569.94826         8.30626        37.59626  23306594.18125     -4688.22425         6.77125        32.35425
E30  25398545.95325    371767.99725     -2377.02125        30.43425  25398366.07724    280401.57524     -1773.40524        25.68624
> 2023 11 07 23 45 09.0002609  0 20                      
G04  23512845.99527    555360.48827     -3562.64127        41.84227  23512690.70325    417382.61625     -2661.19825        33.17325
G05  24219783.59324   -164861.75624      1085.13924        27.33124                                                                
G07  20923465.98625     -6542.82825        27.43025        32.45925                                                                
G08  21961028.19725    -29516.05625       130.98725        34.79025  21960864.81024    -22517.46424        98.46624        27.99924
G09  21116822.82827    383417.34027     -2465.98027        43.47827  21116660.64026    291868.62826     -1842.26326        37.91926
G14  22051476.78026   -392184.08926      2455.72226        41.31426  22051316.99126   -298667.25126      1834.34926        40.81526
G20  23261720.64625    133085.46825      -890.42925        33.98925                                                                
G22  23312039.31126   -470467.02826      2958.54026        37.85126                                                                
G27  23616592.77325    322953.63625     -2097.35925        29.72825  23616425.78924    246349.07324     -1568.72124        24.27924
G30  21589656.39225   -216377.70925      1356.41425        34.35725  21589490.30726   -164685.39726      1010.77726        37.61426
R02  19484876.50127    285725.70627     -1880.06727        42.87527
R13  20020866.44324   -113255.82924       683.12524        26.74624
R12  20207564.89425    344000.88525     -2206.73125        31.81525
R01  22843028.40125    726259.40025     -4598.16725        35.49125
R21  23655849.09624   -124277.80124       726.64624        27.35924
R03  20526481.41325   -376034.78125      2330.42025        34.12225
E07  24263137.47926    307988.44426     -1960.64226        40.41426  24262976.19125    231074.06525     -1463.67225        34.94125
E19  26955827.16924   -367318.27424      2362.52124        27.71224  26955665.58124   -272421.86424      1763.17924        26.20624
E27  23306725.78926     -5579.43226         9.79526        37.16826  23306562.70225     -4695.35325         6.86025        32.99525
E30  25398961.16524    374143.72224     -2376.35624        28.55024  25398788.78424    282177.28024     -1769.42424        25.69124
> 2023 11 07 23 45 10.0002607  0 20                      
G04  23513462.36926    558924.60826     -3564.17126        37.59226  23513308.87525    420044.09225     -2661.18525        31.72725
G05  24219512.58024   -165946.99824      1087.11624        27.75024                                                                
G07  20923399.13225     -6571.22425        28.94425        32.72825                                                                
G08  21960946.35325    -29647.06525       130.72725        32.72225  21960779.36924    -22618.81224        99.33824        28.81324
G09  21117234.44327    385883.63927     -2465.62227        42.57527  21117069.85726    293708.98426     -1841.39126        37.68526
G14  22050950.34527   -394639.81827      2455.54827        41.87327  22050789.05626   -300501.37626      1835.31226        39.70226
G20  23261825.57326    133976.18126      -891.12526        38.00926                                                                
G22  23311412.44526   -473426.17826      2959.83126        36.77226                                                                
G27  23616934.53624    325055.21024     -2096.64724        27.43724  23616765.45324    247913.45924     -1566.73124        23.88624
G30  21589341.61025   -217731.64725      1354.92725        33.47725  21589172.82726   -165695.73826      1011.43226        39.15826
R02  19485169.99827    287605.39027     -1880.39727        42.65527
R13  20020678.47324   -113934.65224       678.70024        29.01224
R12  20207900.36225    346208.44525     -2206.46325        31.22325
R01  22843818.95325    730859.17425     -4599.08125        34.56225
R21  23655647.33624   -125004.67424       726.39324        26.04224
R03  20525979.86025   -378359.46825      2328.30825        34.05125
E07  24263451.66226    309948.14326     -1960.67326        39.34626  24263289.47425    232538.88425     -1464.22025        35.01925
E19  26955320.22024   -369690.87724      2363.31624        24.13224  26955156.53323   -274184.29223      1763.48523        23.24723
E27  23306662.23325     -5587.65625         8.69225        35.33025  23306500.94525     -4701.77825         7.33825        31.91425
E30  25399351.19524    376521.34424     -2374.73524        27.85024  25399182.41223    283952.46323     -1772.47023        22.23523
> 2023 11 07 23 45 11.0002606  0 20                      
G04  23514111.41926    562490.01926     -3566.78426        39.44426  23513957.32624    422705.31624     -2661.49324        29.39224
G05  24219274.54525   -167030.33125      1084.88725        30.04525                                                                
G07  20923361.65825     -6596.10325        26.64125        32.43025                                                                
G08  21960888.49325    -29779.53625       133.52225        33.00725  21960723.60724    -22712.64224        98.48724        24.73824
G09  21117674.23827    388349.47527     -2467.11427        43.86827  21117510.85126    295551.37326     -1842.72726        35.76026
G14  22050451.19027   -397096.14027      2455.87027        41.90227  22050291.70126   -302335.94426      1833.72326        36.48826
G20  23261966.17625    134867.89825      -890.85225        34.28725                                                                
G22  23310822.15426   -476385.90126      2958.42826        37.55426                                                                
G27  23617300.28324    327152.67324     -2095.94424        27.78824  23617135.09823    249477.37323     -1569.83323        23.26423
G30  21589052.61025   -219084.97925      1352.69225        33.29625  21588884.12726   -166707.24526      1010.52626        39.07026
R02  19485489.27627    289481.48127     -1879.94627        43.20227
R13  20020521.68124   -114614.95524       676.97824        29.15924
R12  20208275.40224    348415.92824     -2206.61324        28.81824
R01  22844645.78126    735458.19726     -4598.90326        36.14826
R21  23655478.55324   -125729.66424       724.90124        27.07424
R03  20525515.78125   -380682.84225      2326.48225        31.31525
E07  24263787.72926    311909.20826     -1961.38526        41.23126  24263632.73725    234002.46125     -1465.08025        32.56525
E19  26954843.55023   -372062.75523      2363.25723        22.25523  26954676.86623   -275946.59823      1763.60423        21.02523
E27  23306631.65525     -5596.96425         8.54825        35.23625  23306468.86725     -4710.78025         6.23225        29.88125
E30  25399771.20424    378905.20724     -2372.77824        26.74424  25399603.32123    285727.65923     -1775.50323        21.10223
> 2023 11 07 23 45 12.0002605  0 20                      
G04  23514760.47026    566055.40126     -3566.20026        37.68326  23514605.47724    425366.66224     -2662.50124        27.10724
G05  24219036.21024   -168114.98824      1084.41624        29.29924                                                                
G07  20923328.68125     -6618.92725        22.18525        32.27625                                                                
G08  21960832.73226    -29913.85226       132.56626        37.45326  21960667.84625    -22803.12625        97.24425        31.95825
G09  21118112.23527    390816.92927     -2466.70127        43.06127  21117950.04725    297394.44225     -1843.55925        34.67325
G14  22049954.73427   -399550.94127      2454.40727        43.36127  22049794.34525   -304169.08825      1832.89325        34.80225
G20  23262105.28025    135760.17225      -891.79825        33.01925                                                                
G22  23310227.36526   -479344.01126      2958.37126        35.76426                                                                
G27  23617666.92924    329246.23524     -2094.14824        25.73324  23617505.34123    251043.26123     -1570.97923        22.02123
G30  21588766.60825   -220438.71225      1352.49625        34.40925  21588596.62626   -167716.78126      1010.64626        38.61326
R02  19485810.35427    291361.68227     -1878.76727        42.55927
R13  20020357.69524   -115293.70724       675.11424        29.46224
R12  20208669.03025    350618.50825     -2203.71525        31.88825
R01  22845474.10726    740057.34526     -4599.53226        38.91626
R21  23655299.87724   -126451.51724       721.54324        26.61224
R03  20525056.19925   -383004.86125      2327.30825        32.14725
E07  24264135.48926    313870.70226     -1961.66826        40.49026  24263976.29925    235466.46525     -1464.75225        32.52125
E19  26954353.98924   -374423.71924      2362.68024        24.33924                                                                
E27  23306600.77626     -5605.07526         8.44426        35.62726  23306436.49025     -4718.48325         6.60625        29.59725
E30  25400188.51524    381281.08824     -2370.58624        27.89024                                                                
> 2023 11 07 23 45 13.0002603  0 20                      
G04  23515381.04026    569620.36426     -3564.45426        35.61426  23515223.94924    428028.79224     -2663.26524        29.23724
G05  24218769.99425   -169197.53625      1081.17925        31.23325                                                                
G07  20923262.12725     -6639.91725        20.49825        32.28025                                                                
G08  21960745.79226    -30043.77326       126.88926        37.49426  21960582.40525    -22899.17025        95.69525        33.78125
G09  21118517.85426    393282.90226     -2466.44126        41.04426  21118359.56425    299237.93225     -1842.94625        34.46925
G14  22049428.59827   -402005.31627      2453.70827        42.69327  22049267.31025   -306002.29325      1833.32225        32.21425
G20  23262215.60325    136652.32425      -891.71025        30.16425                                                                
G22  23309604.09726   -482301.85326      2957.22126        39.33126                                                                
G27  23618011.99124    331345.57524     -2097.19724        28.01324  23617845.90624    252613.89624     -1571.14824        23.78824
G30  21588447.32925   -221792.18825      1352.55525        35.02925  21588277.04726   -168726.67426      1009.62526        39.92726
R02  19486101.15327    293240.65027     -1879.59027        42.07027
R13  20020163.12925   -115971.66625       675.08025        29.73725
R12  20209032.37825    352816.65925     -2201.70025        31.42425
R01  22846273.05426    744656.89326     -4600.24326        40.00926
R21  23655114.30524   -127176.63624       721.40624        27.37324
R03  20524567.23825   -385331.60525      2327.45725        31.80825
E07  24264448.17226    315832.79026     -1961.97726        40.24126  24264289.58225    236931.41425     -1465.30825        31.12225
E19  26953847.64024   -376788.31924      2362.70024        24.22124                                                                
E27  23306539.61825     -5613.35225         8.24925        34.66625  23306374.13325     -4717.45925         5.77625        29.94825
E30  25400579.44524    383652.87524     -2369.19324        27.04824                                                                
> 2023 11 07 23 45 14.0002602  0 20                      
G04  23516026.79326    573185.29126     -3563.94226        39.07526  23515871.20125    430692.45525     -2661.84625        30.09825
G05  24218542.45224   -170279.79224      1078.79724        27.61524                                                                
G07  20923229.15025     -6665.85625        21.86225        30.23525                                                                
G08  21960690.63026    -30170.28826       125.56426        37.26026  21960528.44325    -22994.81625        95.47725        31.67925
G09  21118960.64827    395751.13927     -2468.31427        43.02927  21118799.06025    301076.43925     -1842.86325        31.81425
G14  22048928.84427   -404459.29127      2453.70627        44.59727  22048770.85426   -307835.59926      1832.97726        38.57926
G20  23262355.60624    137544.62124      -891.13824        28.02224                                                                
G22  23309014.10526   -485258.74026      2956.48226        38.91326                                                                
G27  23618395.42524    333446.67624     -2100.04724        27.61524  23618216.14923    254184.96223     -1571.70023        21.57123
G30  21588155.93126   -223144.27726      1352.44426        38.05126  21587990.74526   -169736.36426      1009.76126        41.13526
R02  19486423.13027    295122.86527     -1882.33627        43.68927
R13  20020005.13925   -116648.19525       677.15725        30.23925
R12  20209403.82125    355015.63125     -2204.06125        32.18825
R01  22847105.87826    749257.82326     -4601.40726        39.25026
R21  23654967.40724   -127901.54524       724.88924        28.20924
R03  20524090.26825   -387657.37425      2326.16225        33.95925
E07  24264792.03426    317794.90826     -1962.28726        41.48626  24264632.84424    238396.54224     -1465.24324        28.55624
E19  26953369.47123   -379157.38023      2363.15923        19.98123                                                                
E27  23306507.54126     -5620.11226         6.94226        36.40626  23306342.95525     -4718.07825         5.04225        30.91225
E30  25401002.75224    386028.56424     -2373.92524        27.47324                                                                
> 2023 11 07 23 45 15.0002601  0 20                      
G04  23516674.64526    576751.68726     -3566.99526        40.77926  23516520.25225    433355.14325     -2663.04625        33.77725
G05  24218319.70624   -171363.33424      1079.80424        27.50324                                                                
G07  20923197.07225     -6687.25525        22.96725        30.96025                                                                
G08  21960636.66826    -30295.92326       124.45426        37.52926  21960474.48025    -23088.94725        93.67025        30.80825
G09  21119399.54427    398220.09727     -2468.75227        42.62427  21119237.95625    302918.06425     -1845.45225        31.65625
G14  22048432.68827   -406912.73927      2453.81427        47.22427  22048272.59826   -309667.75026      1832.22226        40.30626
G20  23262494.71025    138438.30525      -893.83325        32.05925                                                                
G22  23308420.81626   -488215.29626      2956.94026        39.38226                                                                
G27  23618774.36324    335545.26824     -2099.67824        25.24524  23618586.39324    255755.20424     -1570.47124        26.14324
G30  21587867.83026   -224497.37126      1353.96026        39.22526  21587703.24427   -170745.58327      1008.76627        41.86527
R02  19486744.20827    297006.78227     -1884.49127        44.16827
R13  20019851.34525   -117324.86525       677.76325        30.27525
R12  20209776.46325    357219.48325     -2206.16825        31.52225
R01  22847932.40626    753858.53026     -4600.56926        39.17326
R21  23654816.61124   -128631.58224       726.31824        24.27524
R03  20523599.20826   -389985.91126      2324.01626        37.03126
E07  24265134.99726    319753.88026     -1963.42026        40.69026  24264975.80724    239862.19424     -1466.25824        26.80224
E19  26952890.70223   -381533.65923      2363.20523        19.76623  26952728.81424   -283002.88724      1761.75324        25.69324
E27  23306476.66226     -5625.68826         5.30526        36.60726  23306310.27725     -4722.58925         3.23125        30.58625
E30  25401426.95824    388401.98424     -2369.19724        29.25924  25401260.57325    292816.12425     -1777.33925        29.65225
> 2023 11 07 23 45 16.0002599  0 20                      
G04  23517293.41727    580318.33627     -3567.47327        42.72027  23517137.82425    436018.26125     -2662.62625        33.89925
G05  24218050.19324   -172448.21824      1080.90324        27.30924                                                                
G07  20923129.91925     -6708.83225        23.45325        31.43025                                                                
G08  21960555.12426    -30420.09426       122.99826        38.71726  21960390.23825    -23181.38025        94.04925        32.10025
G09  21119809.96027    400690.42627     -2470.35227        43.06227  21119646.87325    304762.98125     -1844.97725        31.56825
G14  22047905.05327   -409365.38327      2452.97127        45.22927  22047746.46326   -311499.50626      1832.03226        39.54126
G20  23262604.13426    139333.36826      -895.18126        35.74826                                                                
G22  23307796.64827   -491171.70927      2956.90127        43.38227                                                                
G27  23619112.52924    337641.59424     -2100.30324        27.29324  23618926.95723    257323.80623     -1570.87723        22.41723
G30  21587548.25126   -225849.14626      1351.18226        39.22926  21587386.06427   -171754.23527      1009.29327        42.71227
R02  19487043.70027    298891.71627     -1885.95227        41.93427
R13  20019669.97125   -118000.63625       676.51625        30.39325
R12  20210143.70925    359431.04925     -2208.88725        29.93825
R01  22848738.54726    758458.96626     -4600.59526        41.43026
R21  23654607.95624   -129356.22724       724.76424        26.69224
R03  20523112.04526   -392307.99026      2323.14126        37.30026
E07  24265450.67826    321715.96326     -1963.62926        40.35826  24265289.09024    241328.91924     -1465.99424        29.33824
E19  26952381.35524   -383896.88424      2362.47924        23.75324  26952220.96624   -284759.66924      1761.10224        24.73024
E27  23306412.50626     -5631.21726         4.62626        35.85326  23306250.01925     -4726.75725         5.03525        32.91225
E30  25401820.58624    390782.06724     -2379.60024        28.42824  25401653.90124    294599.47924     -1776.84324        27.75324
> 2023 11 07 23 45 17.0002598  0 20                      
G04  23517938.57027    583885.40827     -3567.16927        42.24727  23517785.97625    438682.31625     -2663.16125        34.24025
G05  24217816.95424   -173531.21524      1081.01524        27.43624                                                                
G07  20923093.94325     -6731.64925        22.12525        30.60025                                                                
G08  21960500.26226    -30545.21626       124.82526        39.87126  21960335.97625    -23274.07925        92.49225        33.05125
G09  21120249.45627    403161.54027     -2471.03027        42.36427  21120085.76925    306608.29625     -1845.98925        31.65825
G14  22047407.39727   -411817.54727      2452.01227        44.81027  22047248.80726   -313330.44926      1831.34826        38.87626
G20  23262747.73525    140229.47525      -897.72125        35.31225                                                                
G22  23307206.35727   -494126.73627      2955.31727        45.56027                                                                
G27  23619482.47324    339740.09724     -2103.00524        26.62424  23619297.50124    258890.78924     -1572.87424        23.54724
G30  21587263.44826   -227199.78826      1349.23026        39.03426  21587098.56327   -172762.83727      1007.73827        42.41527
R02  19487366.57727    300776.89327     -1885.64827        42.01927
R13  20019516.77725   -118675.64425       675.09725        31.19925
R12  20210528.64225    361641.40325     -2210.54525        30.63725
R01  22849571.97026    763060.86926     -4601.83926        39.11426
R21  23654451.16424   -130079.39124       722.13224        25.49424
R03  20522649.46526   -394629.74926      2322.01926        36.64326
E07  24265785.54626    323687.29626     -1964.53626        39.61226  24265631.45325    242796.99325     -1468.33125        30.29425
E19  26951904.68523   -386260.50923      2363.02323        23.38923  26951741.89724   -286512.60724      1760.45124        26.70424
E27  23306386.42426     -5636.80026         5.17526        35.86226  23306219.44025     -4730.90625         2.70625        33.99225
E30  25402242.09424    393157.47424     -2383.25724        27.11524  25402079.60624    296389.98724     -1778.00224        29.06624
> 2023 11 07 23 45 18.0002597  0 20                      
G04  23518594.21626    587451.64626     -3566.49626        38.78626  23518434.72625    441345.71825     -2663.49525        30.31925
G05  24217568.42624   -174609.57124      1078.09724        27.82924                                                                
G07  20923063.96425     -6755.36025        22.34125        31.07525                                                                
G08  21960445.10026    -30669.64226       124.70226        37.82126  21960282.01325    -23366.80425        93.40025        32.47725
G09  21120683.25526    405632.40126     -2470.25026        38.28626  21120526.76425    308454.89725     -1845.14725        33.09025
G14  22046910.94127   -414269.52327      2452.41427        45.44227  22046752.05126   -315161.37026      1831.61826        39.41926
G20  23262888.03825    141127.73225      -898.99325        33.62725                                                                
G22  23306610.07027   -497082.29027      2955.84427        42.69527                                                                
G27  23619855.71424    341842.90724     -2101.08024        27.64324  23619668.64424    260462.56724     -1574.63224        25.93124
G30  21586975.64826   -228550.04326      1351.21626        36.84526  21586810.76227   -173771.26227      1009.42427        41.52127
R02  19487690.35327    302663.25127     -1886.40327        42.56927
R13  20019353.99025   -119349.09225       673.29425        30.69825
R12  20210921.67025    363850.24725     -2209.71325        31.75125
R01  22850392.50225    767666.29825     -4603.00425        35.07225
R21  23654282.68124   -130802.15524       719.67924        26.89824
R03  20522193.48126   -396950.42626      2320.51726        36.03926
E07  24266136.30326    325661.05126     -1964.12926        39.80426  24265974.11624    244263.73324     -1465.09224        29.16824
E19  26951425.61624   -388624.05024      2362.10124        23.93524  26951261.63025   -288264.62525      1760.64125        31.61125
E27  23306357.04526     -5641.66826         4.83826        36.33026  23306189.16125     -4734.23325         4.23125        32.88425
E30  25402677.99224    395532.77624     -2384.44224        28.44724  25402501.41424    298167.89524     -1777.18924        26.82924
> 2023 11 07 23 45 19.0002596  0 20                      
G04  23519237.27127    591017.89627     -3565.01427        41.83327  23519082.87825    444008.67825     -2662.89425        31.01525
G05  24217330.39125   -175682.51925      1075.52725        29.57625                                                                
G07  20923027.98925     -6776.68325        22.03625        32.35825                                                                
G08  21960389.33926    -30794.58226       125.42726        37.26426  21960228.05025    -23459.25625        92.03525        31.30525
G09  21121126.94826    408102.88626     -2472.98926        39.81026  21120965.96025    310300.61825     -1845.29125        32.50225
G14  22046412.68627   -416720.93327      2451.95927        43.75527  22046252.89726   -316991.93226      1830.80226        38.99826
G20  23263024.14425    142026.68625      -900.09525        32.90925                                                                
G22  23306019.47826   -500037.16926      2954.93626        41.30826                                                                
G27  23620230.15525    343943.75725     -2102.98925        29.55025  23620040.38624    262037.28324     -1573.92424        23.91424
G30  21586694.44226   -229900.92426      1351.55926        38.61426  21586523.56127   -174778.66627      1007.41127        41.71227
R02  19488010.53127    304550.84127     -1888.29327        41.72127
R13  20019187.30525   -120022.28225       672.68125        30.62925
R12  20211303.90525    366055.73025     -2208.98725        31.13825
R01  22851234.91925    772272.22025     -4604.27225        32.88025
R21  23654133.98424   -131519.69124       718.32524        26.97924
R03  20521735.39826   -399270.33426      2320.01026        37.29226
E07  24266480.16526    327630.52626     -1964.48826        38.08826  24266317.37825    245727.54525     -1466.06925        29.72225
E19  26950947.74724   -390987.98824      2362.25924        24.10224  26950783.46125   -290025.94025      1761.49025        31.39925
E27  23306322.26925     -5645.51025         3.67225        35.35425  23306157.38325     -4737.01925         2.44225        33.43125
E30  25403098.30124    397915.01924     -2379.98724        28.83724  25402923.52224    299945.78324     -1777.84724        26.90924
> 2023 11 07 23 45 20.0002594  0 20                      
G04  23519858.74126    594584.41126     -3566.01026        40.78926  23519701.64924    446669.22124     -2663.52424        28.97624
G05  24217071.67024   -176759.25824      1074.41424        27.81724                                                                
G07  20922961.43525     -6794.64425        21.84225        32.15525                                                                
G08  21960308.09526    -30917.57826       124.31526        40.23826  21960142.90925    -23552.21825        91.98125        34.95225
G09  21121540.96127    410575.30227     -2473.53027        41.86527  21121376.37526    312146.11726     -1845.61126        36.42326
G14  22045890.44827   -419171.88927      2450.99727        44.48227  22045728.26026   -318822.46826      1830.04726        38.56226
G20  23263138.36425    142925.53625      -898.39625        32.89625                                                                
G22  23305397.40926   -502991.26826      2953.42226        40.50926                                                                
G27  23620575.81625    346045.23725     -2102.32425        31.28525  23620381.25023    263611.81023     -1574.77423        22.47923
G30  21586373.06526   -231250.81726      1350.20426        36.24426  21586207.57927   -175786.11427      1007.81027        42.31227
R02  19488298.63227    306439.42027     -1889.50227        42.52527
R13  20019008.92925   -120694.37925       671.42025        30.43725
R12  20211654.66324    368261.75824     -2208.26724        29.31924
R01  22852029.06925    776875.16525     -4604.60325        32.09825
R21  23653928.92624   -132235.01224       717.48324        25.39824
R03  20521255.73025   -401591.96725      2322.61125        35.37025
E07  24266786.55326    329604.23726     -1964.73526        39.80026  24266630.66125    247194.42425     -1466.67925        32.34725
E19  26950438.10024   -393352.49024      2362.09724        24.01624  26950275.01324   -291785.77424      1759.98024        28.91924
E27  23306259.91225     -5648.82025         2.34625        34.38625  23306095.92625     -4738.14025         2.94925        32.64225
E30  25403477.83824    400291.10624     -2381.68424        28.55824  25403314.75124    301723.20624     -1777.83924        27.84924
> 2023 11 07 23 45 21.0002593  0 20                      
G04  23520504.19426    598151.61826     -3567.93826        40.46226  23520349.80125    449334.74225     -2664.04125        30.15125
G05  24216849.52424   -177838.86124      1076.50824        24.90824                                                                
G07  20922930.55725     -6812.38225        19.66225        30.16625                                                                
G08  21960253.23326    -31044.75626       123.37826        40.93426  21960090.74626    -23644.29326        92.42326        36.23626
G09  21121981.05726    413048.52026     -2473.73526        40.83626  21121816.77126    313993.14526     -1845.93126        37.59026
G14  22045390.09427   -421621.57327      2449.93727        43.80827  22045231.50426   -320651.12926      1828.94426        38.66726
G20  23263280.76625    143823.95425      -897.90625        31.91125                                                                
G22  23304803.22026   -505944.67126      2953.92526        36.89326                                                                
G27  23620941.86225    348148.87525     -2104.66325        29.69125  23620750.89424    265187.63124     -1575.20524        28.29324
G30  21586088.86226   -232599.44526      1349.18026        36.92526  21585920.97827   -176792.64827      1007.38627        42.85327
R02  19488625.10627    308328.94727     -1889.72927        41.93227
R13  20018859.63225   -121366.02225       672.85625        30.61425
R12  20212031.80224    370468.83924     -2206.68224        29.34124
R01  22852860.99426    781477.97426     -4602.67826        41.03326
R21  23653760.44224   -132948.18624       716.84224        26.32124
R03  20520788.35425   -403916.04525      2321.79425        34.71225
E07  24267137.01126    331583.57326     -1965.51726        37.37226  24266975.42225    248662.65225     -1468.84025        33.80625
E19  26949959.33123   -395717.17523      2361.46423        22.82423  26949796.54424   -293545.34624      1760.09024        25.93224
E27  23306238.02726     -5651.44626         1.92326        36.06426  23306065.64625     -4739.85525         2.02825        32.76325
E30  25403915.83524    402660.17124     -2379.14324        28.56324  25403737.45925    303501.59025     -1777.73225        30.02125
> 2023 11 07 23 45 22.0002592  0 20                      
G04  23521155.64326    601719.71126     -3568.32526        40.04826  23520998.25226    452005.79426     -2665.07226        37.47326
G05  24216609.69024   -178918.64224      1080.09524        26.79724                                                                
G07  20922896.08025     -6831.65225        18.58925        31.43225                                                                
G08  21960200.76926    -31166.89526       121.34826        38.76626  21960036.48326    -23735.05026        91.04426        36.47526
G09  21122420.25326    415521.86626     -2473.27126        38.39126  21122257.46525    315841.92125     -1847.99025        35.17625
G14  22044896.93527   -424070.66327      2449.44027        44.62627  22044735.64726   -322480.10226      1829.03026        38.34226
G20  23263423.76725    144726.78425      -899.02325        31.38125                                                                
G22  23304208.13226   -508896.32626      2953.18326        38.22426                                                                
G27  23621302.51324    350255.12424     -2105.73624        27.40424  23621122.63724    266764.61424     -1577.16324        28.35524
G30  21585807.35726   -233949.67226      1349.86926        37.29826  21585632.27827   -177800.23627      1007.31227        43.27727
R02  19488951.87926    310219.64426     -1890.68226        41.32626
R13  20018710.03525   -122039.23225       672.59425        29.96325
R12  20212419.73325    372680.02425     -2208.50025        30.37225
R01  22853691.41926    786081.17226     -4603.31426        41.32226
R21  23653610.84625   -133662.85325       718.69025        29.72625
R03  20520313.48326   -406234.20426      2317.67226        35.64326
E07  24267476.67526    333550.37026     -1965.89026        36.09126  24267318.98525    250132.42025     -1467.83125        31.38625
E19  26949480.56324   -398082.04524      2360.77024        23.77624  26949317.47624   -295307.50724      1759.37624        24.52524
E27  23306195.75626     -5653.90326         2.51326        36.57126  23306035.36725     -4742.01725         1.38325        33.45225
E30  25404340.64125    405023.22825     -2376.77525        29.76625  25404161.06524    305280.22624     -1778.93124        27.94924
> 2023 11 07 23 45 23.0002590  0 20                      
G04  23521779.21126    605287.84326     -3568.26226        36.81726  23521616.42426    454669.73726     -2663.86526        37.26626
G05  24216353.96724   -179998.65224      1080.89024        27.10024                                                                
G07  20922831.32525     -6850.59325        18.10425        32.82525                                                                
G08  21960117.42726    -31287.76126       120.25026        36.47826  21959953.74025    -23824.98125        90.34425        34.93225
G09  21122835.76526    417996.50226     -2475.82626        41.22426  21122667.58225    317692.89925     -1847.03725        35.26525
G14  22044365.40326   -426518.91126      2447.77726        37.96826  22044210.11126   -324308.44526      1829.07226        39.43926
G20  23263530.19325    145626.32925      -899.98425        31.73625                                                                
G22  23303592.65927   -511848.56627      2952.63627        45.44327                                                                
G27  23621647.27424    352362.38224     -2107.30624        26.97324  23621465.00024    268342.51024     -1578.25724        26.67124
G30  21585486.87826   -235301.83226      1347.92626        37.00826  21585316.89626   -178806.90626      1006.94026        41.14426
R02  19489245.37626    312110.67326     -1891.61226        40.01926
R13  20018523.56525   -122709.64525       670.65225        30.44625
R12  20212774.68725    374892.23725     -2209.81925        29.70825
R01  22854496.96126    790684.53226     -4603.42426        38.87526
R21  23653419.87824   -134382.24824       717.34024        27.72324
R03  20519824.52126   -408550.25526      2314.78026        35.91126
E07  24267796.85426    335516.40026     -1965.91726        37.00226  24267632.26825    251600.78325     -1467.51425        33.29025
E19  26948973.91423   -400447.19923      2360.45123        22.94323  26948808.42824   -297067.39924      1760.46324        27.84024
E27  23306144.19226     -5655.48326         1.83126        37.74326  23305974.21025     -4742.65825         1.63425        32.31325
E30  25404732.47024    407398.98524     -2375.66424        27.72324  25404554.99324    307062.01624     -1777.89924        24.86724
> 2023 11 07 23 45 24.0002589  0 20                      
G04  23522421.66626    608855.35326     -3567.87226        39.47426  23522265.77425    457334.60425     -2664.51025        35.15425
G05  24216123.42724   -181082.01724      1072.34524        26.30924                                                                
G07  20922800.14725     -6869.02825        19.54925        32.32925                                                                
G08  21960068.26126    -31408.28526       119.45326        37.57426  21959900.37725    -23912.42125        90.21825        35.23125
G09  21123273.46227    420471.15427     -2474.72327        44.49127  21123107.97726    319546.90026     -1847.55626        37.73126
G14  22043871.64527   -428967.51227      2448.95427        41.52727  22043713.05526   -326136.21326      1827.82626        35.96426
G20  23263705.87225    146521.11125      -899.27225        32.47925                                                                
G22  23302997.57027   -514800.57427      2952.37227        45.63827                                                                
G27  23622023.51324    354468.04924     -2108.28624        26.28524  23621836.74324    269919.95424     -1576.97624        28.35224
G30  21585196.67926   -236649.94226      1348.31226        36.44226  21585029.09527   -179813.22027      1006.27727        41.58327
R02  19489573.64927    314002.42127     -1891.49827        44.17927
R13  20018354.18225   -123378.90525       669.29425        29.56925
R12  20213179.10725    377104.91525     -2208.20525        30.27625
R01  22855320.79126    795286.08426     -4601.37726        39.18526
R21  23653189.63824   -135098.18524       714.40124        29.29324
R03  20519364.93925   -410867.65625      2313.06225        32.76425
E07  24268142.81427    337482.40727     -1966.74227        42.45727  24267977.62926    253068.64126     -1468.07426        35.55726
E19  26948496.94423   -402813.15123      2360.40723        21.76323  26948329.95925   -298826.96025      1759.66725        30.48625
E27  23306105.51926     -5656.78526         1.53726        35.81826  23305943.63125     -4744.80525         1.18225        33.85925
E30  25405150.08125    409776.05625     -2376.28425        31.21625  25404979.19924    308846.94924     -1777.26324        26.22524
