     3.03           OBSERVATION DATA    M                   RINEX VERSION / TYPE
GnssLogger          Google 14           20231107 234315 UTC PGM / RUN BY / DATE
Google GnssLogger                                           MARKER NAME
Unknown                                                     MARKER NUMBER
Unknown             Unknown                                 OBSERVER / AGENCY
Unknown             GnssLogger          v3.0.6.4            REC # / TYPE / VERS
Unknown             Unknown                                 ANT # / TYPE
        0.0000        0.0000        0.0000                  ANTENNA: DELTA H/E/N
G    8 C1C L1C D1C S1C C5Q L5Q D5Q S5Q                      SYS / # / OBS TYPES
R    4 C1C L1C D1C S1C                                      SYS / # / OBS TYPES
E    8 C1C L1C D1C S1C C5Q L5Q D5Q S5Q                      SYS / # / OBS TYPES
  2023    11    07    23    43   15.0000000     GPS         TIME OF FIRST OBS
 6 R01  1 R02 -4 R03  5 R12 -1 R13 -2 R21  4                GLONASS SLOT / FRQ #
G L1C                                                       SYS / PHASE SHIFT
G L5Q  0.00000                                              SYS / PHASE SHIFT
R L1C                                                       SYS / PHASE SHIFT
E L1C  0.00000                                              SYS / PHASE SHIFT
E L5Q  0.00000                                              SYS / PHASE SHIFT
 C1C    0.000 C1P    0.000 C2C    0.000 C2P    0.000        GLONASS COD/PHS/BIS
                                                            END OF HEADER
> 2023 11 07 23 43 15.0002755  0 19                      
G04  23440243.75725    150559.52625     -3537.65625        29.97225                                                                
G05  24248520.49923    -36865.24323      1154.22023        18.04423                                                                
G07  20928656.89226     -2313.66426        51.62926        39.16326                                                                
G08  21969142.67927     -9916.83327       212.34427        43.95227  21968977.79325     -7944.84425       158.14125        31.83125
G09  21068332.89724    105392.76224     -2413.23924        29.49124  21068169.21024     84218.04224     -1801.44524        26.72224
G14  22109629.32227   -109815.80827      2495.73527        43.14327  22109467.13425    -87781.82025      1863.59125        30.91025
G20  23247562.04826     35654.88326      -822.45926        37.91426                                                                
G22  23381007.16626   -131328.10226      2990.39926        40.95826                                                                
G27  23576171.45625     87887.52125     -2025.37525        32.55025  23576009.26825     70618.60925     -1512.81225        34.02825
G30  21623713.11524    -60596.02624      1377.49424        25.84024  21623535.03824    -48432.53324      1028.89524        28.50224
R02  19450202.20526     77193.43726     -1781.83026        39.39726
R13  20040358.64825    -32536.33125       735.67625        32.79625
R12  20165202.72126     94690.95926     -2166.93426        38.89226
R01  22749616.96824    203200.08424     -4580.72624        25.96124
R21  23676554.56223    -36165.17123       815.61823        22.34823
R03  20581345.83125   -105787.79225      2409.24125        31.75825
E07  24225409.19824     86587.65624     -1924.08024        26.82224  24225255.10524     65781.07524     -1436.43324        28.35924
E27  23311805.47325     -2005.32525        51.66325        33.95825                                                                
E30  25352017.86325    104594.58325     -2353.86825        31.88525                                                                
> 2023 11 07 23 43 27.0002739  0 18                      
G04  23447838.99925    193025.39025     -3541.44525        31.19525                                                                
G07  20928055.80826     -2891.12126        48.02626        36.32626                                                                
G08  21968182.44427    -12408.50227       203.79727        44.98927  21968018.15726     -9826.47026       152.57126        36.35526
G09  21073357.11825    134363.38425     -2417.92725        31.62925  21073198.22825    105851.32125     -1804.67425        32.74425
G14  22103451.19927   -139721.49227      2489.81727        41.82727  22103292.60925   -110117.73525      1860.14625        32.25025
G20  23248969.87326     45588.24726      -832.23626        37.97626                                                                
G22  23373704.52126   -167165.38326      2982.32626        38.37926                                                                
G27  23580319.08525    112247.84525     -2034.29125        35.46725                                                                
G30  21620100.61625    -77105.67625      1376.16425        29.61825  21619910.54725    -60761.10225      1026.40625        32.16825
R02  19453741.25526     98634.92426     -1792.16826        38.10226
R13  20038253.50625    -41313.60225       728.52625        31.36625
R12  20169606.67226    120746.05726     -2173.96226        40.20626
R01  22759414.48524    258142.89524     -4581.65624        28.35524
R21  23674254.25523    -45921.68023       808.09723        22.59423
R03  20575453.11025   -134651.50025      2401.86925        29.54525
E07  24229337.67925    109695.74025     -1927.01925        31.67125  24229167.69625     83035.22425     -1439.04425        32.21725
E27  23311213.38325     -2601.70425        47.67525        34.20925  23311048.79724     -2520.21624        34.81624        24.82424
E30  25356912.57525    132844.25425     -2354.73225        29.92425                                                                
> 2023 11 07 23 43 39.0002724  0 19                      
G04  23455458.82425    235503.30825     -3540.40325        30.73025  23455322.11825    178507.50125     -2646.47925        31.09625
G05  24242332.48223    -64471.54823      1146.78923        21.51223                                                                
G07  20927510.18625     -3437.60825        43.49125        31.63825                                                                
G08  21967270.77525    -14818.78225       197.98425        30.94025  21967107.68824    -11622.11424       146.19724        23.92024
G09  21078433.80426    163398.40626     -2420.44026        37.13726  21078271.01724    127536.99324     -1807.09024        23.66624
G14  22097318.34527   -169614.60927      2491.88527        44.66527  22097151.66025   -132429.87125      1859.97525        35.43125
G20  23250415.17325     55587.19125      -837.97625        35.03725                                                                
G22  23366427.35926   -203003.73426      2987.87026        41.11926                                                                
G27  23584528.17124    136709.73524     -2044.28024        28.65924  23584363.88524    107080.95824     -1527.42324        24.49924
G30  21616486.61826    -93603.21426      1371.56226        37.94426  21616318.13426    -73077.73226      1025.04926        36.87826
R02  19457328.87226    120176.53326     -1799.96826        40.23026
R13  20036160.05524    -50032.46824       721.22024        29.23624
R12  20174034.90625    146857.81525     -2177.82525        30.34225
R01  22769207.20627    313113.29927     -4576.24327        43.66427
R21  23672027.39623    -55564.78223       798.44723        21.02423
R03  20569684.50424   -163429.36824      2399.29724        27.91724
E07  24233275.75225    132825.37425     -1929.19725        34.48325  24233119.26124    100318.89124     -1440.10624        23.82824
E27  23310649.17326     -3155.66726        44.71426        37.52226  23310486.68624     -2912.43424        32.91624        26.43924
E30  25361839.66425    161109.18925     -2359.68025        30.64225  25361675.07825    122845.00525     -1763.02325        31.94325
> 2023 11 07 23 43 51.0002709  0 20                      
G04  23463091.84026    278038.55926     -3551.68526        37.19226  23462935.94725    210278.05125     -2651.16725        33.57725
G05  24239273.10023    -78162.41923      1138.99523        20.77923                                                                
G07  20926952.57225     -3955.49825        44.87825        34.13825                                                                
G08  21966384.58824    -17111.80324       188.99624        25.41724  21966217.00424    -13327.98824       141.04324        23.88724
G09  21083513.48726    192503.65526     -2429.69326        38.14226  21083351.89925    149272.30925     -1815.77125        33.61325
G14  22091174.39826   -199476.60526      2483.99526        38.29126  22091018.50624   -154732.31924      1853.93824        25.76124
G20  23251882.65726     65644.29326      -837.98226        35.77026                                                                
G22  23359159.19127   -238799.94127      2982.16627        47.15627                                                                
G27  23588775.03123    161239.08523     -2034.98023        21.91623                                                                
G30  21612895.40426   -110077.53426      1373.25926        39.38826  21612730.51825    -85376.14425      1026.58925        33.61625
R02  19460934.47526    141837.29926     -1813.15526        40.89526
R13  20034089.68825    -58708.02725       722.86225        30.52225
R12  20178485.62525    173008.53325     -2179.14425        33.60225
R01  22779045.19526    368106.66526     -4584.17726        35.62726
R21  23669840.71023    -65041.12423       785.91923        19.95723
R03  20563817.26626   -192120.84126      2390.64826        40.41826
E07  24237239.60826    156023.18726     -1938.05626        36.00026  24237078.62025    117611.10825     -1447.85225        31.66725
E19  26993991.34924   -182436.95524      2377.43024        27.11724                                                                
E27  23310099.65426     -3679.47326        42.29526        35.58226  23309938.96525     -3283.60925        28.61725        29.50525
E30  25366782.04224    189439.14624     -2358.34524        26.23724  25366610.26125    143973.16825     -1764.35925        34.65425
> 2023 11 07 23 44 03.0002694  0 20                      
G04  23470748.53926    320629.21026     -3548.97726        36.28726  23470591.44825    242097.69225     -2649.92025        33.37425
G05  24236199.02925    -91782.62125      1135.01125        31.10125                                                                
G07  20926404.25225     -4482.00525        41.60425        31.12925                                                                
G08  21965527.48224    -19303.20824       178.59124        28.13224  21965354.20225    -14949.18525       132.98025        30.82425
G09  21088614.75626    221695.69226     -2434.18726        39.20426  21088454.36725    171070.00125     -1817.17725        33.58025
G14  22085050.53826   -229289.48426      2484.11926        40.47526  22084891.64824   -176999.35824      1854.78124        26.56024
G20  23253346.24326     75740.80426      -844.77826        37.06526                                                                
G22  23351898.81727   -274572.60627      2981.72327        42.70727                                                                
G27  23592995.50924    185869.27024     -2052.92124        29.08724  23592826.72624    143829.65424     -1536.39724        25.11724
G30  21609304.79026   -126569.40626      1371.11926        37.81426  21609139.60425    -97679.21425      1023.52325        33.40325
R02  19464561.66426    163624.05626     -1818.46926        39.16326
R13  20032012.12725    -67331.20725       715.68725        30.97425
R12  20182950.73425    199167.91525     -2182.66425        34.91325
R01  22788919.45926    423149.44626     -4586.96726        36.73626
R21  23667641.43324    -74490.60924       782.70824        25.32824
R03  20558010.58527   -220741.59627      2379.61627        43.30527
E07  24241208.86026    179269.25526     -1939.38626        36.82726  24241052.66825    134960.08725     -1447.80825        30.95025
E19  26988098.02924   -210969.84224      2375.52724        26.66924  26987937.93925   -155800.05825      1773.43825        30.97925
E27  23309560.02726     -4143.32126        37.86226        36.11726  23309398.43924     -3628.06624        26.54024        28.81924
E30  25371722.92224    217762.19024     -2362.40724        28.97124  25371555.03825    165151.75125     -1765.81225        34.99425
> 2023 11 07 23 44 15.0002678  0 20                      
G04  23478373.76026    363220.55326     -3556.13026        37.80626  23478215.76924    273915.48024     -2653.01424        29.29924
G05  24233140.84625   -105273.68625      1117.11225        33.48025                                                                
G07  20925838.84325     -4936.49525        36.97825        30.91825                                                                
G08  21964658.38325    -21416.45525       165.92825        30.56625  21964477.30925    -16503.53125       125.78225        32.71725
G09  21093701.03526    250925.69226     -2442.45526        37.43426  21093536.74824    192919.63724     -1821.75424        28.82024
G14  22078903.29326   -259048.14326      2477.25326        38.12026  22078742.90425   -199213.95925      1848.43725        34.81825
G20  23254807.73226     85966.45226      -856.20426        39.12326                                                                
G22  23344610.26325   -310304.56925      2972.86325        33.82425                                                                
G27  23597230.97724    210577.12824     -2068.07324        29.17224  23597060.39524    162319.95224     -1544.83324        28.36024
G30  21605687.19425   -142983.63425      1364.72025        35.27925  21605532.80126   -109925.42326      1020.90926        39.18326
R02  19468185.85526    185532.14326     -1830.17226        39.14626
R13  20029954.05125    -75865.99625       710.11425        30.39325
R12  20187387.96225    225371.64225     -2184.36425        31.89625
R01  22798701.38726    478192.30926     -4589.16126        36.65926
R21  23665439.45724    -83814.26324       773.49624        27.04324
R03  20552208.40227   -249218.68527      2368.60727        42.25027
E07  24245165.22125    202565.99325     -1945.45525        33.65825  24245001.83424    152348.30624     -1450.48224        25.50924
E19  26982199.91225   -239448.52225      2375.78025        29.60725  26982039.52325   -177043.67525      1771.32625        32.05925
E27  23309001.51426     -4534.85226        29.05826        35.55026  23308839.92625     -3919.20725        22.50325        29.77625
E30  25376664.40124    246160.38024     -2362.78824        29.36624  25376477.63025    186410.42825     -1769.20125        30.22725
> 2023 11 07 23 44 27.0002663  0 20                      
G04  23486031.35926    405854.27526     -3555.81126        40.38426  23485877.26525    305757.64525     -2655.07525        34.99525
G05  24230151.01623   -118640.74823      1114.34723        21.06123                                                                
G07  20925307.91125     -5349.58025        32.75725        31.92625                                                                
G08  21963818.66526    -23387.28326       156.80826        38.60626  21963652.88025    -17969.48825       118.39325        32.59125
G09  21098826.58627    280250.69727     -2447.21827        43.66827  21098665.89825    214808.22325     -1826.22225        31.77125
G14  22072800.41826   -288731.73726      2470.44026        35.58126  22072640.62925   -221384.01525      1844.06925        29.80425
G20  23256327.67923     96270.63423      -860.47123        21.47923                                                                
G22  23337364.57925   -345967.31725      2969.81825        35.01625                                                                
G27  23601519.20825    235407.07525     -2070.04625        29.74825  23601348.32724    180892.61424     -1551.95524        27.64624
G30  21602131.95526   -159341.43326      1358.70526        39.45826  21601967.36926   -122143.25426      1016.10826        40.80426
R02  19471865.20827    207579.29327     -1844.10627        42.08427
R13  20027911.56525    -84312.55425       697.66225        31.85125
R12  20191886.04825    251639.82625     -2189.94525        30.44325
R01  22808550.46925    533275.14925     -4590.22025        33.85825
R21  23663255.16925    -93035.68025       761.42425        30.51125
R03  20546464.97825   -277577.34825      2356.53225        35.18225
E07  24249151.56226    225915.01826     -1948.41526        40.80426  24248991.17324    169783.25924     -1454.37124        27.28124
E19  26976344.36524   -267902.99024      2368.38824        23.84124  26976180.07924   -198263.60324      1766.85824        28.40624
E27  23308482.57326     -4875.78426        23.04526        38.05526  23308325.78224     -4180.87224        17.95724        29.39524
E30  25381608.27824    274578.39924     -2365.78124        29.38424  25381438.89524    207690.09924     -1772.42024        28.30124
> 2023 11 07 23 44 39.0002647  0 19                      
G04  23493673.66825    448547.55825     -3557.85025        29.64425  23493514.47824    337622.26324     -2655.76124        26.60024
G05  24227168.98023   -131948.04723      1106.79423        20.24023                                                                
G07  20924754.49425     -5730.55825        29.80325        29.98525                                                                
G08  21962982.84325    -25250.44625       151.03225        33.57125  21962817.35824    -19352.94624       114.84124        28.53024
G09  21103935.64926    309647.88826     -2454.54226        38.03326  21103772.26225    236775.81225     -1828.92625        31.05025
G14  22066678.95626   -318348.26226      2465.28426        41.15026  22066519.16725   -243517.33525      1841.91825        30.59925
G20  23257855.42223    106669.27923      -871.04523        21.92523                                                                
G22  23330101.80726   -381590.89626      2967.35926        37.51426                                                                
G27  23605798.44624    260330.77524     -2084.18624        26.56924  23605623.06723    199539.88323     -1552.31923        21.32723
G30  21598541.64126   -175669.49226      1358.34926        38.27226  21598378.55426   -134305.27826      1013.53526        39.47026
R02  19475536.46726    229757.33626     -1852.61726        41.19926
R13  20025844.19725    -92647.18425       692.38325        30.65625
R12  20196324.77525    277990.92125     -2197.72625        29.61225
R01  22818376.76626    588385.68026     -4592.49726        37.33826
R21  23661079.57524   -102107.70124       751.93924        26.92424
R03  20540753.33224   -305849.60424      2351.17424        28.40424
E07  24253124.71126    249314.56726     -1952.26226        36.80126  24252960.42524    187259.43624     -1456.79224        27.72124
E27  23307956.43825     -5107.65625        19.22125        35.18625  23307792.75125     -4388.57925        14.54325        30.63725
E30  25386545.26024    303004.56524     -2366.69824        26.60824                                                                
> 2023 11 07 23 44 51.0002632  0 20                      
G04  23501342.05927    491247.07627     -3557.71227        41.84627  23501186.46725    369506.02125     -2658.00825        32.83525
G05  24224213.32623   -145169.83723      1102.17323        23.25323                                                                
G07  20924241.54925     -6078.95925        30.21025        32.11025                                                                
G08  21962188.99326    -27027.92826       145.26226        37.07026  21962028.60425    -20669.20325       108.25125        31.62225
G09  21109089.38227    339098.16727     -2456.28027        44.90727  21108924.49625    258768.02825     -1834.05725        33.59725
G14  22060597.66627   -347917.68427      2462.86327        42.65127  22060437.27725   -265598.91325      1839.16425        32.64925
G20  23259380.16625    117170.43425      -878.65025        30.46325                                                                
G22  23322884.60324   -417162.98524      2962.77224        28.92324                                                                
G27  23610100.76724    285323.26924     -2083.41424        26.77524  23609938.28023    218213.18923     -1560.87223        22.00023
G30  21594989.10025   -191970.94425      1359.62525        35.11325  21594825.41326   -146470.75126      1013.57226        38.64426
R02  19479259.88927    252053.11127     -1861.53127        44.58027
R13  20023853.87424   -100930.74824       688.06824        27.10324
R12  20200811.46925    304357.59125     -2204.79725        30.32025
R01  22828230.04526    643513.39326     -4595.37826        40.83526
R21  23658963.64024   -111055.03924       742.89124        27.50824
R03  20535014.40525   -334007.46125      2342.13725        34.94225
E07  24257125.44126    272749.44126     -1954.62626        40.99126  24256966.55125    204753.46725     -1459.55225        31.17725
E19  26964627.27723   -324681.69923      2368.38423        17.82523                                                                
E27  23307462.67926     -5331.61026        15.48026        38.54226  23307299.29224     -4530.72024        12.47724        29.17224
E30  25391514.92024    331462.85424     -2368.69824        27.53624  25391343.73924    250285.80224     -1773.02624        24.62524
> 2023 11 07 23 45 03.0002616  0 20                      
G04  23508993.36326    533982.67126     -3561.12426        35.67026  23508835.67223    401421.86823     -2659.71623        21.17223
G05  24221251.37724   -158342.75624      1092.57624        26.15024                                                                
G07  20923702.22225     -6389.42625        27.37825        32.43425                                                                
G08  21961392.44425    -28711.75725       135.43125        34.93325  21961227.85825    -21931.79425       101.65925        31.57925
G09  21114221.52926    368625.06226     -2463.65126        41.11726  21114058.74125    280814.13925     -1838.65225        32.02425
G14  22054498.08927   -377441.39227      2459.40927        44.57627  22054334.70226   -287649.40026      1836.02726        35.59726
G20  23260922.29924    127756.79424      -885.87524        28.81024                                                                
G22  23315632.32426   -452710.21126      2960.94126        41.09626                                                                
G27  23614413.28225    310382.29525     -2092.34225        29.52425                                                                
G30  21591409.87826   -208250.61226      1357.04326        39.03726  21591246.79127   -158613.97727      1013.04927        42.18527
R02  19482981.51327    274470.91427     -1873.50627        43.39627
R13  20021831.77425   -109159.83525       682.99425        29.94325
R12  20205290.66825    330776.46925     -2203.81425        32.57725
R01  22838075.23026    698668.25826     -4597.22826        38.98326
R21  23656862.09524   -119899.68824       732.91324        27.53224
R03  20529291.06826   -362048.84826      2332.90026        37.73326
E07  24261114.48026    296232.26526     -1958.87726        37.91026  24260951.39325    222290.87125     -1462.98425        30.76825
E19  26958724.66323   -353102.15223      2366.64023        18.39123                                                                
E27  23306948.53526     -5520.99226        12.09826        36.33126  23306785.44825     -4650.58525         9.26225        31.09325
E30  25396457.89824    359893.18824     -2371.31724        27.01024  25396288.81524    271539.63024     -1771.50024        24.72624
> 2023 11 07 23 45 15.0002601  0 20                      
G04  23516674.64526    576751.68726     -3566.99526        40.77926  23516520.25225    433355.14325     -2663.04625        33.77725
G05  24218319.70624   -171363.33424      1079.80424        27.50324                                                                
G07  20923197.07225     -6687.25525        22.96725        30.96025                                                                
G08  21960636.66826    -30295.92326       124.45426        37.52926  21960474.48025    -23088.94725        93.67025        30.80825
G09  21119399.54427    398220.09727     -2468.75227        42.62427  21119237.95625    302918.06425     -1845.45225        31.65625
G14  22048432.68827   -406912.73927      2453.81427        47.22427  22048272.59826   -309667.75026      1832.22226        40.30626
G20  23262494.71025    138438.30525      -893.83325        32.05925                                                                
G22  23308420.81626   -488215.29626      2956.94026        39.38226                                                                
G27  23618774.36324    335545.26824     -2099.67824        25.24524  23618586.39324    255755.20424     -1570.47124        26.14324
G30  21587867.83026   -224497.37126      1353.96026        39.22526  21587703.24427   -170745.58327      1008.76627        41.86527
R02  19486744.20827    297006.78227     -1884.49127        44.16827
R13  20019851.34525   -117324.86525       677.76325        30.27525
R12  20209776.46325    357219.48325     -2206.16825        31.52225
R01  22847932.40626    753858.53026     -4600.56926        39.17326
R21  23654816.61124   -128631.58224       726.31824        24.27524
R03  20523599.20826   -389985.91126      2324.01626        37.03126
E07  24265134.99726    319753.88026     -1963.42026        40.69026  24264975.80724    239862.19424     -1466.25824        26.80224
E19  26952890.70223   -381533.65923      2363.20523        19.76623  26952728.81424   -283002.88724      1761.75324        25.69324
E27  23306476.66226     -5625.68826         5.30526        36.60726  23306310.27725     -4722.58925         3.23125        30.58625
E30  25401426.95824    388401.98424     -2369.19724        29.25924  25401260.57325    292816.12425     -1777.33925        29.65225
> 2023 11 07 23 45 27.0002585  0 20                      
G04  23524337.04027    619565.27727     -3570.65627        42.27127  23524182.34725    465322.38325     -2667.02225        31.31525
G05  24215388.33525   -184291.95425      1069.48025        29.78625                                                                
G07  20922674.53425     -6931.84625        21.90125        30.38725                                                                
G08  21959876.09427    -31767.31127       117.46527        42.13727  21959711.20826    -24181.35426        88.81526        37.22026
G09  21124565.26827    427900.29327     -2477.64627        44.00227  21124401.28126    325094.25226     -1850.08226        39.64126
G14  22042357.39427   -436303.05427      2443.20927        44.64427  22042196.10525   -331615.58825      1824.86625        35.34125
G20  23264072.51825    149225.94425      -905.00025        31.00925                                                                
G22  23301192.82026   -523647.04726      2944.04526        37.78526                                                                
G27  23623091.97425    360802.53025     -2114.86125        31.43825  23622921.09225    274651.87625     -1577.39025        30.72725
G30  21584317.98824   -240692.78224      1348.00124        29.27124  21584138.71227   -182831.76727      1005.80527        41.67527
R02  19490510.50027    319688.90027     -1895.73327        41.89427
R13  20017856.82624   -125383.50424       667.39124        28.05824
R12  20214302.43025    383732.84925     -2211.37025        32.33725
R01  22857792.57926    809101.77226     -4606.40626        36.54226
R21  23652675.49325   -137236.89925       709.53725        33.76125
R03  20517949.61925   -417812.92725      2313.71425        32.63525
E07  24269141.72327    343389.01327     -1969.76427        41.92127  24268980.13526    257479.07326     -1470.57926        36.37226
E19  26947032.15823   -409912.64423      2359.59723        20.49023  26946863.07525   -304104.24725      1759.63325        32.21225
E27  23305986.20125     -5658.76225        -0.10825        33.60625  23305823.11425     -4743.91325         0.05325        35.17125
E30  25406387.02424    416917.07324     -2382.10024        27.70924  25406219.14024    314194.54024     -1778.19924        25.95724
> 2023 11 07 23 45 39.0002569  0 20                      
G04  23532018.02325    662442.12625     -3577.21725        33.24825  23531858.23424    497347.95924     -2670.87324        28.46724
G05  24212450.07025   -197102.18625      1065.00525        31.71925                                                                
G07  20922147.79825     -7147.34225        15.40225        33.62925                                                                
G08  21959143.40125    -33118.48725       107.54925        32.77725  21958973.11925    -25180.06825        78.92025        32.19425
G09  21129746.88126    457674.47126     -2485.84926        40.85826  21129582.29526    347318.66926     -1855.29926        37.04426
G14  22036288.39526   -465627.82126      2443.44526        40.18826  22036132.20326   -353512.10526      1824.73126        37.06526
G20  23265656.02126    160112.36126      -906.73126        41.36526                                                                
G22  23293977.41526   -559022.15726      2946.78026        39.16726                                                                
G27  23627451.25625    386180.23325     -2118.53925        34.81225  23627277.37626    293666.42026     -1586.59126        36.40426
G30  21580747.45927   -256846.81227      1346.37427        43.87827  21580583.77326   -194890.26526      1006.54626        37.05326
R02  19494309.17127    342509.09727     -1905.82127        43.49427
R13  20015898.88225   -133356.84725       662.34625        31.11125
R12  20218786.12625    410297.02925     -2217.24125        32.38325
R01  22867638.96327    864391.82727     -4610.42827        41.79327
R21  23650609.92325   -145725.71925       696.84725        35.14325
R03  20512274.24827   -445524.04727      2305.05027        43.53227
E07  24273162.53926    367052.77026     -1974.92526        38.66126  24272999.45225    275149.44725     -1474.52725        34.89825
E19  26941162.82125   -438202.32325      2357.86625        31.24625  26941002.73224   -325245.28724      1764.85224        24.74524
E27  23305513.72926     -5619.42226        -5.07726        37.18826  23305347.34425     -4675.05925        -3.53325        33.40525
E30  25411344.99225    445439.36925     -2385.91925        31.89925  25411176.80826    335550.68126     -1782.12526        40.63526
> 2023 11 07 23 45 51.0002553  0 20                      
G04  23539700.50425    705367.76325     -3579.02725        33.57925  23539544.61225    529404.53325     -2673.92825        31.82225
G05  24209562.46925   -209804.24725      1056.74025        30.03025                                                                
G07  20921636.05325     -7295.99225        12.05525        34.28525                                                                
G08  21958420.00226    -34348.65326        99.17526        41.04926  21958257.81426    -26089.56326        73.11826        36.34426
G09  21134944.98227    487534.91727     -2491.60727        42.14727  21134780.69626    369615.53826     -1861.39726        38.77226
G14  22030234.98626   -494891.58526      2432.49126        38.78026  22030079.09425   -375366.27225      1817.26625        34.84725
G20  23267261.11025    171088.28625      -920.39725        33.28925                                                                
G22  23286768.00627   -594351.35527      2939.15427        47.17827                                                                
G27  23631835.12124    411650.23624     -2123.31424        26.31224  23631659.74224    312740.45124     -1590.71624        28.20124
G30  21577197.61726   -272963.59026      1342.70926        36.96326  21577033.03126   -206919.02326      1001.48626        39.11926
R02  19498121.93127    365463.38227     -1920.22127        43.66727
R13  20013924.44825   -141258.17925       656.70125        31.21925
R12  20223297.10325    436935.17925     -2217.64225        29.72825
R01  22877523.12025    919737.57025     -4615.27925        30.09825
R21  23648563.54024   -154072.58824       687.82324        27.94824
R03  20506646.54426   -473122.17926      2297.77826        37.48026
E07  24277192.05026    390780.46926     -1980.61826        39.66826  24277030.76126    292870.08926     -1479.01326        37.53626
E19  26935312.67124   -466453.09224      2355.17924        24.87324  26935145.98625   -346338.63325      1757.15125        30.46725
E27  23305046.35226     -5514.86626       -11.53226        36.13026  23304884.16425     -4563.11125        -8.71825        31.19525
E30  25416309.55525    474103.00325     -2387.49025        32.31125  25416148.86625    356934.65925     -1781.69725        30.47625
> 2023 11 07 23 46 03.0002537  0 20                      
G04  23547404.57125    748358.06625     -3583.00325        35.13725  23547241.48425    561507.93625     -2675.57925        31.54125
G05  24206679.66425   -222424.53125      1045.60425        30.27425                                                                
G07  20921130.00325     -7414.23825         6.19625        34.26125                                                                
G08  21957725.68325    -35461.01525        85.00025        32.36325  21957563.79525    -26925.62225        66.71425        32.70925
G09  21140162.57027    517495.13527     -2499.57027        43.85327  21139999.48326    391985.85726     -1865.87526        40.65026
G14  22024204.36127   -524061.18627      2428.44127        43.79027  22024043.07225   -397153.83625      1813.93325        34.94925
G20  23268888.68426    182173.56126      -927.56726        36.01626                                                                
G22  23279585.27825   -629596.52725      2938.10525        34.77925                                                                
G27  23636226.18125    437240.97425     -2136.16225        32.19125  23636052.90125    331861.72425     -1597.79925        32.73525
G30  21573654.07027   -289042.21827      1337.64927        43.36327  21573492.18227   -218927.20427       999.20227        42.87227
R02  19501969.16827    388575.14827     -1931.25427        42.50427
R13  20011963.20625   -149068.72725       647.17625        30.10525
R12  20227787.99425    463601.54325     -2225.19425        31.95825
R01  22887400.98226    975137.89826     -4620.37826        36.05026
R21  23646695.53325   -162295.41725       681.56625        30.11725
R03  20501018.54026   -500615.91626      2284.97326        40.02126
E07  24281238.64826    414611.36226     -1985.61526        41.23726  24281078.55926    310645.53626     -1482.81126        38.60326
E19  26929468.51723   -494676.31423      2352.95223        21.93323  26929294.63724   -367429.08124      1755.21824        26.74124
E27  23304598.76226     -5336.58826       -17.77226        37.12926  23304433.57625     -4417.77725       -12.92525        32.80425
E30  25421302.29924    502735.40324     -2388.81624        28.06024  25421124.22225    378376.15425     -1785.70225        33.87325
> 2023 11 07 23 46 15.0002521  0 20                      
G04  23555100.54326    791387.11026     -3583.38726        37.32726  23554946.45025    593636.84125     -2677.05525        31.78325
G05  24203818.74525   -234928.99425      1036.54225        31.58225                                                                
G07  20920637.74425     -7507.04125         7.29625        34.33525                                                                
G08  21957055.04726    -36471.94826        79.80626        39.05526  21956889.86125    -27687.74625        60.45525        35.19025
G09  21145392.74927    547515.61527     -2502.45227        44.18127  21145227.86326    414404.85226     -1868.92326        39.25626
G14  22018171.63726   -553198.67926      2426.68626        39.80026  22018016.94426   -418913.26226      1812.31626        39.10926
G20  23270533.34526    193338.23626      -933.67826        36.44826                                                                
G22  23272395.05626   -664820.22626      2933.36126        39.54626                                                                
G27  23640645.42224    462907.68924     -2140.44524        28.33724  23640470.04324    351070.79224     -1605.33024        25.30224
G30  21570121.01626   -305089.78526      1336.11826        36.85226  21569954.93126   -230908.47626       997.27526        39.32526
R02  19505837.98927    411798.04727     -1939.25527        44.66727
R13  20010038.23924   -156815.66324       645.35924        29.10224
R12  20232338.24425    490304.65625     -2230.99025        32.12625
R01  22897289.63626   1030558.73326     -4617.18626        36.88526
R21  23644677.63024   -170419.03524       671.36024        28.55324
R03  20495431.90826   -527990.60526      2278.38026        38.09726
E07  24285293.64126    438460.39726     -1988.20926        40.93126  24285132.35326    328476.47126     -1484.44626        36.02226
E19  26923609.37324   -522924.01124      2347.89724        29.09224  26923445.98625   -388484.14925      1753.17025        33.68525
E27  23304157.46725     -5107.52625       -21.10625        35.16625  23303995.58025     -4246.83925       -14.98825        33.41425
E30  25426271.05925    531425.26025     -2392.02425        30.00225  25426107.97225    399830.98325     -1787.73525        30.28925
> 2023 11 07 23 46 27.0002505  0 20                      
G04  23562812.10526    834447.56026     -3592.45626        37.65826  23562658.61125    625792.09725     -2681.36825        30.82925
G05  24200982.10925   -247341.98025      1033.25825        30.03125                                                                
G07  20920142.48725     -7533.19325         4.77125        33.93925                                                                
G08  21956404.49726    -37373.25026        69.15626        37.42926  21956237.21325    -28359.58425        52.53425        34.02125
G09  21150635.82027    577611.81427     -2511.69327        42.94227  21150471.83326    436876.17826     -1874.09926        38.68726
G14  22012155.10226   -582275.85326      2422.12626        41.47126  22011999.21026   -440623.14726      1807.68126        37.12426
G20  23272187.60025    204593.40225      -939.84325        34.70625                                                                
G22  23265216.82626   -699987.47026      2931.79626        38.41226                                                                
G27  23645077.25425    488667.74025     -2152.37325        31.79225  23644902.77424    370364.80224     -1610.16324        27.85824
G30  21566588.26226   -321111.46026      1331.84026        39.65826  21566426.07426   -242858.82826       995.59726        40.71526
R02  19509737.39027    435147.94627     -1950.18927        42.90227
R13  20008120.46625   -164483.31125       635.80825        29.86225
R12  20236874.10425    517086.35625     -2232.71325        32.49325
R01  22907166.59926   1086009.78826     -4623.23226        39.42626
R21  23642692.10526   -178473.78526       668.59326        37.36826
R03  20489851.27126   -555258.29726      2269.10726        40.61726
E07  24289359.42626    462358.21126     -1994.37026        41.14626  24289196.93926    346320.54526     -1488.25026        36.57126
E19  26917756.82525   -551111.42425      2345.73425        30.84025  26917605.13025   -409506.48425      1751.77125        34.47425
E27  23303729.66426     -4818.76326       -26.93426        37.14026  23303567.17626     -4004.24926       -20.02026        36.29026
E30  25431260.80424    560154.59424     -2395.51624        28.19224  25431097.41825    421308.21025     -1789.96025        32.29425
> 2023 11 07 23 46 39.0002489  0 20                      
G04  23570530.56125    877545.22225     -3596.62425        33.94025  23570376.16825    657983.68525     -2682.97025        30.50525
G05  24198147.27125   -259646.84325      1020.54625        33.12525                                                                
G07  20919662.51925     -7536.36925        -0.37225        35.05825                                                                
G08  21955769.83725    -38167.10125        63.67625        33.49725  21955603.15226    -28936.82526        46.93226        37.63026
G09  21155893.58026    607783.91326     -2519.38526        41.47626  21155729.59326    459410.60826     -1879.01426        38.95326
G14  22006151.45827   -611291.56427      2414.97827        41.97827  22005993.46825   -462295.43925      1805.26625        33.41025
G20  23273863.44025    215933.73625      -949.85325        31.09925                                                                
G22  23258054.48426   -735107.67226      2924.95826        40.29926                                                                
G27  23649542.66225    514518.03625     -2158.83225        30.85825  23649356.19124    389719.31524     -1614.06024        27.56924
G30  21563064.20126   -337086.51326      1332.65226        40.00426  21562905.01126   -254781.36126       994.36026        38.69026
R02  19513655.37727    458628.42527     -1962.49927        41.84727
R13  20006223.97925   -172083.54525       627.48125        31.70625
R12  20241409.66425    543910.21425     -2239.74525        33.00725
R01  22917054.05426   1141497.31326     -4627.38926        35.77526
R21  23640750.04926   -186414.38026       655.26426        37.92526
R03  20484294.31827   -582409.39627      2259.18927        42.34227
E07  24293431.50726    486312.20626     -1997.79526        37.89326  24293271.11826    364207.05526     -1491.32426        36.67726
E19  26911931.85725   -579274.85125      2342.47825        31.71825  26911768.47025   -430523.53425      1751.02825        32.07325
E27  23303316.55026     -4480.22526       -30.93126        36.51726  23303150.46525     -3745.15725       -22.96425        29.93925
E30  25436264.04124    588903.32024     -2397.54024        29.40724  25436092.85925    442805.19725     -1792.39525        33.65625
> 2023 11 07 23 46 51.0002473  0 20                      
G04  23578264.60726    920702.63726     -3596.90326        39.64226  23578107.51624    690226.31924     -2684.66024        27.58724
G05  24195343.61225   -271865.34025      1013.41425        34.13825                                                                
G07  20919187.94825     -7521.99425        -1.75325        34.73025                                                                
G08  21955158.26025    -38861.12025        56.19525        34.28525  21954988.87725    -29448.12025        39.75525        32.30625
G09  21161169.02826    638050.70926     -2523.39326        40.19626  21161005.04126    482021.13326     -1883.59626        38.70726
G14  22000163.70427   -640220.21827      2412.30227        41.92727  22000004.81426   -483901.14926      1800.20126        38.02426
G20  23275554.26925    227370.25825      -953.67525        31.42625                                                                
G22  23250902.63526   -770143.38926      2919.29426        38.73826                                                                
G27  23653990.08325    540494.70225     -2166.37825        30.14025  23653818.30224    409114.95024     -1621.77824        29.08624
G30  21559552.43226   -353029.03726      1326.15826        39.55626  21559387.24726   -266682.29526       990.83726        41.26026
R02  19517591.35327    482255.54727     -1974.20127        41.88727
R13  20004334.98725   -179600.04825       622.53625        29.80625
R12  20245972.50525    570773.32525     -2242.25725        34.43825
R01  22926978.68325   1197047.90425     -4628.95925        32.41025
R21  23638791.80525   -194192.30525       644.76025        34.49925
R03  20478761.64826   -609460.59026      2249.57126        40.25926
E07  24297516.77926    510316.21926     -2001.66326        37.61226  24297359.38826    382149.52226     -1494.22926        36.09226
E19  26906095.19824   -607395.74624      2341.67524        26.73224  26905934.20924   -451524.97024      1747.88824        29.11724
E27  23302910.03126     -4118.54026       -36.64826        36.31226  23302746.94425     -3416.01425       -27.14125        34.34525
E30  25441269.37625    617696.91225     -2397.69425        29.51825  25441088.00125    464303.31125     -1793.21825        32.75925
> 2023 11 07 23 47 03.0002457  0 20                      
G04  23585995.35526    963880.45426     -3597.08026        35.55626  23585841.26225    722478.06625     -2687.98025        31.97725
G05  24192560.03925   -283993.91025      1007.59825        32.67525                                                                
G07  20918716.67425     -7475.64425        -5.54925        32.42525                                                                
G08  21954558.97525    -39456.72325        45.54625        32.25825  21954395.88825    -29880.02325        32.70825        33.70625
G09  21166455.56826    668372.84226     -2529.70726        39.36926  21166292.48126    504664.25526     -1890.02826        39.79026
G14  21994179.54626   -669120.75726      2407.01726        39.62926  21994020.35726   -505480.77926      1795.51126        37.55226
G20  23277265.48426    238875.83926      -966.39826        35.79826                                                                
G22  23243753.48427   -805159.07027      2916.21227        44.50727                                                                
G27  23658489.36925    566540.40325     -2174.39225        31.97225  23658306.49524    428615.99024     -1628.53924        26.86724
G30  21556043.96126   -368932.27726      1318.38626        35.70326  21555878.77626   -278562.18226       986.50326        36.65926
R02  19521548.61326    505987.78426     -1982.60426        37.35326
R13  20002451.09124   -187042.95824       618.37024        29.10124
R12  20250522.15525    597693.99125     -2245.27825        33.81625
R01  22936904.81125   1252601.63125     -4630.63625        29.99425
R21  23636882.42725   -201886.10725       634.42225        33.06825
R03  20473249.36426   -636394.61026      2238.29726        39.26926
E07  24301614.64226    534390.47226     -2006.96326        38.22226  24301455.15326    400116.61226     -1498.76126        37.44726
E19  26900270.83024   -635454.46324      2339.34324        25.61724  26900103.84624   -472447.50024      1744.44224        25.61524
E27  23302514.00526     -3647.97126       -42.42226        36.40326  23302351.81826     -3071.75226       -32.24826        36.50626
E30  25446287.00225    646478.12425     -2401.59225        29.53225  25446095.13525    485848.01325     -1796.90725        31.81225
> 2023 11 07 23 47 15.0002440  0 20                      
G04  23593698.52226   1007069.57526     -3604.23926        38.56826  23593550.12523    754736.73823     -2693.00323        23.37323
G05  24189788.75824   -296019.53324       996.74724        25.64224                                                                
G07  20918215.12126     -7376.12626       -10.88226        38.08926                                                                
G08  21953942.60227    -39985.19327        38.05527        41.97527  21953781.31325    -30269.87425        28.96025        34.76925
G09  21171724.72026    698754.48026     -2538.04026        40.25226  21171561.33325    527356.87525     -1895.68725        30.23825
G14  21988194.19025   -697921.41425      2393.89425        35.46825  21988026.60626   -526976.92626      1790.07926        36.70326
G20  23278985.09424    250494.15324      -972.58524        28.07324                                                                
G22  23236601.93525   -840085.84525      2905.69425        30.36325                                                                
G27  23662951.77926    592687.57026     -2182.24726        37.09426  23662767.40725    448149.72825     -1628.56625        33.13225
G30  21552533.69125   -384820.36225      1323.23225        30.86625  21552348.42026   -290392.07426       987.17626        40.26926
R02  19525519.36426    529863.09726     -1997.43726        39.09626
R13  20000561.79924   -194429.20524       613.98924        23.87524
R12  20255057.11626    624661.85626     -2248.74926        40.68426
R01  22946788.66925   1308199.67825     -4639.61125        31.34925
R21  23634936.17425   -209430.05225       624.53825        30.02825
R03  20467738.87925   -663239.09525      2233.70725        33.96225
E07  24305686.42326    558486.87526     -2012.96726        38.18326  24305527.83325    418109.85725     -1502.71125        32.62225
E19  26894426.07623   -663588.37723      2339.22923        22.77223  26894260.29124   -493378.38324      1743.81724        24.68224
E27  23302102.39026     -3107.21326       -47.35726        36.73426  23301941.40225     -2662.22725       -35.20925        30.29625
E30  25451232.67826    675271.50826     -2404.09726        36.87526  25451069.59126    507383.46326     -1794.54526        37.27326
> 2023 11 07 23 47 27.0002424  0 20                      
G04  23601448.75726   1050312.71026     -3604.84126        39.99626  23601291.96624    787038.03124     -2691.60024        28.62624
G05  24187039.36124   -307982.32824       991.35324        28.66324                                                                
G07  20917766.63126     -7241.24826       -14.53626        36.78526                                                                
G08  21953380.79126    -40407.37726        29.51526        37.53026  21953216.50425    -30592.61025        23.21425        34.17725
G09  21177038.84127    729224.14927     -2542.68127        44.62227  21176876.35425    550111.23125     -1897.70525        32.10125
G14  21982243.01025   -726651.88825      2396.98725        32.31725  21982079.62324   -548424.68524      1784.26324        29.30924
G20  23280731.08525    262220.79025      -980.84425        31.81125                                                                
G22  23229492.35724   -874964.93324      2901.48524        27.54724                                                                
G27  23667457.66024    618929.61224     -2192.36724        29.06924  23667279.58324    467737.21724     -1634.88324        26.58624
G30  21549038.11125   -400675.96525      1319.69725        31.48925  21548857.63626   -302194.72926       982.09826        41.47826
R02  19529531.18726    553880.56426     -2005.53826        38.07326
R13  19998727.66924   -201714.90424       608.02324        24.20224
R12  20259642.74126    651686.60526     -2253.07326        38.00626
R01  22956695.61026   1363849.25926     -4636.24626        37.06726
R21  23633085.25625   -216849.23125       612.89425        31.66725
R03  20462267.96725   -689972.62025      2221.49225        34.99325
E07  24309802.57427    582636.95727     -2015.33627        42.47727  24309641.88525    436162.08825     -1504.25125        30.63025
E19  26888615.49923   -691689.06023      2336.00823        23.07923  26888446.11624   -514283.15524      1741.67424        29.38324
E27  23301736.04426     -2513.77526       -52.42826        36.41926  23301572.35725     -2214.93725       -38.68625        34.75125
E30  25456243.40925    704137.14925     -2407.57425        31.58425  25456077.62424    528929.62924     -1796.62324        27.83624
> 2023 11 07 23 47 39.0002408  0 20                      
G04  23609194.79526   1093584.62926     -3607.81026        36.94326  23609041.60124    819352.23324     -2693.10024        26.19624
G05  24184311.25024   -319824.80324       980.91024        28.99424                                                                
G07  20917309.44825     -7101.45425       -13.55025        33.14125                                                                
G08  21952832.47026    -40736.73226        26.26226        37.53626  21952669.38326    -30843.02726        18.17326        39.37326
G09  21182364.05526    759763.87126     -2549.55026        39.85526  21182202.76625    572904.86625     -1902.70525        35.37725
G14  21976306.52025   -755319.61125      2386.26625        31.71725  21976142.83325   -569836.25225      1781.75125        31.59225
G20  23282495.36425    274027.60925      -988.27225        29.52325                                                                
G22  23222393.27224   -909771.97524      2901.72524        26.58824                                                                
G27  23671977.33125    645258.21525     -2193.38425        32.77625  23671800.15425    487361.79225     -1638.28325        32.20125
G30  21545549.12725   -416493.79925      1321.33725        31.16025  21545373.44827   -313978.08927       981.95527        41.60527
R02  19533575.98726    578017.91926     -2017.06326        36.88226
R13  19996887.84324   -208952.83724       599.46624        23.73324
R12  20264207.08126    678732.61126     -2255.92826        37.98926
R01  22966626.23625   1419516.08425     -4643.33625        33.29825
R21  23631205.85726   -224168.68426       606.91426        37.60826
R03  20456829.43225   -716618.12725      2215.32225        32.95325
E07  24313926.51926    606843.04726     -2020.10526        38.02526  24313764.63125    454145.30525     -1507.88625        33.51425
E19  26882801.62424   -719701.00924      2332.86424        24.34824  26882635.83824   -535198.19724      1740.78524        26.46424
E27  23301378.09226     -1894.97626       -56.36026        36.77926  23301214.70525     -1729.66625       -41.76825        31.82825
E30  25461253.24125    733030.16925     -2407.77625        31.64725  25461086.85625    550472.08725     -1795.88625        31.19025
> 2023 11 07 23 47 51.0002391  0 20                      
G04  23616947.72724   1136943.34724     -3618.35924        26.86924  23616780.44324    851726.04124     -2702.59224        25.83724
G05  24181543.56626   -331589.34926       979.22326        37.07026                                                                
G07  20916827.08225     -6941.84725       -13.79125        34.99025                                                                
G08  21952280.85226    -40971.86326        12.95326        35.81326  21952114.76725    -31002.75025        10.28925        31.27125
G09  21187688.96826    790405.39526     -2558.72626        40.05726  21187521.08426    595792.50926     -1911.07126        39.66126
G14  21970369.13025   -783937.66725      2383.90325        30.82125  21970192.55226   -591172.55926      1776.85626        35.85726
G20  23284260.84224    285881.24724      -992.10624        29.11424                                                                
G22  23215263.00825   -944507.61125      2897.59125        30.44925                                                                
G27  23676463.42526    671637.30526     -2200.13526        41.20526  23676303.93625    507042.75425     -1643.06325        35.13025
G30  21542026.86525   -432304.88325      1315.96025        34.67425  21541859.28125   -325754.93725       982.30625        30.12625
R02  19537623.48525    602298.74725     -2028.58525        35.34825
R13  19995032.42724   -216111.63524       594.73324        24.71024
R12  20268765.12626    705794.64926     -2254.75126        41.31926
R01  22976545.16924   1475258.64224     -4650.18724        25.43724
R21  23629340.54824   -231410.10524       599.87924        26.18724
R03  20451328.84026   -743171.84426      2209.92526        37.96126
E07  24318038.77226    631140.89326     -2028.21926        36.17326  24317875.38526    472228.10226     -1514.79726        37.52126
E19  26876956.57024   -747736.71724      2338.06724        28.08024                                                                
E27  23301000.35325     -1232.11725       -62.07725        34.94225  23300835.46725     -1164.73025       -46.27425        33.02325
E30  25466226.19827    761887.83227     -2405.87827        42.15127  25466064.91025    572028.97425     -1796.33725        33.47025
> 2023 11 07 23 48 03.0002375  0 20                      
G04  23624724.64324   1180362.37424     -3619.51824        28.79824  23624563.65523    884129.40723     -2702.37423        21.07923
G05  24178839.73825   -343261.96125       968.85025        33.96625                                                                
G07  20916374.39526     -6745.77926       -20.02026        41.27926                                                                
G08  21951776.30126    -41074.74026         1.37326        38.10426  21951609.91725    -31067.10725         2.33625        34.92425
G09  21193031.27026    821137.89126     -2562.03126        37.59826  21192887.07024    618736.84524     -1912.50524        27.35724
G14  21964450.62726   -812484.68426      2377.48626        38.85626  21964286.64124   -612470.71324      1775.57424        23.98524
G20  23286054.20025    297841.37925     -1002.91125        30.96825                                                                
G22  23208178.01325   -979228.84525      2892.16725        30.53325                                                                
G27  23681016.37426    698103.12326     -2212.97226        36.60326  23680857.48325    526813.33925     -1653.05025        35.21025
G30  21538542.37725   -448079.50025      1311.54825        35.49525  21538375.09324   -337519.39224       980.63424        29.02324
R02  19541718.65027    626702.82427     -2037.82627        43.96127
R13  19993229.47524   -223210.68724       587.10924        29.44324
R12  20273351.35127    732894.43127     -2262.90827        45.51527
R01  22986528.85724   1531053.05624     -4649.49024        26.46824
R21  23627549.88824   -238517.28224       581.68624        26.53324
R03  20445917.28625   -769614.61425      2195.95825        33.10925
E07  24322192.09725    655526.72625     -2034.38225        31.54825  24322030.20925    490388.73725     -1516.60625        33.07025
E19  26871136.10025   -775794.98025      2333.37425        31.90025  26870974.51124   -577058.41024      1743.00424        24.34924
E27  23300660.08926      -449.93226       -65.12726        36.60826  23300500.89924      -563.91524       -49.51324        25.09824
E30  25471234.53127    790783.04727     -2413.34427        42.91927  25471079.53926    593606.78626     -1801.68126        37.83126
> 2023 11 07 23 48 15.0002358  0 20                      
G04  23632485.97024   1223795.28024     -3621.72324        27.86924                                                                
G05  24176122.41926   -354858.93426       960.93226        39.11326                                                                
G07  20915902.22226     -6515.88126       -17.67726        37.47126                                                                
G08  21951265.45526    -41068.15026        -3.27726        40.20626  21951099.97025    -31058.42525        -2.70225        31.38725
G09  21198402.95126    851927.73826     -2567.76726        38.48326  21198236.26625    641687.38825     -1918.58525        31.48325
G14  21958524.03024   -840998.30324      2374.49924        27.57724  21958352.84923   -633748.78523      1771.70123        22.67023
G20  23287850.25725    309893.62925     -1008.19825        30.20125                                                                
G22  23201090.02024  -1013907.85824      2892.52224        27.13324                                                                
G27  23685573.21925    724686.47225     -2214.99225        29.78325  23685399.63923    546652.62923     -1657.12323        21.54523
G30  21535030.60926   -463812.45626      1310.36926        36.40126  21534865.72326   -349299.49626       977.78126        36.16526
R02  19545803.02225    651221.48025     -2047.68625        34.84325
R13  19991409.13523   -230227.31823       582.47423        21.04023
R12  20277926.78327    760047.57627     -2263.29027        45.33727
R01  22996487.96323   1586879.40023     -4653.47523        21.39323
R21  23625687.87724   -245476.71024       580.87024        28.60324
R03  20440491.64226   -795949.46326      2189.03526        38.92826
E07  24326319.34025    679912.33225     -2035.06425        34.59325  24326162.24824    508647.06124     -1521.02424        28.68424
E19  26865296.44224   -803800.39524      2334.75324        24.38224  26865130.35723   -597970.64323      1741.20723        22.46723
E27  23300304.53525       354.47525       -68.66125        34.70425  23300140.84824        43.54024       -52.78224        29.43524
E30  25476232.07226    819746.74526     -2410.70026        39.91426  25476072.88224    615222.40624     -1802.18324        24.19324
> 2023 11 07 23 48 27.0002342  0 20                      
G04  23640286.27023   1267276.12123     -3625.33523        22.82823                                                                
G05  24173448.57026   -366367.65526       954.88326        37.80626                                                                
G07  20915467.22326     -6264.80226       -21.61026        40.15926                                                                
G08  21950795.68025    -40958.61725       -11.88825        33.51225  21950634.09224    -30995.92724        -7.49324        26.49224
G09  21203792.32026    882799.85926     -2572.69126        39.58026  21203626.83526    664716.73926     -1922.96726        38.17526
G14  21952634.60725   -869421.00925      2370.73425        31.41825  21952458.62925   -654974.39225      1766.49825        35.37225
G20  23289666.69924    322014.46124     -1009.49224        29.38824                                                                
G22  23194029.60724  -1048530.90124      2889.11224        27.25624                                                                
G27  23690143.55525    751332.80025     -2220.85825        34.99725  23689984.36524    566552.12024     -1660.18024        26.87724
G30  21531555.41427   -479519.02727      1308.52827        42.44827  21531392.62726   -361036.46626       976.86426        40.06626
R02  19549940.45825    675867.46825     -2055.89325        35.00125
R13  19989626.27025   -237163.73925       575.43725        29.87025
R12  20282529.49727    787218.21027     -2266.42227        44.83127
R01  23006483.34323   1642718.43723     -4650.77123        20.99723
R21  23623925.09725   -252376.41125       572.05425        31.20225
R03  20435106.47026   -822173.10026      2184.21626        38.47026
E07  24330495.14926    704366.27726     -2040.02226        35.82126  24330332.36126    526941.07226     -1523.66426        36.46426
E19  26859478.97025   -831840.91725      2332.76225        35.20525  26859320.67924   -618877.32324      1740.26824        28.25324
E27  23299983.45725      1213.58325       -69.77225        35.03825  23299822.76825       658.57225       -55.51625        30.34425
E30  25481255.69425    848676.77325     -2407.67725        33.13725  25481097.10424    636832.26924     -1800.03524        29.21824
> 2023 11 07 23 48 39.0002325  0 20                      
G04  23648079.37524   1310764.87724     -3627.76224        24.87624  23647882.41224    981537.39724     -2710.71024        25.90024
G05  24170765.72726   -377791.72526       949.28826        36.22726                                                                
G07  20915005.24326     -5990.33426       -21.61426        38.51026                                                                
G08  21950315.41325    -40756.69625       -20.04525        35.27425  21950158.02224    -30866.27824       -13.80324        25.88124
G09  21209180.19025    913720.72325     -2578.84425        32.73925  21209006.01125    687822.48825     -1927.68425        29.86625
G14  21946723.30025   -897826.74625      2364.89325        32.15825  21946550.02025   -676155.93925      1763.76425        32.32225
G20  23291464.85425    334175.37625     -1021.19025        30.39125                                                                
G22  23186943.11324  -1083165.34224      2881.97824        28.00624                                                                
G27  23694715.69025    778062.56925     -2231.95225        30.87525  23694554.10224    586514.09824     -1666.25824        26.12124
G30  21528060.73426   -495210.06426      1305.92626        36.61126  21527896.44724   -372735.33324       975.66824        26.73624
R02  19554087.48725    700622.92225     -2066.10725        33.57125
R13  19987838.30724   -244061.87924       564.55624        26.89124
R12  20287108.22727    814430.42427     -2269.12527        42.09827
R01  23016407.07322   1698549.62122     -4656.01222        16.50322
R21  23622136.23525   -259179.11225       561.07225        34.00025
R03  20429719.79926   -848297.61826      2174.71226        36.35826
E07  24334657.46724    728809.10024     -2041.34924        27.83824  24334485.68624    545226.22124     -1526.08024        29.39624
E19  26853645.30824   -859825.94524      2330.35824        29.34024  26853485.51924   -639760.59524      1741.51924        27.51124
E27  23299653.38625      2156.35625       -79.73525        32.20425  23299484.90224      1344.30524       -58.14724        27.45324
E30  25486254.13326    877642.48826     -2413.84126        39.41326  25486093.14525    658475.39025     -1802.93225        30.92025
> 2023 11 07 23 48 51.0002309  0 20                      
G04  23655871.58124   1354277.16424     -3633.36924        24.05224  23655695.60323   1014066.35723     -2711.81923        22.77723
G05  24168121.85725   -389103.19625       939.11625        34.72725                                                                
G07  20914590.33026     -5677.47126       -26.63726        37.61126                                                                
G08  21949897.80226    -40452.62226       -31.97026        35.89926  21949731.71725    -30617.17525       -21.16125        32.41425
G09  21214600.13825    944725.68025     -2586.74325        33.23625  21214427.15825    710982.92225     -1933.18025        33.49425
G14  21940865.35525   -926186.42325      2362.75125        30.03225  21940682.48225   -697287.98825      1758.24225        29.59125
G20  23293319.37125    346458.10425     -1028.15125        34.29925                                                                
G22  23179903.98624  -1117715.37624      2877.62224        26.53724                                                                
G27  23699334.59226    804888.61126     -2239.27926        36.90026  23699171.80525    606534.97425     -1670.29625        34.76425
G30  21524610.12225   -510862.36225      1303.58225        34.52625  21524436.24324   -384434.89124       974.34524        29.37924
R02  19558259.39925    725490.64025     -2080.05125        34.40425
R13  19986056.04124   -250872.01824       567.81924        23.97824
R12  20291730.12827    841697.38727     -2272.15927        42.43227
R01  23026395.85823   1754386.54623     -4655.22623        21.50223
R21  23620407.33225   -265854.57525       550.66825        34.03025
R03  20424387.09125   -874311.83225      2164.46925        31.60425
E07  24338845.86824    753339.89724     -2045.82424        28.31224  24338677.68425    563576.88025     -1530.86225        31.55425
E19  26847841.92624   -887737.96324      2328.44524        29.11224                                                                
E27  23299354.79225      3191.99725       -84.62325        35.06625  23299189.90626      2079.81926       -61.39726        36.95426
E30  25491286.45025    906607.42925     -2412.15525        32.91125  25491132.35624    680086.37224     -1806.09524        25.49524
> 2023 11 07 23 49 03.0002292  0 20                      
G04  23663657.19124   1397852.76424     -3630.38924        25.98724  23663483.61124   1046636.64024     -2715.12524        27.91624
G05  24165473.19126   -400328.79526       928.72126        37.17826                                                                
G07  20914137.64426     -5330.25426       -32.02126        41.30826                                                                
G08  21949458.90626    -40051.94126       -39.08726        38.80226  21949294.02026    -30331.42426       -28.05326        37.91226
G09  21220006.89525    975799.80625     -2594.18725        32.94225  21219833.31525    734211.95225     -1937.04225        34.56725
G14  21934966.93825   -954489.74225      2354.22125        29.79925  21934798.15524   -718385.31924      1757.18224        24.48424
G20  23295177.18424    358829.94624     -1039.99024        27.37824                                                                
G22  23172842.07524  -1152252.70324      2874.22924        28.02024                                                                
G27  23703937.00626    831786.83926     -2244.21926        40.03326  23703776.01726    626628.95026     -1675.67526        37.74926
G30  21521114.54226   -526495.06226      1299.49526        35.99326  21520952.05524   -396096.83424       970.51324        28.27324
R02  19562434.30925    750487.16325     -2090.92225        32.68325
R13  19984296.26024   -257615.09224       556.85924        28.12824
R12  20296323.24827    868999.74527     -2277.16527        45.27027
R01  23036365.45623   1810249.56323     -4658.46523        22.54923
R21  23618667.93625   -272416.94525       542.96025        32.12925
R03  20419017.80826   -900225.01026      2154.24526        37.72726
E07  24343014.48225    777951.94425     -2051.10925        31.89225  24342850.49525    581955.80625     -1534.21225        32.12525
E19  26842016.05925   -915654.27625      2326.39225        31.12525  26841854.77123   -681504.54323      1737.87023        23.35623
E27  23299039.41125      4252.89225       -88.81225        33.45725  23298875.42425      2817.89225       -67.02725        30.75525
E30  25496298.08027    935644.21527     -2418.89027        42.87127  25496134.39325    701770.15825     -1807.38625        30.12625
> 2023 11 07 23 49 15.0002276  0 20                      
G04  23671487.47024   1441474.90424     -3632.30924        26.39824  23671306.39624   1079238.53224     -2718.60924        25.80224
G05  24162872.19226   -411462.90926       925.08526        40.63426                                                                
G07  20913720.93226     -4952.10226       -32.70826        38.52026                                                                
G08  21949070.07526    -39541.42526       -46.75326        40.41726  21948907.88726    -29939.96026       -35.22626        36.36226
G09  21225452.32525   1006945.09925     -2600.23425        35.49525  21225279.94426    757488.87126     -1942.50226        40.00126
G14  21929134.17624   -982738.52224      2352.11224        27.98624  21928950.70324   -739440.00024      1751.88824        26.52724
G20  23297056.58325    371296.54625     -1040.69925        33.28025                                                                
G22  23165820.63625  -1186743.26125      2874.31725        34.38525                                                                
G27  23708590.08525    858795.40425     -2249.81525        30.97325  23708429.09625    646786.16525     -1682.40925        29.89225
G30  21517663.03227   -542086.92827      1298.78727        41.51827  21517499.04526   -407741.14526       970.08926        38.57226
R02  19566671.27525    775625.93525     -2104.69025        35.20625
R13  19982540.67524   -264324.99424       553.39024        28.65724
R12  20300975.42726    896357.30726     -2280.50326        38.12526
R01  23046334.15523   1866157.12823     -4662.12423        21.81223
R21  23616985.80124   -278833.28624       532.30924        29.47224
R03  20413707.88427   -926039.35127      2148.10127        44.68427
E07  24347228.06525    802611.87225     -2056.78125        31.38225  24347061.68026    600378.35326     -1537.53226        37.56826
E19  26836220.77125   -943572.69925      2327.53725        29.95025  26836060.98223   -702348.01523      1736.35423        22.84723
E27  23298761.20326      5360.49326       -93.33926        36.28726  23298599.01625      3632.37025       -69.83725        30.50725
E30  25501340.88926    964692.70426     -2421.41726        35.55726  25501179.00125    723457.35525     -1808.24025        31.35225
> 2023 11 07 23 49 27.0002259  0 20                      
G04  23679250.89626   1485118.50326     -3636.83326        41.06826  23679098.30126   1111837.47426     -2714.63826        37.48726
G05  24160269.09424   -422517.08724       914.45124        25.84224                                                                
G07  20913295.82725     -4540.32825       -35.60725        34.50325                                                                
G08  21948675.24825    -38944.99025       -56.57125        35.00125  21948511.26224    -29478.30824       -38.81024        28.41324
G09  21230871.67327   1038157.42127     -2601.84627        44.62527  21230708.88626    780802.30226     -1942.51526        40.79926
G14  21923246.55226  -1010923.53126      2342.81926        37.23726  21923081.36726   -760447.75126      1750.26626        36.57326
G20  23298942.27825    383823.22525     -1055.23325        31.45125                                                                
G22  23158742.23625  -1221162.57425      2861.68225        35.07225                                                                
G27  23713236.56824    885887.36824     -2261.01124        29.15624                                                                
G30  21514204.02625   -557653.72025      1301.48825        29.61025  21514030.74624   -419359.68424       966.44624        28.35224
R02  19570883.95926    800885.88226     -2111.89426        37.37926
R13  19980799.18123   -270936.70323       549.86923        23.00123
R12  20305553.55826    923752.19926     -2283.91226        36.94726
R01  23056266.87924   1922098.74924     -4662.63824        26.50424
R21  23615291.67424   -285135.19024       520.42824        25.92524
R03  20408433.03625   -951745.85125      2139.58825        32.34025
E07  24351412.56826    827253.54926     -2057.83726        40.94626  24351249.48126    618823.94626     -1536.12026        38.03226
E19  26830416.18923   -971481.77023      2320.39423        21.14723                                                                
E27  23298474.00225      6513.31125       -95.73825        30.93325  23298305.21925      4505.57725       -71.67325        29.67925
E30  25506363.91225    993794.97225     -2428.29025        31.02625  25506197.52724    745163.42224     -1811.86424        26.28724
> 2023 11 07 23 49 39.0002242  0 20                      
G04  23687046.39927   1528748.79227     -3637.25327        46.16227  23686888.10926   1144419.70226     -2715.98526        39.84226
G05  24157709.76624   -433485.43424       913.50124        24.68924                                                                
G07  20912875.51825     -4088.37925       -40.62825        32.99325                                                                
G08  21948292.11425    -38240.80325       -62.39825        32.12525  21948125.42925    -28977.81325       -46.00125        30.37925
G09  21236302.71427   1069410.24927     -2608.97027        42.29627  21236141.72526    804129.45326     -1947.08426        37.34326
G14  21917381.41326  -1039038.61526      2343.32526        35.75626  21917223.42226   -781431.94326      1747.87126        41.13026
G20  23300846.56024    396441.65924     -1055.61424        27.75524                                                                
G22  23151697.71325  -1255509.72525      2859.56925        31.47325                                                                
G27  23717895.64324    913079.52824     -2269.35824        28.52024                                                                
G30  21510744.12225   -573192.52525      1291.87525        29.79725  21510569.94225   -430955.66125       963.99725        32.60825
R02  19575123.62426    826267.81526     -2117.68926        35.69626
R13  19979103.85423   -277511.56023       544.85923        17.94023
R12  20310196.14425    951209.58625     -2286.81025        32.67625
R01  23066231.38025   1978047.94925     -4665.45625        35.10225
R21  23613636.81924   -291330.46424       512.14124        24.03924
R03  20403131.80625   -977357.12625      2126.66025        32.57425
E07  24355598.87026    851952.60526     -2060.97226        40.14126  24355439.68026    637305.28526     -1539.03426        37.35526
E19  26824612.50723   -999382.23523      2321.03823        22.52423                                                                
E27  23298188.00025      7722.00525      -100.91525        32.74925  23298021.01625      5421.48525       -76.15625        32.54025
E30  25511385.43525   1022868.39925     -2426.03925        30.71825  25511223.24824    766907.53224     -1812.65824        26.79724
> 2023 11 07 23 49 51.0002226  0 20                      
G04  23694867.98427   1572408.32127     -3639.12127        44.44727  23694714.79026   1177026.15826     -2717.52026        39.51726
G05  24155174.72124   -444385.39824       906.68724        27.62124                                                                
G07  20912479.19226     -3610.87526       -41.45526        35.81626                                                                
G08  21947952.14926    -37462.80726       -68.83526        36.89126  21947789.36224    -28395.20624       -50.75624        28.45224
G09  21241782.02026   1100721.83326     -2612.12726        41.49426  21241618.03425    827513.08425     -1950.20525        33.38725
G14  21911564.83926  -1067086.60026      2338.13526        38.70326  21911403.25126   -802371.82826      1745.22726        39.40226
G20  23302790.71425    409112.37425     -1060.48625        30.72325                                                                
G22  23144684.66826  -1289813.97326      2857.86626        36.85726                                                                
G27  23722599.08625    940356.78125     -2274.29325        30.74225  23722436.29923    707612.14423     -1698.06823        22.65023
G30  21507323.49025   -588712.14425      1293.97025        31.32125  21507143.01524   -442520.12624       964.54624        27.31724
R02  19579436.13825    851758.17025     -2127.23125        34.30625
R13  19977431.61223   -284020.62023       529.10023        22.56223
R12  20314865.11226    978694.17526     -2292.66626        38.93226
R01  23076216.56826   2034047.43426     -4667.25226        35.81426
R21  23612018.84024   -297400.60324       503.85824        24.74224
R03  20397891.13425  -1002851.03125      2121.35525        31.90525
E07  24359827.44226    876708.21326     -2062.64026        38.25626  24359667.35325    655792.97625     -1543.60225        30.11525
E19  26818840.00323  -1027172.21723      2322.26323        21.02723                                                                
E27  23297940.37225      8922.02725      -105.31725        33.95625  23297774.28625      6361.75425       -78.10925        30.88525
E30  25516445.03326   1051977.80826     -2426.61426        36.83126  25516283.74425    788659.70125     -1813.30525        31.84125
> 2023 11 07 23 50 03.0002209  0 20                      
G04  23702674.88027   1616121.06927     -3650.32827        41.95127  23702521.08626   1209676.85826     -2725.92826        38.35626
G05  24152606.09924   -455200.72224       896.17424        28.17124                                                                
G07  20912054.98626     -3108.87426       -44.46226        38.10826                                                                
G08  21947606.18827    -36598.64227       -78.03227        42.02627  21947443.70126    -27737.74726       -57.96526        37.68126
G09  21247245.43826   1132121.05726     -2623.80926        40.65426  21247081.45226    850953.52026     -1958.85326        41.49026
G14  21905744.96825  -1095123.02325      2334.02125        32.43625  21905567.79124   -823266.89024      1738.81924        29.41224
G20  23304731.57024    421861.61724     -1066.57424        28.66424                                                                
G22  23137671.02424  -1324088.85824      2851.43224        29.22724                                                                
G27  23727296.23524    967685.67324     -2280.02024        28.35924  23727127.15223    728028.43023     -1705.20923        22.62723
G30  21503852.49326   -604202.56826      1289.44926        40.04726  21503688.50625   -454057.68125       963.31125        33.35525
R02  19583717.47526    877356.62626     -2143.22026        36.20926
R13  19975691.91623   -290393.56923       533.42323        21.83423
R12  20319511.59527   1006195.29827     -2294.79127        43.78527
R01  23086208.05125   2090086.13225     -4667.87825        33.40625
R21  23610369.38124   -303402.82924       497.67224        26.25024
R03  20392645.66526  -1028247.97726      2108.48026        38.76926
E07  24364033.83026    901495.19726     -2073.99726        38.77826  24363876.43926    674323.31226     -1548.12626        40.09426
E19  26813037.82025  -1054867.06325      2317.53225        29.96925  26812872.93424   -785471.08824      1732.81224        23.97724
E27  23297673.85625     10207.78225      -109.98925        32.16325  23297509.87025      7353.97825       -81.33425        30.28925
E30  25521468.95527   1081085.66527     -2427.47927        44.36027  25521314.86125    810465.98625     -1812.43425        29.51825
> 2023 11 07 23 50 15.0002192  0 20                      
G04  23710523.14625   1659914.19125     -3647.53625        33.48725                                                                
G05  24150046.47125   -465917.09125       888.11625        31.53325                                                                
G07  20911642.17126     -2589.13626       -43.41926        40.14226                                                                
G08  21947289.30826    -35589.89926       -89.57826        39.27726  21947122.92326    -26973.87126       -64.68526        37.05226
G09  21252734.03825   1163628.80525     -2628.79725        35.30825  21252567.95327    874498.97227     -1963.08127        42.00527
G14  21899928.99524  -1123117.48424      2328.98824        29.23824  21899743.42324   -844119.22424      1739.06924        24.46624
G20  23306658.33625    434682.88825     -1072.54825        30.15525                                                                
G22  23130687.35825  -1358350.90825      2852.79425        30.07825                                                                
G27  23731995.78124    995134.94424     -2286.59024        23.57824                                                                
G30  21500398.28425   -619666.14725      1288.05325        34.31125  21500234.89724   -465616.62324       961.34024        29.06924
R02  19588035.08525    903099.29625     -2149.16325        34.79125
R13  19974004.38524   -296756.36424       530.11124        24.21024
R12  20324160.47627   1033722.54327     -2293.09027        45.48727
R01  23096217.82125   2146108.57625     -4671.09725        32.48825
R21  23608791.87323   -309311.31223       481.46323        22.87023
R03  20387408.59125  -1053538.63325      2103.33825        35.07225
E07  24368270.19825    926410.86925     -2076.25125        34.38125  24368106.21126    692932.69026     -1551.72926        40.92926
E19  26807231.74024  -1082681.75724      2318.80324        25.82324                                                                
E27  23297418.73325     11573.05425      -115.47925        33.46725  23297253.84724      8359.99224       -85.42824        28.60024
E30  25526509.96526   1110242.52826     -2429.21626        40.45426  25526348.37726    832251.73726     -1813.71826        37.73626
> 2023 11 07 23 50 27.0002176  0 20                      
G04  23718372.91225   1703736.67825     -3655.78225        33.96025  23718214.02225   1275136.59225     -2730.10025        34.36225
G05  24147549.79924   -476549.22724       883.56524        28.97424                                                                
G07  20911259.93627     -2039.02127       -45.52427        42.29527                                                                
G08  21947018.29524    -34469.56924       -96.99024        26.48424  21946857.00724    -26128.27924       -73.34224        25.16924
G09  21258261.61226   1195210.62226     -2633.25526        36.91626  21258097.02627    898092.57627     -1967.74127        42.88727
G14  21894147.49724  -1151032.39724      2323.11824        27.17024  21893960.42724   -864917.15724      1732.05524        28.03424
G20  23308650.45724    447576.66324     -1079.61424        28.11324                                                                
G22  23123697.69724  -1392542.05524      2852.46824        28.62224                                                                
G27  23736737.29923   1022614.77323     -2299.08523        21.88523                                                                
G30  21496983.04825   -635105.55625      1285.87125        34.77625  21496812.16724   -477152.52424       961.17024        28.17524
R02  19592414.45425    928984.02025     -2157.76425        31.78425
R13  19972325.84724   -303057.66724       520.09224        28.41724
R12  20328834.84027   1061289.66727     -2299.39327        44.01027
R01  23106202.70924   2202208.62124     -4677.76124        24.66924
R21  23607219.76223   -315063.67623       475.84923        19.98823
R03  20382224.87925  -1078722.04825      2093.35125        35.02625
E07  24372538.64326    951390.22926     -2081.61926        35.85026  24372374.95626    711580.63726     -1555.00326        41.47626
E19  26801464.63224  -1110516.60924      2317.36424        29.18124                                                                
E27  23297208.57826     12986.26226      -119.30726        36.08326  23297039.19525      9411.46425       -89.34625        32.79825
E30  25531576.45726   1139410.84026     -2432.82926        41.10926  25531418.46726    854042.82826     -1816.99626        38.54526
> 2023 11 07 23 50 39.0002159  0 20                      
G04  23726229.27324   1747613.39224     -3658.90724        25.32624  23726056.29324   1307916.19924     -2731.57324        26.87424
G05  24145037.53825   -487063.43425       873.78825        33.99325                                                                
G07  20910857.31526     -1465.65126       -49.66626        40.53226                                                                
G08  21946766.17023    -33266.18723      -106.59923        23.43923                                                                
G09  21263773.89626   1226866.40326     -2640.12226        39.02926  21263608.41027    921734.31627     -1970.52527        41.95927
G14  21888334.22225  -1178918.83025      2319.29925        30.22225  21888154.64625   -885685.75325      1730.03725        29.63925
G20  23310606.90325    460547.24625     -1082.70325        32.67125                                                                
G22  23116694.54525  -1426718.08225      2843.91425        30.57725                                                                
G27  23741485.71123   1050248.43123     -2307.08923        21.36223                                                                
G30  21493528.24026   -650528.41026      1284.19626        40.66726  21493367.25125   -488638.98925       958.34525        34.81825
R02  19596771.93726    954968.83226     -2170.57326        35.68426
R13  19970648.50825   -309281.00325       515.32225        31.89425
R12  20333486.12027   1088894.44727     -2299.97027        43.09127
R01  23116229.86723   2258331.80623     -4676.88023        23.46823
R21  23605634.75923   -320685.23823       465.81523        22.38323
R03  20377019.58326  -1103798.58826      2086.51426        41.43526
E07  24376783.40426    976408.73726     -2084.44326        36.30326  24376621.51626    730259.16226     -1556.39726        40.51426
E19  26795663.64825  -1138327.78625      2316.25125        30.26525  26795511.95323   -847820.37523      1727.96723        21.99623
E27  23296966.34626     14430.15026      -123.48326        35.87626  23296802.95925     10497.04625       -91.04125        31.18425
E30  25536623.76326   1168610.70726     -2433.42926        39.46926  25536461.27625    875846.95625     -1816.39025        31.22525
> 2023 11 07 23 50 51.0002142  0 20                      
G04  23734075.74123   1791499.38523     -3658.60823        20.51023                                                                
G05  24142534.87125   -497493.37325       865.29125        34.77425                                                                
G07  20910461.58926      -864.26726       -48.61926        40.10126                                                                
G08  21946483.76524    -31952.16524      -113.39824        24.09724                                                                
G09  21269301.46925   1258580.04225     -2644.58225        35.43425  21269134.18526    945426.88426     -1975.44526        40.55526
G14  21882532.03825  -1206734.32625      2314.27025        33.08125  21882359.05824   -906431.39424      1726.25024        29.34624
G20  23312589.13025    473611.44125     -1091.47225        33.35025                                                                
G22  23109712.97925  -1460855.30925      2842.19325        31.41525                                                                
G27  23746227.82924   1077935.85224     -2309.17024        28.08024                                                                
G30  21490088.12227   -665922.29027      1282.24727        41.69627  21489926.83324   -500147.80024       958.38724        28.91324
R02  19601139.31425    981068.11825     -2184.13825        34.78625
R13  19968983.16125   -315440.29325       511.01225        30.10725
R12  20338148.79327   1116536.67427     -2302.82227        46.42027
R01  23126244.73423   2314468.51123     -4679.73423        20.42323
R21  23604078.83623   -326234.25123       458.06423        19.39723
R03  20371830.77526  -1128773.04226      2077.24726        41.27326
E07  24381040.75725   1001447.12825     -2091.45025        33.52325  24380879.46826    748974.27926     -1560.45226        39.47826
E19  26789861.16525  -1166107.50125      2313.35725        31.96625                                                                
E27  23296740.00226     15913.73626      -126.23226        35.70926  23296577.21525     11630.50425       -94.07125        31.56325
E30  25541664.77326   1197831.17626     -2434.85926        39.82826  25541509.18125    897668.79425     -1818.08925        33.28525
> 2023 11 07 23 51 03.0002125  0 20                      
G04  23741965.97923   1835335.72523     -3657.07723        17.56023                                                                
G05  24140047.19326   -507839.91626       857.64226        39.78126                                                                
G07  20910068.56126      -236.61226       -53.53526        41.39826                                                                
G08  21946250.52724    -30544.10624      -119.09424        26.86224                                                                
G09  21274837.13726   1290365.25726     -2652.54726        37.56826  21274671.05226    969169.92426     -1980.74426        40.84026
G14  21876755.63724  -1234478.84524      2315.04824        29.35524  21876576.06224   -927138.81824      1723.30724        27.60524
G20  23314566.26225    486772.29625     -1098.33225        34.77225                                                                
G22  23102725.41625  -1494921.09425      2834.91625        31.51025                                                                
G27  23750993.62926   1105682.06526     -2316.55926        35.57826  23750830.84225    830995.24925     -1730.12325        31.39025
G30  21486662.09326   -681307.25926      1279.00926        40.40226  21486493.31024   -511617.37124       953.69924        26.39324
R02  19605555.25725   1007311.69825     -2186.13625        31.50525
R13  19967315.11523   -321579.17723       513.55923        23.45523
R12  20342814.16327   1144217.55427     -2309.02427        44.30227
R01  23136264.09823   2370625.89823     -4678.74823        23.03123
R21  23602551.69324   -331665.21624       449.45224        26.28524
R03  20366682.13927  -1153638.28327      2069.09127        41.92427
E07  24385304.40526   1026547.87326     -2094.11626        35.99726  24385144.01626    767734.97826     -1564.17126        39.82526
E19  26784053.88525  -1193818.11125      2311.80425        34.60725  26783909.98523   -889290.48523      1726.49523        21.24123
E27  23296526.55025     17450.49625      -132.99025        34.13725  23296359.86625     12806.87025       -98.80525        30.67125
E30  25546717.47626   1227099.62026     -2439.28026        38.26026  25546560.38426    919505.30526     -1820.60726        37.93926
> 2023 11 07 23 51 15.0002109  0 20                      
G04  23749847.52324   1879296.83124     -3659.12924        27.01324                                                                
G05  24137611.97925   -518099.83725       851.19325        33.12625                                                                
G07  20909711.50826       418.33926       -55.47726        40.26626                                                                
G08  21946034.67627    -29051.57927      -130.55127        43.47827  21945870.69026    -22097.12026       -96.88926        37.59026
G09  21280418.07326   1322213.18726     -2656.89126        35.99026  21280251.68827    992963.02327     -1983.88227        42.28227
G14  21871006.81725  -1262169.72825      2307.34425        30.72625  21870830.83925   -947788.40925      1721.10725        31.46625
G20  23316593.15826    500011.29526     -1107.62226        36.22126                                                                
G22  23095784.92125  -1528924.20225      2832.84025        32.62225                                                                
G27  23755831.08023   1133513.50123     -2323.56523        23.43923                                                                
G30  21483252.55426   -696648.54826      1277.02026        40.67026  21483088.56725   -523059.24525       952.73225        30.96825
R02  19610005.37625   1033646.54725     -2199.32825        33.99425
R13  19965721.11925   -327603.16525       500.00125        31.61825
R12  20347514.30927   1171927.40227     -2309.43327        41.96227
R01  23146323.63423   2426769.20323     -4678.91923        20.97723
R21  23601051.83224   -337005.17624       442.34124        26.33324
R03  20361565.58127  -1178403.71627      2060.26527        45.20027
E07  24389612.12325   1051698.75725     -2097.34125        35.16925  24389448.13626    786514.12726     -1566.05726        41.33626
E19  26778282.58125  -1221568.96025      2311.36025        32.94625                                                                
E27  23296348.47426     19063.64026      -134.92126        36.88926  23296183.28825     14001.47225      -101.20925        32.97325
E30  25551804.65427   1256359.07527     -2438.91527        41.92227  25551644.86425    941386.45525     -1820.64325        33.83325
> 2023 11 07 23 51 27.0002092  0 20                      
G04  23757695.49023   1923225.82123     -3667.14323        23.47323                                                                
G05  24135150.68325   -528302.35425       849.05725        31.48325                                                                
G07  20909331.37126      1114.84626       -59.37026        37.29226                                                                
G08  21945848.20525    -27416.53725      -140.57425        31.78225  21945674.02626    -20858.41226      -106.25726        38.84226
G09  21285985.21925   1354119.06325     -2660.96425        33.32425  21285816.43624   1016819.81624     -1987.85824        27.00924
G14  21865211.82926  -1289831.09926      2304.04726        40.61026  21865052.93925   -968437.31325      1721.27625        32.86725
G20  23318605.06626    513281.25526     -1105.29826        36.74726                                                                
G22  23088786.86526  -1562912.90526      2833.95226        37.76326                                                                
G27  23760670.03023   1161506.12923     -2331.74123        21.53623                                                                
G30  21479818.13127   -711980.33127      1277.26127        43.61727  21479653.54525   -534511.44425       955.68625        35.35925
R02  19614445.60226   1060088.35326     -2209.30026        38.00626
R13  19964071.66125   -333604.25425       499.22725        33.36725
R12  20352201.56426   1199708.14126     -2318.27526        41.46926
R01  23156330.70625   2482984.43825     -4689.89625        30.38725
R21  23599571.15723   -342217.47823       430.64523        18.53523
R03  20356437.93127  -1203085.69027      2053.36727        46.52027
E07  24393895.55825   1076877.15025     -2101.67925        30.51825  24393732.77024    805350.83524     -1567.38924        23.64024
E19  26772489.69126  -1249319.11826      2312.73826        37.80726  26772331.70024   -930722.03724      1728.29424        28.23124
E27  23296147.91226     20712.00026      -138.60726        36.14326  23295984.52625     15216.52125      -102.86625        32.99525
E30  25556877.14226   1285704.95526     -2446.51626        38.40526  25556713.75526    963288.94026     -1826.22426        38.26026
> 2023 11 07 23 51 39.0002075  0 20                      
G04  23765576.43424   1967221.75324     -3664.41724        25.08324  23765405.55223   1472089.50223     -2742.99723        22.25223
G05  24132714.86924   -538423.92224       841.02424        27.84524                                                                
G07  20908956.63126      1831.16526       -61.28626        38.18426                                                                
G08  21945666.23125    -25651.05525      -149.34125        33.20725  21945498.64726    -19537.33126      -113.33626        39.67726
G09  21291569.15325   1386095.78425     -2664.89425        31.51625  21291393.47524   1040707.08224     -1994.16124        29.25224
G14  21859448.31926  -1317439.57826      2297.82026        41.15926  21859285.83125   -989050.51325      1714.98225        34.12525
G20  23320627.76525    526626.50125     -1115.92725        30.78825                                                                
G22  23081814.89225  -1596857.85625      2827.32225        34.41325                                                                
G27  23765471.80624   1189520.05024     -2333.99724        25.00324                                                                
G30  21476390.90427   -727300.48927      1275.94827        43.16627  21476228.11725   -545945.32025       952.16925        34.63125
R02  19618909.21226   1086650.12526     -2218.78426        36.78326
R13  19962442.88825   -339540.95225       490.97025        33.79225
R12  20356899.91127   1227528.36827     -2319.45827        41.93127
R01  23166329.98325   2539237.41825     -4689.99825        31.83925
R21  23598112.66724   -347323.49024       420.33624        26.71624
R03  20351337.86227  -1227663.56327      2044.01027        45.63027
E07  24398205.67424   1102120.24624     -2103.65924        29.42124  24398026.39824    824148.75924     -1574.08324        25.13024
E19  26766702.19824  -1277093.17724      2310.71724        25.34724                                                                
E27  23295960.24226     22413.46526      -144.66926        36.10926  23295796.25625     16450.60225      -108.87025        31.85025
E30  25561953.82825   1315073.68125     -2449.34925        31.77825  25561788.94224    985212.61124     -1827.56224        27.61524
> 2023 11 07 23 51 51.0002059  0 20                      
G04  23773462.77425   2011274.65325     -3670.20025        32.02125  23773303.28524   1504994.65924     -2738.29724        26.25424
G05  24130321.02624   -548452.35024       833.98324        25.69224                                                                
G07  20908616.66625      2575.77325       -62.96925        35.29525                                                                
G08  21945538.22025    -23803.06925      -154.55325        30.32025  21945372.13525    -18138.77625      -119.27025        35.09025
G09  21297183.06725   1418112.98325     -2671.83025        35.02925  21297015.78325   1064650.46225     -1995.14725        29.94125
G14  21853718.08626  -1345004.48426      2293.25026        38.33326  21853557.99726  -1009634.52626      1715.12526        36.73926
G20  23322698.13226    540029.92926     -1118.75026        39.48326                                                                
G22  23074878.59426  -1630763.52726      2824.47826        38.75226                                                                
G27  23770340.13624   1217596.35424     -2345.58924        26.87124  23770168.35524    914570.20324     -1750.95024        25.11424
G30  21473000.85125   -742594.19025      1275.63625        34.16525  21472834.46625   -557371.39325       952.56425        29.94325
R02  19623428.28326   1113321.99126     -2225.92526        38.62226
R13  19960858.78525   -345419.62525       487.52225        29.73925
R12  20361634.23426   1255370.58726     -2327.46726        36.27626
R01  23176361.93824   2595484.83924     -4682.87724        27.57624
R21  23596715.03424   -352335.26524       414.51124        25.96324
R03  20346270.17025  -1252143.53925      2034.05025        35.07025
E07  24402524.48425   1127378.44325     -2108.66125        33.63325  24402358.39924    843092.55124     -1574.50924        24.31124
E19  26760940.18724  -1304763.28224      2309.58824        26.47024                                                                
E27  23295807.64826     24194.07026      -147.55626        37.15826  23295643.66125     17794.84425      -109.47125        30.97725
E30  25567059.29326   1344383.32426     -2450.03826        36.87026  25566896.80626   1007057.94726     -1829.24926        40.95826
> 2023 11 07 23 52 03.0002042  0 20                      
G04  23781344.31825   2055331.53725     -3673.65725        30.06425  23781180.63124   1537916.36524     -2746.88724        28.70724
G05  24127919.98924   -558362.68624       824.12524        25.32924                                                                
G07  20908256.91526      3342.56326       -66.49726        37.24426                                                                
G08  21945418.90325    -21859.19725      -160.23725        29.72625  21945238.42824    -16664.44424      -124.30224        23.99924
G09  21302778.39325   1450216.43925     -2677.18425        34.01725  21302617.10525   1088612.80825     -1998.89225        32.07425
G14  21847970.46527  -1372528.46627      2289.94327        41.88027  21847810.07625  -1030175.48325      1710.30825        32.77225
G20  23324747.21427    553505.08827     -1125.99727        45.88827                                                                
G22  23067920.71127  -1664623.83827      2819.07227        43.08827                                                                
G27  23775205.46824   1245810.90824     -2356.81224        26.79424  23775024.39325    935660.96625     -1761.74025        30.67825
G30  21469574.52325   -757865.32825      1272.15125        31.44325  21469417.43225   -568728.03025       948.20425        32.32825
R02  19627946.75526   1140104.82126     -2235.69226        38.44226
R13  19959249.79924   -351231.60624       479.63724        25.91124
R12  20366350.86925   1283258.33825     -2323.45825        32.30325
R01  23186381.30224   2651738.28124     -4694.11624        27.32124
R21  23595297.91524   -357189.84224       402.53724        25.58924
R03  20341214.77027  -1276501.42727      2026.78927        42.61627
E07  24406831.60225   1152673.15725     -2113.91325        30.66125  24406669.11525    862011.41225     -1575.93825        29.51525
E19  26755161.98723  -1332464.17823      2307.19423        21.56223                                                                
E27  23295634.66826     25972.00126      -152.27326        36.70826  23295474.57925     19170.57225      -113.52325        32.37225
E30  25572147.07125   1373770.61725     -2451.11825        31.91925  25571981.88525   1029029.65125     -1831.77925        35.34925
> 2023 11 07 23 52 15.0002026  0 20                      
G04  23789268.13224   2099451.74124     -3675.28524        28.15424  23789103.54624   1570883.20724     -2749.94524        26.37124
G05  24125551.32824   -568207.39124       813.08724        26.63324                                                                
G07  20907927.74326      4151.59526       -69.44526        35.97326                                                                
G08  21945322.07025    -19859.58625      -168.53125        30.99425  21945149.38926    -15099.28926      -132.87926        35.99426
G09  21308427.38325   1482372.67725     -2684.59425        34.59625  21308259.79924   1112619.56024     -2004.46824        28.44624
G14  21842256.72027  -1399990.92927      2290.22227        42.12927  21842097.23126  -1050688.58426      1708.09526        37.50926
G20  23326843.96227    567055.52127     -1131.30127        45.22827                                                                
G22  23061004.49926  -1698448.26626      2814.72226        37.47126                                                                
G27  23780115.76824   1274100.84724     -2362.60224        24.09624                                                                
G30  21466197.36126   -773108.92926      1268.62426        38.94426  21466032.77526   -580101.83426       948.90726        35.66926
R02  19632488.01126   1167019.20926     -2247.45826        37.82426
R13  19957694.77525   -356984.89825       476.13925        32.47325
R12  20371098.98225   1311183.25525     -2327.82425        33.26825
R01  23196426.14825   2708041.34025     -4691.51925        32.43125
R21  23593953.94624   -361971.87924       393.94524        23.69124
R03  20336201.64127  -1300755.43027      2018.53527        43.48927
E07  24411177.09425   1177975.57125     -2116.81125        30.55425  24411018.80324    880934.03724     -1580.82524        26.35324
E19  26749401.17525  -1360122.69325      2306.63025        31.45525                                                                
E27  23295506.05725     27825.01225      -156.79725        35.10725  23295344.16924     20553.46024      -116.82024        26.55224
E30  25577285.51423   1403125.27223     -2448.86323        23.47623                                                                
> 2023 11 07 23 52 27.0002009  0 20                      
G04  23797177.25725   2143589.38925     -3677.12125        29.85225  23797000.08023   1603867.35823     -2751.95423        21.53323
G05  24123195.25923   -577958.39423       807.72423        21.48423                                                                
G07  20907572.78926      5002.16326       -71.21726        39.22126                                                                
G08  21945232.13224    -17747.84524      -179.33524        28.26124  21945050.15823    -13474.95423      -135.68823        22.40823
G09  21314061.08324   1514609.66624     -2686.86324        28.47424  21313882.10623   1136698.31423     -2008.86323        21.47023
G14  21836532.78326  -1427405.13626      2283.33426        40.03426  21836367.89725  -1071162.62425      1705.36925        34.36025
G20  23328925.72127    580684.64627     -1138.65327        44.65727                                                                
G22  23054050.81326  -1732229.34026      2816.57426        38.36426                                                                
G27  23785001.18627   1302450.01327     -2365.39727        43.32827  23784841.99725    977973.63625     -1765.31625        34.87725
G30  21462786.32226   -788322.20726      1268.88526        38.34826  21462625.03425   -591467.84525       947.42425        29.63825
R02  19637050.25325   1194034.45025     -2251.16425        35.03025
R13  19956128.06025   -362650.10325       472.89125        33.47525
R12  20375809.02126   1339145.91726     -2331.44026        35.63126
R01  23206488.38225   2764385.74325     -4692.35825        30.31025
R21  23592558.11225   -366627.06325       383.31725        32.63425
R03  20331172.62227  -1324909.55827      2008.69527        42.72627
E07  24415513.29224   1203352.93624     -2117.72124        27.25924                                                                
E19  26743627.47223  -1387760.92023      2304.92523        21.85223                                                                
E27  23295356.16125     29706.82625      -159.54725        30.99525                                                                
E30  25582370.89324   1432565.21424     -2449.80824        26.55124                                                                
> 2023 11 07 23 52 39.0001992  0 19                      
G04  23805091.77824   2187745.29524     -3681.41124        24.04624  23804893.91524   1636841.30124     -2748.34824        26.25824
G07  20907225.92926      5865.48026       -76.07326        40.80026                                                                
G08  21945165.87823    -15538.17923      -186.29023        20.92723                                                                
G09  21319703.17725   1546909.09125     -2697.31825        31.15425  21319520.30325   1160862.65125     -2011.81825        30.20825
G14  21830826.53325  -1454740.18125      2272.52325        33.58625  21830660.14825  -1091559.00825      1698.95425        31.63525
G20  23331027.56626    594446.38926     -1151.72826        36.03826                                                                
G22  23047144.49425  -1765937.55425      2807.27425        32.06725                                                                
G27  23789896.79727   1330874.98327     -2376.23127        46.88027  23789738.20726    999202.40226     -1774.20526        36.78426
G30  21459388.17526   -803484.25926      1262.09926        38.22126  21459227.18624   -602783.60524       941.56824        28.34424
R02  19641633.18025   1221175.62725     -2267.65425        31.30625
R13  19954566.74125   -368228.31025       462.03625        31.48525
R12  20380531.05227   1367127.74727     -2335.31827        42.83127
R01  23216542.52224   2820730.23724     -4701.73724        27.73124
R21  23591212.04425   -371148.30725       370.40525        31.46925
R03  20326181.67726  -1348932.84526      1995.69526        41.26826
E07  24419868.07724   1228816.92024     -2120.93424        25.60024  24419678.00924    918936.05324     -1585.23324        27.67224
E19  26737873.25622  -1415382.18122      2302.66322        12.80622                                                                
E27  23295217.35725     31633.03225      -164.74025        34.63925                                                                
E30  25587450.57727   1461979.22527     -2455.26927        44.66427  25587290.48725   1094938.38225     -1833.19325        35.24925
